{"version": 0.6, "generator": "Overpass API 0.7.62.10 2d4cfc48", "osm3s": {"timestamp_osm_base": "2026-02-02T14:17:29Z", "copyright": "The data included in this document is from www.openstreetmap.org. The data is made available under ODbL."}, "elements": [{"type": "node", "id": 707134015, "lat": 50.8136369, "lon": 4.3385398, "tags": {"amenity": "restaurant", "brand": "Pizza Hut", "brand:wikidata": "Q191615", "brand:wikipedia": "en:Pizza Hut", "check_date:opening_hours": "2024-04-10", "cuisine": "pizza", "name": "Pizza Hut", "opening_hours:signed": "no"}}, {"type": "node", "id": 797084329, "lat": 50.8139143, "lon": 4.3388962, "tags": {"amenity": "restaurant", "contact:email": "info@lastazione.be", "contact:phone": "+32 2 524 42 11", "contact:website": "https://lastazione.be/", "craft": "caterer", "cuisine": "italian", "name": "La Stazione Alimentari", "opening_hours": "Tu,We 10:00-19:00; Th-Sa 10:00-22:30"}}, {"type": "node", "id": 1069393817, "lat": 50.792003, "lon": 4.332963, "tags": {"amenity": "restaurant", "cuisine": "moroccan", "name": "Chez Hassan", "website": "https://resto-calvoet.be"}}, {"type": "node", "id": 2349963369, "lat": 50.8027702, "lon": 4.3403789}, {"type": "node", "id": 2349963382, "lat": 50.8028201, "lon": 4.3403794}, {"type": "node", "id": 2349997620, "lat": 50.8041511, "lon": 4.3394694, "tags": {"amenity": "restaurant", "contact:website": "https://tontons.be/", "name": "Les Tontons"}}, {"type": "node", "id": 2349997777, "lat": 50.8027555, "lon": 4.3403813}, {"type": "node", "id": 2349997795, "lat": 50.8027778, "lon": 4.3406014}, {"type": "node", "id": 2349997818, "lat": 50.8028071, "lon": 4.3406671}, {"type": "node", "id": 2349997828, "lat": 50.8028259, "lon": 4.3405574}, {"type": "node", "id": 2349997844, "lat": 50.8028476, "lon": 4.340765}, {"type": "node", "id": 2349997862, "lat": 50.8028671, "lon": 4.340504}, {"type": "node", "id": 2349997864, "lat": 50.8028696, "lon": 4.3405013}, {"type": "node", "id": 2349997876, "lat": 50.8028936, "lon": 4.340719}, {"type": "node", "id": 2349997899, "lat": 50.8029401, "lon": 4.3406725}, {"type": "node", "id": 5016260229, "lat": 50.8029878, "lon": 4.3396841, "tags": {"amenity": "restaurant", "cuisine": "swiss", "name": "Au Petit Suisse"}}, {"type": "node", "id": 5927307148, "lat": 50.7974436, "lon": 4.3362281, "tags": {"amenity": "restaurant", "cuisine": "french", "name": "Bouch\u00e9ry"}}, {"type": "node", "id": 5936636385, "lat": 50.7915779, "lon": 4.3332518, "tags": {"amenity": "restaurant", "check_date": "2024-11-01", "cuisine": "burger", "name": "Green Mango"}}, {"type": "node", "id": 5985329765, "lat": 50.7967532, "lon": 4.3359122, "tags": {"amenity": "restaurant", "cuisine": "french", "name": "Petits Bouchons", "outdoor_seating": "no"}}, {"type": "node", "id": 6077383335, "lat": 50.7941713, "lon": 4.3343577, "tags": {"amenity": "restaurant", "capacity": "10", "contact:phone": "+32 2 376 31 23", "cuisine": "sushi;asian", "delivery": "yes", "name": "Saveurs d'Asie", "opening_hours": "Mo-Fr 11:30-15:00,17:30-22:30; Sa,Su 12:00-22:30", "outdoor_seating": "no", "takeaway": "yes"}}, {"type": "node", "id": 6535073785, "lat": 50.8124906, "lon": 4.3407081, "tags": {"amenity": "restaurant", "contact:mobile": "+32 494 68 96 60", "contact:website": "https://www.stkildabxl.be/", "name": "St Kilda", "opening_hours": "Mo-Fr 19:00-22:00"}}, {"type": "node", "id": 6966406044, "lat": 50.8070636, "lon": 4.3338194, "tags": {"amenity": "restaurant", "contact:email": "lescrepesdalex@yahoo.com", "contact:mobile": "+32 497 29 86 30", "contact:website": "https://lescrepesdalex.eu/", "cuisine": "crepe", "name": "Les cr\u00eapes d'Alex", "reservation": "required"}}, {"type": "node", "id": 7040321452, "lat": 50.8003123, "lon": 4.3362777, "tags": {"amenity": "restaurant", "contact:phone": "+32 2 851 28 97", "contact:website": "https://www.motherindia.be", "cuisine": "indian", "delivery": "yes", "name": "Mother India", "opening_hours": "Mo-Fr 12:00-22:00; Sa-Su 12:00-23:00", "takeaway": "yes"}}, {"type": "node", "id": 10265639779, "lat": 50.8067204, "lon": 4.3377661, "tags": {"amenity": "restaurant", "contact:instagram": "https://www.instagram.com/amakara_be/", "contact:website": "https://www.amakara-cuisine.com", "cuisine": "japanese", "name": "Amakara", "opening_hours": "\"by appointment\""}}, {"type": "node", "id": 10648359659, "lat": 50.807214, "lon": 4.3369488, "tags": {"amenity": "restaurant", "check_date": "2024-02-20", "contact:phone": "+32 2 345 97 31", "contact:website": "https://piree.be/", "cuisine": "greek", "delivery": "yes", "internet_access": "wlan", "name": "Les Enfants du Pir\u00e9e", "opening_hours": "Mo,Tu off; We-Su 12:00-14:30,18:30-23:30; Fr,Sa 12:00-14:30,18:30-00:30", "payment:american_express": "yes", "payment:maestro": "yes", "payment:mastercard": "yes", "payment:visa": "yes"}}, {"type": "node", "id": 11152765859, "lat": 50.8024711, "lon": 4.339623, "tags": {"amenity": "restaurant", "contact:email": "pozbrussels@gmail.com", "contact:mobile": "+32 484 27 58 95", "contact:website": "https://pozbrussels.be/fr/etablissements/9163703003201405140", "cuisine": "coffee", "opening_hours": "Mo-Su 09:00-18:00", "payment:cards": "yes", "payment:cash": "yes", "payment:qr_code": "no", "reservation": "no", "wheelchair": "yes"}}, {"type": "node", "id": 11194805243, "lat": 50.7983206, "lon": 4.3381521, "tags": {"amenity": "restaurant", "contact:email": "chezlumarestaurant@gmail.com", "contact:mobile": "+32 498 14 83 83", "contact:website": "https://www.chezluma.be/", "cuisine": "french", "name": "Chez Luma", "opening_hours": "We-Su 18:00-23:30"}}, {"type": "node", "id": 11922107770, "lat": 50.8100732, "lon": 4.3373117, "tags": {"amenity": "restaurant", "name": "Meat Mozart"}}, {"type": "node", "id": 12212890833, "lat": 50.8079705, "lon": 4.3367225, "tags": {"amenity": "restaurant", "contact:email": "info@spijtigenduivel.com", "contact:phone": "+32 2 344 34 55", "contact:website": "https://www.spijtigenduivel.com/", "cuisine": "regional", "name": "Au Vieux Spijtigen Duivel", "opening_hours": "Mo-Su 11:30-23:30"}}, {"type": "node", "id": 12313788545, "lat": 50.8032069, "lon": 4.3400595, "tags": {"amenity": "restaurant"}}, {"type": "node", "id": 12313819868, "lat": 50.8031733, "lon": 4.3398189, "tags": {"amenity": "restaurant"}}, {"type": "node", "id": 12313823215, "lat": 50.8034931, "lon": 4.340446, "tags": {"amenity": "restaurant"}}, {"type": "node", "id": 12565979161, "lat": 50.8033689, "lon": 4.3386797, "tags": {"amenity": "restaurant", "contact:email": "info@leparvis.be", "contact:phone": "+32 2 850 87 53", "contact:website": "https://leparvis.be/", "cuisine": "belgian;french", "diet:vegetarian": "no", "name": "Le Parvis", "opening_hours": "Tu-Sa 12:00-23:00; Su 12:00-18:00", "wheelchair": "no"}}, {"type": "node", "id": 13095330590, "lat": 50.8101013, "lon": 4.344563, "tags": {"amenity": "restaurant", "cuisine": "fondue", "name": "Henri 1er"}}, {"type": "way", "id": 1057618025, "nodes": [2349997899, 2349997862, 2349997864, 2349963382, 2349963369, 2349997777, 2349997828, 2349997795, 2349997818, 2349997844, 2349997876, 2349997899], "tags": {"amenity": "restaurant", "contact:email": "info@caffealdente.com", "contact:phone": "+32 2 343 45 23", "contact:website": "https://caffealdente.com/", "description:it": "Osteria, negozio, enoteca", "diet:vegetarian": "yes", "name": "Caffe Al Dente", "opening_hours": "Tu-Fr 12:00-14:30,19:00-22:30; Sa 19:00-22:30"}}]}