{"version": 0.6, "generator": "Overpass API 0.7.62.10 2d4cfc48", "osm3s": {"timestamp_osm_base": "2026-02-03T09:31:46Z", "copyright": "The data included in this document is from www.openstreetmap.org. The data is made available under ODbL."}, "elements": [{"type": "node", "id": 1708688923, "lat": 50.8636892, "lon": 4.374586, "tags": {"amenity": "pub", "contact:facebook": "https://www.facebook.com/lebarboteurbierotheque/", "contact:mobile": "+32 470 83 21 72", "contact:website": "http://lebarboteurbierotheque.be/", "name": "Le Barboteur", "old_name": "100 papiers", "opening_hours": "Tu-Su 15:00-01:00", "operator": "Sebastien Albanese", "outdoor_seating": "sidewalk", "product": "beer", "shop": "beverages", "start_date": "2015", "was:shop": "books"}}, {"type": "node", "id": 5316425380, "lat": 50.8599968, "lon": 4.3690749, "tags": {"amenity": "bar", "contact:email": "anefou21@gmail.com", "contact:facebook": "https://www.facebook.com/lanefou", "indoor_seating": "yes", "name": "l'\u00c2ne Fou - Zotte Ezel", "opening_hours": "Mo-Tu 10:00-15:00; We-Fr 10:00-01:00", "outdoor_seating": "yes"}}, {"type": "node", "id": 6111000357, "lat": 50.8649974, "lon": 4.3757725, "tags": {"amenity": "pub", "name": "Cafe Planet"}}, {"type": "node", "id": 7476116261, "lat": 50.8629491, "lon": 4.3776622, "tags": {"amenity": "pub", "indoor_seating": "yes", "name": "Au sans nom", "outdoor_seating": "yes"}}, {"type": "node", "id": 8619153982, "lat": 50.865878, "lon": 4.3730863, "tags": {"amenity": "pub", "contact:email": "joel@lamule.be", "contact:facebook": "https://www.facebook.com/brasseriedelamule/", "contact:website": "https://brasseriedelamule.wixsite.com/mon-site", "craft": "brewery", "description": "La Brasserie de la Mule est un projet de production de bi\u00e8res issues d'ingr\u00e9dients biologiques en plein c\u0153ur du quartier historique de Schaerbeek.", "microbrewery": "yes", "name": "Brasserie de la Mule", "opening_hours": "We-Su 16:00-22:00", "operator": "Jo\u00ebl Galy", "organic": "only", "wikidata": "Q106695139"}}, {"type": "node", "id": 9725152361, "lat": 50.8614537, "lon": 4.3720864, "tags": {"amenity": "pub", "name": "Le Mystic", "panoramax": "f1195c63-1ea3-4b87-8acc-4c143d5f1d89"}}, {"type": "node", "id": 10130005739, "lat": 50.8597495, "lon": 4.3756272, "tags": {"amenity": "bar", "check_date": "2022-10-26", "name": "Tequila"}}, {"type": "node", "id": 10798752216, "lat": 50.8550084, "lon": 4.3671718, "tags": {"amenity": "pub", "entrance:kerb:height": "0.18", "entrance:step_count": "1", "entrance:width": "0.82", "name": "Le Capitaine", "toilets:wheelchair": "no"}}, {"type": "node", "id": 11489404395, "lat": 50.8613435, "lon": 4.3698628, "tags": {"amenity": "bar", "name": "Pyramid"}}]}