{"version": 0.6, "generator": "Overpass API 0.7.62.10 2d4cfc48", "osm3s": {"timestamp_osm_base": "2026-02-02T15:59:45Z", "copyright": "The data included in this document is from www.openstreetmap.org. The data is made available under ODbL."}, "elements": [{"type": "node", "id": 494911152, "lat": 50.8124994, "lon": 4.4280379, "tags": {"name": "Avenue Herrmann-Debroux - Herrmann-Debrouxlaan", "name:fr": "Avenue Herrmann-Debroux", "name:nl": "Herrmann-Debrouxlaan", "railway": "subway_entrance", "ref": "2", "wheelchair": "no"}}, {"type": "node", "id": 494911153, "lat": 50.8121499, "lon": 4.4281635, "tags": {"name": "Avenue Herrmann-Debroux - Herrmann-Debrouxlaan", "name:fr": "Avenue Herrmann-Debroux", "name:nl": "Herrmann-Debrouxlaan", "railway": "subway_entrance", "ref": "1", "wheelchair": "no"}}, {"type": "node", "id": 495205098, "lat": 50.8172736, "lon": 4.4052447, "tags": {"name": "Parking Delta", "railway": "subway_entrance", "ref": "1", "wheelchair": "yes"}}, {"type": "node", "id": 2086042954, "lat": 50.8183499, "lon": 4.4042757, "tags": {"name": "Boulevard des Invalides - Invalidenlaan", "name:fr": "Boulevard des Invalides", "name:nl": "Invalidenlaan", "railway": "subway_entrance", "ref": "3", "wheelchair": "yes"}}, {"type": "node", "id": 3498543293, "lat": 50.8219644, "lon": 4.4056103, "tags": {"name": "Chauss\u00e9e de Wavre - Waversesteenweg", "name:fr": "Chauss\u00e9e de Wavre", "name:nl": "Waversesteenweg", "railway": "subway_entrance", "ref": "2", "wheelchair": "no", "wheelchair:description": "this subway entrance has no elevator. special entrance for wheelchairs but then stairs. better take entrance of subway at opposite side of Chaussee de Wavre/Waverse steenweg! deze metro ingang heeft geen rolstoelvriendelijke lift. speciale ingang voor ro"}}, {"type": "node", "id": 3498543294, "lat": 50.8215993, "lon": 4.4055172, "tags": {"name": "Chauss\u00e9e de Wavre - Waversesteenweg", "name:fr": "Chauss\u00e9e de Wavre", "name:nl": "Waversesteenweg", "railway": "subway_entrance", "ref": "1", "wheelchair": "yes"}}, {"type": "node", "id": 4417210005, "lat": 50.818039, "lon": 4.4040829, "tags": {"layer": "-1", "level": "-1", "name": "Rue Jules Cockx - Jules Cockxstraat", "name:fr": "Rue Jules Cockx", "name:nl": "Jules Cockxstraat", "railway": "subway_entrance", "ref": "4", "wheelchair": "no"}}, {"type": "node", "id": 4689113734, "lat": 50.8151172, "lon": 4.4094474, "tags": {"name": "Rue Jules Cockx - Jules Cockxstraat", "name:fr": "Rue Jules Cockx", "name:nl": "Jules Cockxstraat", "railway": "subway_entrance", "ref": "1", "wheelchair": "yes"}}, {"type": "node", "id": 4689113747, "lat": 50.8152201, "lon": 4.4086984, "tags": {"name": "Rue Jules Cockx - Jules Cockxstraat", "name:fr": "Rue Jules Cockx", "name:nl": "Jules Cockxstraat", "railway": "subway_entrance", "ref": "2", "wheelchair": "no"}}, {"type": "node", "id": 4689113749, "lat": 50.8151307, "lon": 4.4086858, "tags": {"name": "Rue Jules Cockx - Jules Cockxstraat", "name:fr": "Rue Jules Cockx", "name:nl": "Jules Cockxstraat", "railway": "subway_entrance", "ref": "5", "wheelchair": "no"}}, {"type": "node", "id": 4689113753, "lat": 50.8149693, "lon": 4.4105621, "tags": {"name": "Avenue des Meuniers - Mulderslaan", "name:fr": "Avenue des Meuniers", "name:nl": "Mulderslaan", "railway": "subway_entrance", "ref": "4", "wheelchair": "no"}}, {"type": "node", "id": 4689113755, "lat": 50.8150605, "lon": 4.41058, "tags": {"name": "Avenue des Meuniers - Mulderslaan", "name:fr": "Avenue des Meuniers", "name:nl": "Mulderslaan", "railway": "subway_entrance", "ref": "3", "wheelchair": "no"}}, {"type": "node", "id": 4695854454, "lat": 50.8140438, "lon": 4.4207049, "tags": {"name": "Avenue Louis Dehoux - Louis Dehouxlaan", "name:fr": "Avenue Louis Dehoux", "name:nl": "Louis Dehouxlaan", "railway": "subway_entrance", "ref": "2", "wheelchair": "no"}}, {"type": "node", "id": 4695854470, "lat": 50.8137181, "lon": 4.4194231, "tags": {"check_date:wheelchair": "2022-07-10", "name": "Avenue E.Van Nieuwenhuyse - Edmond van Nieuwenhuyselaan", "name:fr": "Avenue E.Van Nieuwenhuyse", "name:nl": "Edmond van Nieuwenhuyselaan", "railway": "subway_entrance", "ref": "1", "wheelchair": "no"}}, {"type": "node", "id": 4695937884, "lat": 50.8135042, "lon": 4.4223098, "tags": {"name": "Avenue Louis Dehoux - Louis Dehouxlaan", "name:fr": "Avenue Louis Dehoux", "name:nl": "Louis Dehouxlaan", "railway": "subway_entrance", "ref": "3", "wheelchair": "yes"}}, {"type": "node", "id": 4695939601, "lat": 50.8133551, "lon": 4.422453, "tags": {"name": "Avenue Louis Dehoux - Louis Dehouxlaan", "name:fr": "Avenue Louis Dehoux", "name:nl": "Louis Dehouxlaan", "railway": "subway_entrance", "ref": "4", "wheelchair": "no"}}, {"type": "node", "id": 4695939606, "lat": 50.8129568, "lon": 4.4214326, "tags": {"name": "Avenue E.Van Nieuwenhuyse - Edmond van Nieuwenhuyselaan", "name:fr": "Avenue E.Van Nieuwenhuyse", "name:nl": "Edmond van Nieuwenhuyselaan", "railway": "subway_entrance", "ref": "5", "wheelchair": "yes"}}, {"type": "node", "id": 6236690826, "lat": 50.8120983, "lon": 4.4282788, "tags": {"name": "Avenue Herrmann-Debroux - Herrmann-Debrouxlaan", "name:fr": "Avenue Herrmann-Debroux", "name:nl": "Herrmann-Debrouxlaan", "railway": "subway_entrance", "ref": "1H", "wheelchair": "yes"}}]}