{"version": 0.6, "generator": "Overpass API 0.7.62.10 2d4cfc48", "osm3s": {"timestamp_osm_base": "2026-02-02T16:11:56Z", "copyright": "The data included in this document is from www.openstreetmap.org. The data is made available under ODbL."}, "elements": [{"type": "node", "id": 2476749671, "lat": 50.8494961, "lon": 4.3719431, "tags": {"amenity": "cafe", "contact:website": "https://gpatsis.wixsite.com/cantinejosee", "description": "Een open ontmoetingsplek van GC Ten Noey, bib Joske, Brede School Sint-Joost en de gemeente Sint-Joost-ten-Node. Temporary open: 11 febr - 17 april 2022", "name": "Cantine Jos\u00e9e", "panoramax": "b2905910-93f7-4afb-b0b5-22f6a5c1239e", "panoramax:0": "c9a3b871-1741-4f05-a999-e7ad83b6bbfb", "panoramax:1": "260d82b8-b5de-4f6a-90cb-6c68c7a0e43e", "social_facility": "community_centre", "start_date": "2022-02-11"}}, {"type": "node", "id": 4887211960, "lat": 50.8555093, "lon": 4.3586699, "tags": {"amenity": "cafe", "brand": "Starbucks", "brand:wikidata": "Q37158", "brand:wikipedia": "en:Starbucks", "check_date": "2025-09-07", "cuisine": "coffee_shop", "drive_through": "no", "indoor_seating": "yes", "level": "0", "name": "Starbucks", "official_name": "Starbucks Coffee", "opening_hours": "Mo-Fr 06:30-21:00,09:00-18:00; Sa 07:30-21:00; Su 08:00-20:00; PH 08:00-21:00", "operator": "Autogrill Belgi\u00eb NV", "outdoor_seating": "pedestrian_zone", "payment:cash": "yes", "payment:credit_cards": "yes", "payment:debit_cards": "yes", "ref:vatin": "BE0414555036", "takeaway": "yes"}}, {"type": "node", "id": 6952745785, "lat": 50.8487714, "lon": 4.3738357, "tags": {"amenity": "cafe", "cuisine": "french", "name": "Liber"}}, {"type": "node", "id": 6966406040, "lat": 50.8478609, "lon": 4.3698522, "tags": {"alt_name": "Lan Se Tea House", "amenity": "cafe", "contact:website": "https://www.lheurebleue.net/", "cuisine": "teahouse", "name": "L'heure bleue"}}, {"type": "node", "id": 7657447218, "lat": 50.848361, "lon": 4.3704124, "tags": {"air_conditioning": "yes", "amenity": "cafe", "bar": "yes", "contact:email": "hello@tandemcafe.be", "contact:mobile": "+32 474 27 10 75", "contact:phone": "+32 2 329 01 00", "contact:website": "https://tandemcafe.be/", "cuisine": "coffee_shop", "description": "Bicycle caf\u00e9 with food, good coffee and bike repair", "description:fr": "Caf\u00e9 v\u00e9lo proposant du tr\u00e8s bon caf\u00e9, de la petite restauration et un service de r\u00e9paration de v\u00e9los", "description:nl": "Fietscaf\u00e9 met een aanbod van hapjes,straffe koffie en een fietsatelier", "diet:vegan": "yes", "diet:vegetarian": "yes", "indoor_seating": "yes", "name": "Tandem Caf\u00e9", "opening_hours": "Mo-We 09:00-18:00; Th 09:00-20:00; Fr 09:00-18:00", "outdoor_seating": "yes", "payment:cash": "yes", "payment:debit_cards": "yes", "reservation": "yes", "service:bicycle:diy": "no", "service:bicycle:pump": "yes", "service:bicycle:repair": "yes", "service:bicycle:retail": "no", "service:bicycle:second_hand": "no", "shop": "bicycle", "smoking": "outside", "start_date": "2020-06-25", "takeaway": "yes", "wheelchair": "yes"}}, {"type": "node", "id": 11940262190, "lat": 50.8538569, "lon": 4.3737224, "tags": {"amenity": "cafe", "check_date:opening_hours": "2024-09-12", "name": "Lunch Brussels", "opening_hours:signed": "no"}}, {"type": "node", "id": 12685312707, "lat": 50.8573279, "lon": 4.3622431, "tags": {"amenity": "cafe", "name": "Vox Metro"}}, {"type": "node", "id": 12980281974, "lat": 50.8532138, "lon": 4.3736262, "tags": {"amenity": "cafe", "full_name": "Cafe Houwaert Chez Mustafa", "name": "Cafe Houwaert"}}, {"type": "node", "id": 13246126074, "lat": 50.8592421, "lon": 4.3605553, "tags": {"amenity": "cafe", "cuisine": "coffee_shop", "name": "Capri Coffee", "outdoor_seating": "yes"}}, {"type": "node", "id": 13287403733, "lat": 50.8539909, "lon": 4.370523, "tags": {"amenity": "cafe", "contact:mobile": "+32 456 17 56 35", "contact:website": "https://chineseteawithwenwei.substack.com/", "cuisine": "tea", "name": "Chinese Tea with Wenwei", "opening_hours": "Fr-Su 10:00-21:00", "payment:bank_transfer": "yes", "payment:cash": "yes", "takeaway": "no", "wheelchair": "no"}}]}