{"version": 0.6, "generator": "Overpass API 0.7.62.10 2d4cfc48", "osm3s": {"timestamp_osm_base": "2026-02-03T08:50:45Z", "copyright": "The data included in this document is from www.openstreetmap.org. The data is made available under ODbL."}, "elements": [{"type": "node", "id": 3059109802, "lat": 50.8286785, "lon": 4.3354806, "tags": {"amenity": "restaurant", "cuisine": "brazilian", "name": "Boteco's"}}, {"type": "node", "id": 3376191704, "lat": 50.8275183, "lon": 4.3388507, "tags": {"amenity": "restaurant", "cuisine": "portuguese", "name": "O Assador"}}, {"type": "node", "id": 9580784139, "lat": 50.8265886, "lon": 4.3386044, "tags": {"amenity": "restaurant", "contact:facebook": "https://www.facebook.com/AldeiaVelhaBE/?ref=page_internal", "cuisine": "portuguese", "name": "Aldeia Velha"}}, {"type": "node", "id": 9580784141, "lat": 50.8266252, "lon": 4.338936, "tags": {"amenity": "restaurant", "contact:mobile": "+32 496 98 93 90", "cuisine": "portuguese", "name": "Restaurant Tradi\u00e7\u00f5es"}}, {"type": "node", "id": 9896161347, "lat": 50.8277809, "lon": 4.3383936, "tags": {"amenity": "restaurant", "contact:phone": "+32 2 537 73 04", "cuisine": "portuguese", "name": "Cais do Douro"}}, {"type": "node", "id": 9901284264, "lat": 50.8278784, "lon": 4.3387517, "tags": {"amenity": "restaurant", "cuisine": "portuguese", "name": "Seven"}}, {"type": "node", "id": 10246337595, "lat": 50.829926, "lon": 4.336941, "tags": {"amenity": "restaurant", "check_date": "2022-12-08", "contact:email": "restohibiscus@gmail.com", "contact:phone": "+32 2 543 44 88", "contact:website": "https://www.hibiscus-resto.be/", "diet:vegan": "yes", "diet:vegetarian": "yes", "name": "Hibiscus"}}, {"type": "node", "id": 12568911796, "lat": 50.8291998, "lon": 4.3389826, "tags": {"amenity": "restaurant", "cuisine": "pizza;italian", "delivery": "yes", "name": "Pizzeria Nina Ciao", "opening_hours": "18:00-23:00", "outdoor_seating": "no", "takeaway": "only"}}]}