{"version": 0.6, "generator": "Overpass API 0.7.62.10 2d4cfc48", "osm3s": {"timestamp_osm_base": "2026-02-03T08:49:45Z", "copyright": "The data included in this document is from www.openstreetmap.org. The data is made available under ODbL."}, "elements": [{"type": "node", "id": 3139106069, "lat": 50.8364035, "lon": 4.3382023, "tags": {"layer": "-3", "level": "-3", "name": "Gare du Midi - Zuidstation", "name:fr": "Gare du Midi", "name:nl": "Zuidstation", "public_transport": "stop_position", "railway": "tram_stop", "tram": "yes"}}, {"type": "node", "id": 3139106070, "lat": 50.8366881, "lon": 4.3373561, "tags": {"layer": "-4", "level": "-4", "name": "Gare du Midi - Zuidstation", "name:fr": "Gare du Midi", "name:nl": "Zuidstation", "public_transport": "stop_position", "railway": "tram_stop", "tram": "yes"}}, {"type": "node", "id": 3141593692, "lat": 50.8313366, "lon": 4.3323216, "tags": {"name": "Avenue du Roi - Koningslaan", "name:fr": "Avenue du Roi", "name:nl": "Koningslaan", "public_transport": "stop_position", "railway": "tram_stop", "tram": "yes"}}, {"type": "node", "id": 3141593964, "lat": 50.8340767, "lon": 4.3358519, "tags": {"name": "Su\u00e8de - Zweden", "name:fr": "Su\u00e8de", "name:nl": "Zweden", "public_transport": "stop_position", "railway": "tram_stop", "tram": "yes"}}, {"type": "node", "id": 4599875627, "lat": 50.8368067, "lon": 4.3374272, "tags": {"name": "Gare du Midi - Zuidstation", "name:fr": "Gare du Midi", "name:nl": "Zuidstation", "public_transport": "stop_position", "railway": "tram_stop", "tram": "yes"}}, {"type": "node", "id": 4599875628, "lat": 50.8364686, "lon": 4.3380258, "tags": {"name": "Gare du Midi - Zuidstation", "name:fr": "Gare du Midi", "name:nl": "Zuidstation", "public_transport": "stop_position", "railway": "tram_stop", "tram": "yes"}}]}