{"version": 0.6, "generator": "Overpass API 0.7.62.10 2d4cfc48", "osm3s": {"timestamp_osm_base": "2026-02-02T17:01:00Z", "copyright": "The data included in this document is from www.openstreetmap.org. The data is made available under ODbL."}, "elements": [{"type": "node", "id": 2334478360, "lat": 50.8445067, "lon": 4.3548912, "tags": {"amenity": "bar", "contact:instagram": "https://www.instagram.com/gazzosa.brussels", "description": "Wine bar that also sells Italian wine bottles", "name": "Gazzosa", "origin": "italian", "panoramax": "7adfc3a5-0690-464d-b32c-ed7e9278243a", "panoramax:0": "e44cd327-068a-4379-9e35-f2c70c13e811", "shop": "wine"}}, {"type": "node", "id": 3863699469, "lat": 50.8480878, "lon": 4.3635318, "tags": {"amenity": "pub", "entrance:kerb:height": "0.15", "entrance:step_count": "1", "entrance:width": "0.75", "name": "Treurenberg"}}, {"type": "node", "id": 3918196702, "lat": 50.8460189, "lon": 4.3570846, "tags": {"amenity": "pub", "brand": "BrewDog", "brand:wikidata": "Q911367", "brand:wikipedia": "en:BrewDog", "brewery": "BrewDog", "check_date": "2024-09-07", "comment": "You can access through the lobby of the building at Keizerinlaan 13/15, 1000 Brussel. The gate of the building closes at 6PM in the week and the whole weekend. You can call the brewdog to give you access. There's also a bathroom.", "contact:email": "brusselsbar@brewdog.com", "contact:facebook": "https://facebook.com/BrewDogBrussels", "contact:phone": "+32 2 513 63 55", "contact:website": "https://www.brewdog.com/bars/worldwide/brussels", "diet:vegan": "yes", "diet:vegetarian": "yes", "entrance:kerb:height": "0.02", "entrance:step_count": "1", "entrance:width": "0.96", "internet_access": "wlan", "level": "0", "name": "BrewDog Brussels", "opening_hours": "Mo-We 11:00-23:00; Th-Sa 11:00-24:00; Su 11:30-18:00", "opening_hours:kitchen": "Mo-Sa 12:00-22:00; Su 14:30-21:30", "outdoor_seating": "yes", "panoramax": "fda22bb0-82d9-4317-a3f9-ffdebe205aef", "payment:bancontact": "yes", "payment:cash": "yes", "payment:maestro": "yes", "payment:mastercard": "yes", "payment:visa": "yes", "short_name": "BrewDog"}}, {"type": "node", "id": 4417795652, "lat": 50.8452377, "lon": 4.3578721, "tags": {"amenity": "pub", "indoor_seating": "yes", "name": "New Check Post", "outdoor_seating": "yes", "wheelchair": "limited"}}, {"type": "node", "id": 4568950209, "lat": 50.8456298, "lon": 4.354726, "tags": {"amenity": "bar", "name": "The Red Rabbit", "wheelchair": "limited"}}, {"type": "node", "id": 4621974792, "lat": 50.8455122, "lon": 4.3591604, "tags": {"amenity": "bar", "contact:facebook": "https://www.facebook.com/LeCercleBelgique/", "contact:mobile": "+32 484 36 49 12", "name": "Le Cercle"}}, {"type": "node", "id": 4621974795, "lat": 50.8457986, "lon": 4.3587737, "tags": {"amenity": "pub", "changing_table": "no", "changing_table:adult": "no", "entrance:kerb:height": "0.15", "entrance:step_count": "1", "entrance:width": "1", "name": "L'\u00c9quinoxe", "ramp:wheelchair": "no", "wheelchair": "limited", "wheelchair:turning_circle": "no"}}, {"type": "node", "id": 4642467837, "lat": 50.8486391, "lon": 4.3649031, "tags": {"amenity": "pub", "contact:phone": "+32 2 218 00 34", "contact:website": "https://bier-circus.be/", "cuisine": "regional", "food": "yes", "indoor_seating": "yes", "name": "Bier Circus", "opening_hours": "Mo off; Tu-Fr 11:30-14:30,18:00-24:00; Sa,Su,PH off", "outdoor_seating": "yes"}}, {"type": "node", "id": 4706357837, "lat": 50.8432702, "lon": 4.3585721, "tags": {"amenity": "pub", "check_date": "2023-02-07", "contact:email": "info@lapharmacieanglaise.com", "contact:mobile": "+32 489 56 07 36", "contact:website": "https://www.lapharmacieanglaise.com/", "name": "La Pharmacie Anglaise", "opening_hours": "Tu-Th 17:30-01:00; Fr-Sa 17:30-02:00"}}, {"type": "node", "id": 5001980701, "lat": 50.8452057, "lon": 4.3566748, "tags": {"alt_name": "28 by Caulier", "amenity": "bar", "contact:email": "info@caulier.be", "contact:phone": "+32 2 511 05 31", "contact:website": "http://www.caulier.be/new/b28/", "name": "Brasserie 28 Caulier", "wheelchair": "limited"}}, {"type": "node", "id": 5628359721, "lat": 50.8433241, "lon": 4.3636312, "tags": {"amenity": "bar", "check_date": "2025-10-31", "check_date:diet:vegetarian": "2025-10-31", "check_date:smoking": "2025-08-16", "contact:facebook": "https://www.facebook.com/woodpeckerbxl", "cuisine": "burger", "diet:vegetarian": "yes", "food": "yes", "indoor_seating": "no", "name": "Woodpecker", "opening_hours": "Mo-Su 11:30-18:30", "outdoor_seating": "yes", "payment:cash": "no", "payment:credit_cards": "yes", "payment:debit_cards": "yes", "smoking": "yes"}}, {"type": "node", "id": 5739957700, "lat": 50.8434755, "lon": 4.3626501, "tags": {"amenity": "bar", "contact:email": "info@kioskradio.com", "contact:instagram": "kiosk.radio", "contact:website": "https://kioskradio.com/", "contact:youtube": "KioskRadio", "name": "Kiosk Radio Bar", "note": "Opening hours are irregular", "takeaway": "only"}}, {"type": "node", "id": 6534437199, "lat": 50.8484847, "lon": 4.3634604, "tags": {"amenity": "bar", "changing_table": "no", "changing_table:adult": "no", "check_date:opening_hours": "2024-07-22", "name": "Floyd's", "opening_hours:signed": "no", "wheelchair:turning_circle": "no"}}, {"type": "node", "id": 9999501517, "lat": 50.8456571, "lon": 4.3547086, "tags": {"amenity": "bar", "name": "Lounge Bar", "wheelchair": "no"}}, {"type": "node", "id": 10252756454, "lat": 50.8440395, "lon": 4.3592793, "tags": {"amenity": "bar", "architect": "Robbrecht & Daem", "architect:wikidata": "Q18822434", "contact:email": "info@victorbozarcafe.be", "contact:facebook": "victorbxl", "contact:phone": "+32 2 213 19 19", "contact:website": "https://www.victorbozarcafe.be/", "indoor_seating": "yes", "microbrewery": "no", "name": "Bozar Caf\u00e9 Victor", "outdoor_seating": "no", "start_date": "2016", "wheelchair": "yes", "wikidata": "Q119004870"}}, {"type": "node", "id": 10295323314, "lat": 50.8460786, "lon": 4.3560967, "tags": {"amenity": "nightclub", "changing_table": "no", "check_date:opening_hours": "2025-10-29", "contact:email": "c12brussels@gmail.com", "contact:website": "https://c12space.com/", "entrance:kerb:height": "0", "entrance:step_count": "0", "entrance:width": "1.24", "min_age": "21", "name": "C12", "opening_hours:signed": "no", "operator": "Deep in House", "toilets:wheelchair": "yes", "toilets:wheelchair:accessible_via": "ground floor", "toilets:wheelchair:door_width": "0.93", "wheelchair:turning_circle": "yes", "wikidata": "Q121298080"}}, {"type": "node", "id": 11900935444, "lat": 50.8476682, "lon": 4.3637885, "tags": {"amenity": "bar", "name": "Le Bar Rouge"}}, {"type": "node", "id": 11958288581, "lat": 50.8456309, "lon": 4.3590335, "tags": {"amenity": "pub", "changing_table": "no", "changing_table:adult": "no", "entrance:kerb:height": "0.2", "entrance:step_count": "1", "entrance:width": "0.85", "name": "Bambino", "opening_hours": "Mo-Fr 08:30-16:30; PH closed", "ramp:wheelchair": "no", "website": "https://bambino-canteen.com/central/", "wheelchair:turning_circle": "no"}}, {"type": "node", "id": 13110477324, "lat": 50.844804, "lon": 4.3551207, "tags": {"amenity": "bar", "indoor_seating": "yes", "name": "Bibine & Pinard"}}]}