{"version": 0.6, "generator": "Overpass API 0.7.62.10 2d4cfc48", "osm3s": {"timestamp_osm_base": "2026-02-10T15:52:15Z", "copyright": "The data included in this document is from www.openstreetmap.org. The data is made available under ODbL."}, "elements": [{"type": "node", "id": 2620319367, "lat": 50.8410483, "lon": 4.3417809, "tags": {"amenity": "restaurant", "cuisine": "arab", "internet_access": "wlan", "name": "Maison de Th\u00e9", "name:en": "Arabic Tea House", "opening_hours": "Mo-Su 07:00-23:00"}}, {"type": "node", "id": 4119705289, "lat": 50.8442457, "lon": 4.3451125, "tags": {"amenity": "restaurant", "name": "Tataki", "shop": "vacant"}}, {"type": "node", "id": 4280560894, "lat": 50.8421317, "lon": 4.3428344, "tags": {"amenity": "restaurant", "name": "Jauhara"}}, {"type": "node", "id": 6252244843, "lat": 50.8464795, "lon": 4.346663, "tags": {"amenity": "restaurant", "cuisine": "italian", "name": "Winehouse Osteria", "website": "https://wine-house.be"}}, {"type": "node", "id": 7692258044, "lat": 50.8424713, "lon": 4.3402369, "tags": {"amenity": "restaurant", "name": "So'Food"}}, {"type": "node", "id": 7734394747, "lat": 50.8480379, "lon": 4.3433601, "tags": {"amenity": "restaurant", "name": "La Fleur"}}, {"type": "node", "id": 7734394748, "lat": 50.848168, "lon": 4.3437793, "tags": {"amenity": "restaurant", "contact:mobile": "+32 486 80 71 44", "contact:phone": "+32 2 503 46 23", "contact:website": "https://bellavitajardinauxfleurs.blogspot.com/", "cuisine": "pizza", "name": "Bella Vita", "opening_hours": "Mo-Su 11:00-23:00", "outdoor_seating": "terrace", "toilets": "yes", "toilets:access": "public", "toilets:description": "Le r\u00e9seau des toilettes accueillantes - Netwerk gastvrije toiletten", "toilets:fee": "no", "wheelchair:turning_circle": "yes"}}, {"type": "node", "id": 7734394749, "lat": 50.8480999, "lon": 4.3438483, "tags": {"amenity": "restaurant", "check_date": "2023-04-09", "contact:website": "https://hashtagbrussels.com/", "cuisine": "breakfast;burger;chicken", "name": "Hashtag Burgers & Brunch", "opening_hours": "Mo-Su 11:30-17:45", "website:menu": "https://hashtagbrussels.com/s/Hashtag-menu-JAN25.pdf"}}, {"type": "node", "id": 10084532817, "lat": 50.8455689, "lon": 4.3464624, "tags": {"amenity": "restaurant", "contact:mobile": "+32 483 00 93 11", "cuisine": "kebab;barbecue;arab", "indoor_seating": "yes", "name": "Zain Shaam", "opening_hours": "Mo 11:00-00:00; We-Su 11:00-00:00", "outdoor_seating": "yes", "wheelchair": "no"}}, {"type": "node", "id": 10636320595, "lat": 50.8490847, "lon": 4.3390436, "tags": {"alt_name": "L'Olivier Vert", "amenity": "restaurant", "check_date": "2023-02-10", "mapillary": "494237333154614", "name": "Saf Saf de Tunis", "panoramax": "e121a012-970c-4f49-8c50-e8c5a536b2ee"}}, {"type": "node", "id": 10720018539, "lat": 50.8490048, "lon": 4.338398, "tags": {"amenity": "restaurant", "description:fr": "Restaurant familial", "image": "https://i.imgur.com/FtEiq5B.jpg", "name": "Les Brothers", "panoramax": "05829213-58f2-4834-bfaa-be9d75ab89a3"}}]}