{"version": 0.6, "generator": "Overpass API 0.7.62.10 2d4cfc48", "osm3s": {"timestamp_osm_base": "2026-02-03T11:28:30Z", "copyright": "The data included in this document is from www.openstreetmap.org. The data is made available under ODbL."}, "elements": [{"type": "node", "id": 944264204, "lat": 50.8956798, "lon": 4.3198465, "tags": {"amenity": "restaurant", "brand": "Pizza Hut", "brand:wikidata": "Q191615", "brand:wikipedia": "en:Pizza Hut", "cuisine": "pizza", "name": "Pizza Hut"}}, {"type": "node", "id": 1106127078, "lat": 50.8903759, "lon": 4.3362078, "tags": {"amenity": "restaurant", "name": "Brasserie de l\u2019Expo", "outdoor_seating": "yes"}}, {"type": "node", "id": 1106127085, "lat": 50.890264, "lon": 4.3373237, "tags": {"amenity": "restaurant", "contact:email": "ilrifugio164@gmail.com", "contact:facebook": "https://www.facebook.com/ILRIFUGIO164", "contact:phone": "+32 2 478 02 89", "contact:website": "https://www.ilrifugio.be", "cuisine": "italian;french", "name": "Il Rifugio", "opening_hours": "12:00-14:00,18:00-22:00; Tu,We off; Fr 12:00-14:00,18:00-22:30; Sa 18:00-22:30", "outdoor_seating": "yes", "takeaway": "yes"}}, {"type": "node", "id": 1106144225, "lat": 50.8951935, "lon": 4.3193239, "tags": {"amenity": "restaurant", "cuisine": "chinese", "name": "Wok City"}}, {"type": "node", "id": 1150830118, "lat": 50.8950483, "lon": 4.3189994, "tags": {"amenity": "restaurant", "name": "L'Auberge de l'Isard"}}, {"type": "node", "id": 1210483195, "lat": 50.8893082, "lon": 4.3267613, "tags": {"amenity": "restaurant", "contact:facebook": "https://www.facebook.com/theplacetobeBe", "contact:phone": "+32 2 267 97 40", "name": "The Place to Be", "opening_hours": "Mo-Th 11:30-23:00; Fr 11:30-24:00; Sa 11:30-23:45; Su 11:30-22:00", "outdoor_seating": "yes", "takeaway": "yes"}}, {"type": "node", "id": 2590398124, "lat": 50.8881762, "lon": 4.3396696, "tags": {"amenity": "restaurant", "contact:email": "info@barapates.be", "contact:facebook": "https://www.facebook.com/bar.a.pates.laeken/", "contact:phone": "+32 2 478 66 44", "contact:website": "https://www.barapates.be/", "cuisine": "pasta;french;belgian", "name": "Bar \u00e0 P\u00e2tes l'Aquarelle", "opening_hours": "12:00-23:00; Tu off; Fr 12:00-01:00; Sa 12:00-24:00", "outdoor_seating": "yes", "takeaway": "yes", "toilets": "yes", "toilets:access": "public", "toilets:description": "Le r\u00e9seau des toilettes accueillantes - Netwerk gastvrije toiletten", "toilets:fee": "no"}}, {"type": "node", "id": 6853543111, "lat": 50.8894904, "lon": 4.3379882, "tags": {"amenity": "restaurant", "capacity": "80", "contact:phone": "+32 2 479 76 55", "contact:website": "http://www.grilllandresto.be/", "cuisine": "lebanese;grill;italian;pasta", "name": "Grill Land", "opening_hours": "Tu-Su 12:00-22:00", "outdoor_seating": "yes", "reservation": "yes", "takeaway": "yes"}}, {"type": "node", "id": 6853543113, "lat": 50.8898785, "lon": 4.3374958, "tags": {"amenity": "restaurant", "cuisine": "african", "name": "Au Feu du Plaisir"}}, {"type": "node", "id": 6853543117, "lat": 50.8899699, "lon": 4.3366051, "tags": {"amenity": "restaurant", "bar": "yes", "contact:email": "info@dynastie.brussels", "contact:facebook": "https://www.facebook.com/dynastie.brussels/", "contact:phone": "+32 2 478 50 48", "contact:website": "https://www.dynastie.brussels/", "cuisine": "brasserie;belgian;bistro", "name": "Le Dynastie", "opening_hours": "Mo-Su 08:00-23:00", "outdoor_seating": "yes", "takeaway": "yes"}}, {"type": "node", "id": 6853543120, "lat": 50.890753, "lon": 4.3357831, "tags": {"amenity": "restaurant", "contact:email": "resto.thevy@gmail.com", "contact:facebook": "https://www.facebook.com/Thevy-687252001697908/", "contact:phone": "+32 2 478 42 95", "contact:website": "https://www.thevy.be/", "cuisine": "thai", "delivery": "yes", "name": "Thevy", "opening_hours": "Tu-Fr 12:00-14:30,18:00-22:30; Sa-Su 18:00-22:30", "reservation": "yes", "takeaway": "yes"}}, {"type": "node", "id": 6853543124, "lat": 50.8918337, "lon": 4.3344124, "tags": {"amenity": "restaurant", "contact:email": "antonio.cuneo@hotmail.com", "contact:facebook": "https://www.facebook.com/Restaurant-Le-Cuneo-598830073561189/", "contact:phone": "+32 2 479 38 12", "cuisine": "italian;pizza;pasta", "name": "Le Cuneo", "opening_hours": "We-Sa 12:00-14:30,18:30-22:30; Su 12:00-14:30", "outdoor_seating": "yes", "takeaway": "yes"}}, {"type": "node", "id": 6868185106, "lat": 50.890145, "lon": 4.3448909, "tags": {"amenity": "restaurant", "contact:mobile": "+32 489 03 07 08", "cuisine": "romanian", "name": "L'At Home", "opening_hours": "Tu-Sa 10:00-23:00", "takeaway": "yes"}}, {"type": "node", "id": 7760116773, "lat": 50.8878483, "lon": 4.3400711, "tags": {"amenity": "restaurant", "contact:facebook": "https://www.facebook.com/Olympia-Restaurant-Bruxelles-975240336016732/", "contact:phone": "+32 2 479 12 97", "cuisine": "greek", "name": "Olympia", "takeaway": "yes"}}, {"type": "node", "id": 8684840648, "lat": 50.8956331, "lon": 4.3295994, "tags": {"amenity": "restaurant", "contact:facebook": "https://www.facebook.com/Le-Pavillon-dOr-Officiel-100161805223027/", "contact:phone": "+32 2 479 07 31", "cuisine": "chinese;vietnamese", "delivery": "yes", "name": "Le Pavillon d'Or", "opening_hours": "Tu-Su 12:00-15:00,18:00-22:00", "takeaway": "yes"}}, {"type": "node", "id": 8780973849, "lat": 50.8965703, "lon": 4.3260413, "tags": {"amenity": "restaurant", "contact:email": "reservation@hazeweealaeken.be", "contact:facebook": "https://www.facebook.com/profile.php?id=100057542834651", "contact:phone": "+32 2 479 40 72", "contact:website": "https://www.hazeweealaeken.be/", "name": "Hazewee", "opening_hours": "Mo-Th 12:00-14:00; Fr 19:00-21:00", "outdoor_seating": "yes", "takeaway": "yes"}}, {"type": "node", "id": 8853026714, "lat": 50.8904333, "lon": 4.3430867, "tags": {"amenity": "restaurant", "contact:facebook": "https://www.facebook.com/Delizia-239158479610980/", "contact:phone": "+32 2 478 54 69", "cuisine": "italian", "name": "Delizia"}}, {"type": "node", "id": 9671852983, "lat": 50.8949767, "lon": 4.3414858, "tags": {"air_conditioning": "yes", "amenity": "restaurant", "check_date": "2024-10-10", "check_date:diet:vegan": "2024-10-10", "check_date:diet:vegetarian": "2024-10-10", "contact:email": "info@delicium58.be", "contact:facebook": "https://www.facebook.com/AtomiumRestaurant/", "contact:instagram": "atomium_restaurant", "contact:phone": "+32 2 479 58 50", "contact:website": "https://www.atomiumrestaurant.be", "cuisine": "belgian", "delivery": "no", "diet:vegan": "yes", "diet:vegetarian": "yes", "indoor_seating": "yes", "level": "8", "name": "Atomium Restaurant", "opening_hours": "Mo-Fr 12:00-15:00,19:00-21:30; Sa 12:00-16:00,19:00-21:30; Su 12:00-16:30", "outdoor_seating": "no", "reservation": "yes", "smoking": "no", "takeaway": "no"}}, {"type": "node", "id": 9677466778, "lat": 50.896854, "lon": 4.3280929, "tags": {"amenity": "restaurant", "contact:phone": "+32 2 479 55 87", "contact:website": "https://jonsgarden.be/", "cuisine": "chinese;thai", "name": "Jon\u2019s Garden Ming", "opening_hours": "Tu-Su 12:30-14:30,18:00-22:30", "takeaway": "yes"}}, {"type": "node", "id": 9689500360, "lat": 50.8974397, "lon": 4.3279648, "tags": {"amenity": "restaurant", "contact:mobile": "+32 485 65 05 81", "contact:website": "https://lovesushi.be/", "cuisine": "sushi;japanese", "delivery": "yes", "name": "Love Sushi", "opening_hours": "11:00-21:30; We 16:00-21:30", "takeaway": "yes"}}, {"type": "node", "id": 12288485686, "lat": 50.8924607, "lon": 4.3411554, "tags": {"amenity": "restaurant", "baby_feeding": "yes", "bar": "yes", "cuisine": "friture;greek", "highchair": "yes", "kids_area": "yes", "kids_area:indoor": "yes", "outdoor_seating": "yes", "takeaway": "yes", "toilets": "yes"}}, {"type": "node", "id": 12631656142, "lat": 50.8958244, "lon": 4.3432231, "tags": {"amenity": "restaurant", "contact:email": "info@laruchebrussels.be", "contact:facebook": "https://www.facebook.com/LaRucheRestaurant", "contact:website": "https://laruchebrussels.be/", "cuisine": "steak_house", "name": "La Ruche"}}]}