{"version": 0.6, "generator": "Overpass API 0.7.62.10 2d4cfc48", "osm3s": {"timestamp_osm_base": "2026-02-02T18:27:53Z", "copyright": "The data included in this document is from www.openstreetmap.org. The data is made available under ODbL."}, "elements": [{"type": "node", "id": 417672904, "lat": 50.8372957, "lon": 4.4158964, "tags": {"amenity": "restaurant", "name": "Brasserie Gribaumont"}}, {"type": "node", "id": 796252937, "lat": 50.8371319, "lon": 4.4180123, "tags": {"amenity": "restaurant", "capacity": "~20", "contact:phone": "+32 2 762 91 63", "cuisine": "french", "delivery": "no", "name": "La Table Saint-Pierre", "opening_hours": "Mo-Fr 12:00-14:00, 19:00-22:00; Sa 12:00-14:00", "smoking": "outside", "takeaway": "no"}}, {"type": "node", "id": 796253129, "lat": 50.8375171, "lon": 4.4156212, "tags": {"amenity": "restaurant", "name": "Galya"}}, {"type": "node", "id": 2325434012, "lat": 50.8403754, "lon": 4.4118755, "tags": {"amenity": "restaurant", "cuisine": "italian", "name": "Osteria Zerodue"}}, {"type": "node", "id": 5980118985, "lat": 50.8353871, "lon": 4.4258939, "tags": {"amenity": "restaurant", "contact:email": "info@sanzaru.be", "contact:phone": "+32 2 773 00 80", "contact:website": "https://www.sanzaru.be/", "cuisine": "japanese;nikkei", "name": "Sanzaru"}}, {"type": "node", "id": 7363487124, "lat": 50.837854, "lon": 4.4120203, "tags": {"amenity": "restaurant", "check_date": "2025-10-28", "name": "Le Grand Duc"}}, {"type": "node", "id": 11104327620, "lat": 50.8375307, "lon": 4.4244397, "tags": {"amenity": "restaurant", "check_date:opening_hours": "2023-08-09", "contact:email": "resto.one52@gmail.com", "contact:phone": "+32 2 613 27 00", "contact:website": "https://www.one52.be/", "cuisine": "french", "diet:gluten_free": "yes", "diet:vegetarian": "yes", "name": "One52", "opening_hours": "Tu-Fr 12:00-14:30,18:30-22:00; Sa 18:30-22:00", "outdoor_seating": "yes", "ref:vatin": "BE0883073449", "wheelchair": "yes"}}, {"type": "node", "id": 11225720443, "lat": 50.8384764, "lon": 4.4126551, "tags": {"amenity": "restaurant", "check_date": "2025-10-28", "contact:mobile": "+32 471 04 63 60", "contact:phone": "+32 2 763 46 56", "cuisine": "italian", "level": "0", "name": "Pane Amore & Fantasia"}}, {"type": "node", "id": 12175016028, "lat": 50.8368297, "lon": 4.4292695, "tags": {"amenity": "restaurant", "cuisine": "pizza", "name": "Bloem-Farine", "opening_hours": "Mo-Fr 12:00-14:30,17:45-23:00", "website": "https://bloem-farine.be"}}]}