{"version": 0.6, "generator": "Overpass API 0.7.62.10 2d4cfc48", "osm3s": {"timestamp_osm_base": "2026-02-03T10:06:42Z", "copyright": "The data included in this document is from www.openstreetmap.org. The data is made available under ODbL."}, "elements": [{"type": "node", "id": 3188424129, "lat": 50.8419889, "lon": 4.3221904}, {"type": "node", "id": 3188424130, "lat": 50.8419705, "lon": 4.3222094}, {"type": "node", "id": 3188424131, "lat": 50.8420003, "lon": 4.3222815}, {"type": "node", "id": 3188424132, "lat": 50.8420186, "lon": 4.3222626}, {"type": "node", "id": 8004729317, "lat": 50.8464563, "lon": 4.3377777, "tags": {"amenity": "cafe", "name": "Melody", "outdoor_seating": "terrace"}}, {"type": "node", "id": 12823459609, "lat": 50.8433981, "lon": 4.3280345, "tags": {"amenity": "cafe", "food": "yes", "name": "Chez Rosa - Bij Rosa", "name:fr": "Chez Rosa", "name:nl": "Bij Rosa"}}, {"type": "way", "id": 312923038, "nodes": [3188424129, 3188424130, 3188424131, 3188424132, 3188424129], "tags": {"access": "private", "amenity": "cafe", "building": "yes", "mapillary": "1307061876355594", "name": "Le Kaai", "outdoor_seating": "yes"}}]}