{"version": 0.6, "generator": "Overpass API 0.7.62.10 2d4cfc48", "osm3s": {"timestamp_osm_base": "2026-02-02T16:04:46Z", "copyright": "The data included in this document is from www.openstreetmap.org. The data is made available under ODbL."}, "elements": [{"type": "node", "id": 144233067, "lat": 50.8333082, "lon": 4.3570543, "tags": {"name": "St\u00e9phanie - Stefania", "name:fr": "St\u00e9phanie", "name:nl": "Stefania", "public_transport": "stop_position", "railway": "tram_stop", "tram": "yes"}}, {"type": "node", "id": 144233079, "lat": 50.8329629, "lon": 4.3577955, "tags": {"name": "St\u00e9phanie - Stefania", "name:fr": "St\u00e9phanie", "name:nl": "Stefania", "public_transport": "stop_position", "railway": "tram_stop", "tram": "yes"}}, {"type": "node", "id": 206138851, "lat": 50.8356399, "lon": 4.3552204, "tags": {"name": "Louise - Louiza", "name:fr": "Louise", "name:nl": "Louiza", "public_transport": "stop_position", "railway": "tram_stop", "tram": "yes"}}, {"type": "node", "id": 1320406425, "lat": 50.8267344, "lon": 4.343546, "tags": {"name": "Barri\u00e8re - Bareel", "name:fr": "Barri\u00e8re", "name:nl": "Bareel", "public_transport": "stop_position", "railway": "tram_stop", "tram": "yes"}}, {"type": "node", "id": 2962344713, "lat": 50.8249893, "lon": 4.3575588, "tags": {"name": "Trinit\u00e9 - Drievuldigheid", "name:fr": "Trinit\u00e9", "name:nl": "Drievuldigheid", "public_transport": "stop_position", "railway": "tram_stop", "tram": "yes"}}, {"type": "node", "id": 2964183337, "lat": 50.8268247, "lon": 4.3439615, "tags": {"name": "Barri\u00e8re - Bareel", "name:fr": "Barri\u00e8re", "name:nl": "Bareel", "public_transport": "stop_position", "railway": "tram_stop", "tram": "yes"}}, {"type": "node", "id": 3115598739, "lat": 50.8300474, "lon": 4.3560644, "tags": {"name": "Faider", "public_transport": "stop_position", "railway": "tram_stop", "tram": "yes"}}, {"type": "node", "id": 3115598754, "lat": 50.8243496, "lon": 4.3508076, "tags": {"name": "Moris", "public_transport": "stop_position", "railway": "tram_stop", "tram": "yes"}}, {"type": "node", "id": 3115600706, "lat": 50.8241754, "lon": 4.3502898, "tags": {"name": "Moris", "public_transport": "stop_position", "railway": "tram_stop", "tram": "yes"}}, {"type": "node", "id": 3115600856, "lat": 50.8245129, "lon": 4.3468215, "tags": {"name": "Lombardie - Lombardije", "name:fr": "Lombardie", "name:nl": "Lombardije", "public_transport": "stop_position", "railway": "tram_stop", "tram": "yes"}}, {"type": "node", "id": 3115600859, "lat": 50.8243438, "lon": 4.3471927, "tags": {"name": "Lombardie - Lombardije", "name:fr": "Lombardie", "name:nl": "Lombardije", "public_transport": "stop_position", "railway": "tram_stop", "tram": "yes"}}, {"type": "node", "id": 3115600957, "lat": 50.825867, "lon": 4.3546752, "tags": {"name": "Janson", "public_transport": "stop_position", "railway": "tram_stop", "tram": "yes"}}, {"type": "node", "id": 3115600968, "lat": 50.8261327, "lon": 4.3548029, "tags": {"name": "Janson", "public_transport": "stop_position", "railway": "tram_stop", "tram": "yes"}}, {"type": "node", "id": 3115600980, "lat": 50.8264798, "lon": 4.3447504, "tags": {"name": "Barri\u00e8re - Bareel", "name:fr": "Barri\u00e8re", "name:nl": "Bareel", "public_transport": "stop_position", "railway": "tram_stop", "tram": "yes"}}, {"type": "node", "id": 3115601073, "lat": 50.8295369, "lon": 4.3558394, "tags": {"name": "Faider", "public_transport": "stop_position", "railway": "tram_stop", "tram": "yes"}}, {"type": "node", "id": 3115601138, "lat": 50.8335797, "lon": 4.3571815, "tags": {"name": "St\u00e9phanie - Stefania", "name:fr": "St\u00e9phanie", "name:nl": "Stefania", "public_transport": "stop_position", "railway": "tram_stop", "tram": "yes"}}, {"type": "node", "id": 3115601189, "lat": 50.83591, "lon": 4.3549947, "tags": {"name": "Louise - Louiza", "name:fr": "Louise", "name:nl": "Louiza", "public_transport": "stop_position", "railway": "tram_stop", "tram": "yes"}}, {"type": "node", "id": 3124859259, "lat": 50.8225198, "lon": 4.3535691, "tags": {"name": "Ma Campagne", "public_transport": "stop_position", "railway": "tram_stop", "tram": "yes"}}, {"type": "node", "id": 3124859260, "lat": 50.822267, "lon": 4.3533646, "tags": {"name": "Ma Campagne", "public_transport": "stop_position", "railway": "tram_stop", "tram": "yes"}}, {"type": "node", "id": 3132143374, "lat": 50.8331806, "lon": 4.357624, "tags": {"name": "St\u00e9phanie - Stefania", "name:fr": "St\u00e9phanie", "name:nl": "Stefania", "public_transport": "stop_position", "railway": "tram_stop", "tram": "yes"}}, {"type": "node", "id": 3139105830, "lat": 50.822327, "lon": 4.3435608, "tags": {"layer": "-2", "level": "-2", "location": "underground", "name": "Albert", "public_transport": "stop_position", "railway": "tram_stop", "tram": "yes"}}, {"type": "node", "id": 3139105841, "lat": 50.8261123, "lon": 4.3459384, "tags": {"layer": "-2", "location": "underground", "name": "Horta", "public_transport": "stop_position", "railway": "tram_stop", "tram": "yes"}}, {"type": "node", "id": 3139105842, "lat": 50.825785, "lon": 4.3455592, "tags": {"layer": "-2", "location": "underground", "name": "Horta", "public_transport": "stop_position", "railway": "tram_stop", "tram": "yes"}}, {"type": "node", "id": 3139105853, "lat": 50.8299464, "lon": 4.3458721, "tags": {"layer": "-2", "level": "-2", "location": "underground", "name": "Parvis de Saint-Gilles - Sint-Gillisvoorplein", "name:fr": "Parvis de Saint-Gilles", "name:nl": "Sint-Gillisvoorplein", "public_transport": "stop_position", "railway": "tram_stop", "tram": "yes"}}, {"type": "node", "id": 3139105913, "lat": 50.832608, "lon": 4.3429379, "tags": {"layer": "-2", "level": "-2", "location": "underground", "name": "Porte de Hal - Hallepoort", "name:fr": "Porte de Hal", "name:nl": "Hallepoort", "public_transport": "stop_position", "railway": "tram_stop", "tram": "yes"}}, {"type": "node", "id": 3139105914, "lat": 50.8328758, "lon": 4.342879, "tags": {"layer": "-2", "level": "-2", "location": "underground", "name": "Porte de Hal - Hallepoort", "name:fr": "Porte de Hal", "name:nl": "Hallepoort", "public_transport": "stop_position", "railway": "tram_stop", "tram": "yes"}}, {"type": "node", "id": 3139106069, "lat": 50.8364035, "lon": 4.3382023, "tags": {"layer": "-3", "level": "-3", "name": "Gare du Midi - Zuidstation", "name:fr": "Gare du Midi", "name:nl": "Zuidstation", "public_transport": "stop_position", "railway": "tram_stop", "tram": "yes"}}, {"type": "node", "id": 3139106070, "lat": 50.8366881, "lon": 4.3373561, "tags": {"layer": "-4", "level": "-4", "name": "Gare du Midi - Zuidstation", "name:fr": "Gare du Midi", "name:nl": "Zuidstation", "public_transport": "stop_position", "railway": "tram_stop", "tram": "yes"}}, {"type": "node", "id": 3141593561, "lat": 50.8289255, "lon": 4.3292491, "tags": {"name": "Imprimerie - Drukkerij", "name:fr": "Imprimerie", "name:nl": "Drukkerij", "public_transport": "stop_position", "railway": "tram_stop", "tram": "yes"}}, {"type": "node", "id": 3141593623, "lat": 50.8300226, "lon": 4.3307019, "tags": {"name": "Imprimerie - Drukkerij", "name:fr": "Imprimerie", "name:nl": "Drukkerij", "public_transport": "stop_position", "railway": "tram_stop", "tram": "yes"}}, {"type": "node", "id": 3141593692, "lat": 50.8313366, "lon": 4.3323216, "tags": {"name": "Avenue du Roi - Koningslaan", "name:fr": "Avenue du Roi", "name:nl": "Koningslaan", "public_transport": "stop_position", "railway": "tram_stop", "tram": "yes"}}, {"type": "node", "id": 3141593831, "lat": 50.8316585, "lon": 4.3327963, "tags": {"name": "Avenue du Roi - Koningslaan", "name:fr": "Avenue du Roi", "name:nl": "Koningslaan", "public_transport": "stop_position", "railway": "tram_stop", "tram": "yes"}}, {"type": "node", "id": 3141593964, "lat": 50.8340767, "lon": 4.3358519, "tags": {"name": "Su\u00e8de - Zweden", "name:fr": "Su\u00e8de", "name:nl": "Zweden", "public_transport": "stop_position", "railway": "tram_stop", "tram": "yes"}}, {"type": "node", "id": 3141593967, "lat": 50.8342832, "lon": 4.3361717, "tags": {"name": "Su\u00e8de - Zweden", "name:fr": "Su\u00e8de", "name:nl": "Zweden", "public_transport": "stop_position", "railway": "tram_stop", "tram": "yes"}}, {"type": "node", "id": 3141594296, "lat": 50.8387973, "lon": 4.3370545, "tags": {"name": "Bara", "public_transport": "stop_position", "railway": "tram_stop", "tram": "yes"}}, {"type": "node", "id": 4428737303, "lat": 50.8299828, "lon": 4.3378682, "tags": {"name": "Bethl\u00e9em - Bethlehem", "name:fr": "Bethl\u00e9em", "name:nl": "Bethlehem", "public_transport": "stop_position", "railway": "tram_stop", "tram": "yes"}}, {"type": "node", "id": 4428737306, "lat": 50.8301199, "lon": 4.3374889, "tags": {"name": "Bethl\u00e9em - Bethlehem", "name:fr": "Bethl\u00e9em", "name:nl": "Bethlehem", "public_transport": "stop_position", "railway": "tram_stop", "tram": "yes"}}, {"type": "node", "id": 4428743479, "lat": 50.8271654, "lon": 4.3440304, "tags": {"name": "Barri\u00e8re - Bareel", "name:fr": "Barri\u00e8re", "name:nl": "Bareel", "public_transport": "stop_position", "railway": "tram_stop", "tram": "yes"}}, {"type": "node", "id": 4429829323, "lat": 50.8281216, "lon": 4.3419103, "tags": {"name": "Guillaume Tell - Willem Tell", "name:fr": "Guillaume Tell", "name:nl": "Willem Tell", "public_transport": "stop_position", "railway": "tram_stop", "tram": "yes"}}, {"type": "node", "id": 4429829326, "lat": 50.8286772, "lon": 4.3407587, "tags": {"name": "Guillaume Tell - Willem Tell", "name:fr": "Guillaume Tell", "name:nl": "Willem Tell", "public_transport": "stop_position", "railway": "tram_stop", "tram": "yes"}}, {"type": "node", "id": 4538720243, "lat": 50.8297188, "lon": 4.3464028, "tags": {"layer": "-2", "level": "-2", "location": "underground", "name": "Parvis de Saint-Gilles - Sint-Gillisvoorplein", "name:fr": "Parvis de Saint-Gilles", "name:nl": "Sint-Gillisvoorplein", "public_transport": "stop_position", "railway": "tram_stop", "tram": "yes"}}, {"type": "node", "id": 4581182097, "lat": 50.8389207, "lon": 4.337478, "tags": {"name": "Bara", "public_transport": "stop_position", "railway": "tram_stop", "tram": "yes"}}, {"type": "node", "id": 4594588105, "lat": 50.8314604, "lon": 4.3345078, "tags": {"name": "Avenue du Roi - Koningslaan", "name:fr": "Avenue du Roi", "name:nl": "Koningslaan", "public_transport": "stop_position", "railway": "tram_stop", "tram": "yes"}}, {"type": "node", "id": 4594588116, "lat": 50.8318112, "lon": 4.3337712, "tags": {"name": "Avenue du Roi - Koningslaan", "name:fr": "Avenue du Roi", "name:nl": "Koningslaan", "public_transport": "stop_position", "railway": "tram_stop", "tram": "yes"}}, {"type": "node", "id": 4598665121, "lat": 50.8254612, "lon": 4.3542818, "tags": {"name": "Janson", "public_transport": "stop_position", "railway": "tram_stop", "tram": "yes"}}, {"type": "node", "id": 4598677595, "lat": 50.8255306, "lon": 4.3551249, "tags": {"name": "Janson", "public_transport": "stop_position", "railway": "tram_stop", "tram": "yes"}}, {"type": "node", "id": 4599875627, "lat": 50.8368067, "lon": 4.3374272, "tags": {"name": "Gare du Midi - Zuidstation", "name:fr": "Gare du Midi", "name:nl": "Zuidstation", "public_transport": "stop_position", "railway": "tram_stop", "tram": "yes"}}, {"type": "node", "id": 4599875628, "lat": 50.8364686, "lon": 4.3380258, "tags": {"name": "Gare du Midi - Zuidstation", "name:fr": "Gare du Midi", "name:nl": "Zuidstation", "public_transport": "stop_position", "railway": "tram_stop", "tram": "yes"}}, {"type": "node", "id": 5137643590, "lat": 50.8253137, "lon": 4.3386392, "tags": {"name": "Combaz", "public_transport": "stop_position", "railway": "tram_stop", "tram": "yes"}}, {"type": "node", "id": 5137643591, "lat": 50.8253377, "lon": 4.3390839, "tags": {"name": "Combaz", "public_transport": "stop_position", "railway": "tram_stop", "tram": "yes"}}, {"type": "node", "id": 5380565326, "lat": 50.8399209, "lon": 4.3407322, "tags": {"layer": "-2", "level": "-2", "location": "underground", "name": "Lemonnier", "public_transport": "stop_position", "railway": "tram_stop", "tram": "yes"}}]}