{"version": 0.6, "generator": "Overpass API 0.7.62.10 2d4cfc48", "osm3s": {"timestamp_osm_base": "2026-02-03T09:19:35Z", "copyright": "The data included in this document is from www.openstreetmap.org. The data is made available under ODbL."}, "elements": [{"type": "node", "id": 5097929501, "lat": 50.8603795, "lon": 4.4039005, "tags": {"amenity": "restaurant", "contact:website": "https://www.restaurantlephenix.be", "cuisine": "italian", "name": "Phenix", "opening_hours": "Tu-Sa 18:00-22:30, Tu-Fr 12:00-14:30"}}, {"type": "node", "id": 9562715000, "lat": 50.8598312, "lon": 4.3970779, "tags": {"amenity": "restaurant", "contact:email": "Chandansprl@gmail.com", "contact:phone": "+32 2 726 32 02", "contact:website": "https://wahis-club.eatbu.com/", "cuisine": "french", "name": "Wahis club", "opening_hours": "Mo-Su 09:00-22:00"}}, {"type": "node", "id": 9983280897, "lat": 50.8559366, "lon": 4.4003529, "tags": {"amenity": "restaurant", "check_date": "2022-08-28", "cuisine": "italian;pizza", "name": "Fratello's"}}, {"type": "node", "id": 9983346203, "lat": 50.8554465, "lon": 4.3996494, "tags": {"amenity": "restaurant", "check_date": "2022-08-28", "cuisine": "turc;kebab", "entrance:kerb:height": "0.17", "entrance:step_count": "1", "entrance:width": "0.76", "name": "Mevan Grill", "toilets:wheelchair": "no"}}, {"type": "node", "id": 9983346204, "lat": 50.8554278, "lon": 4.3995751, "tags": {"amenity": "restaurant", "check_date": "2022-08-28", "contact:phone": "+32 2 726 21 31", "cuisine": "thai", "name": "Meli M\u00ealy", "opening_hours": "Sa-Su 18:00-22:00; Mo-Fr 12:00-14:30, 18:00-22:00"}}, {"type": "node", "id": 9983346206, "lat": 50.8553787, "lon": 4.399381, "tags": {"amenity": "restaurant", "check_date": "2026-01-02", "contact:phone": "+32 2 726 80 17", "cuisine": "pizza", "diet:halal": "yes", "name": "Royale Family Pizza"}}]}