{"version": 0.6, "generator": "Overpass API 0.7.62.10 2d4cfc48", "osm3s": {"timestamp_osm_base": "2026-02-03T09:22:40Z", "copyright": "The data included in this document is from www.openstreetmap.org. The data is made available under ODbL."}, "elements": [{"type": "node", "id": 766888527, "lat": 50.8582288, "lon": 4.3849142, "tags": {"amenity": "bar", "name": "Le Galion"}}, {"type": "node", "id": 2339399742, "lat": 50.8589982, "lon": 4.3910126, "tags": {"amenity": "bar", "contact:website": "https://babs.wine/", "drink:wine": "yes", "name": "Bab\u2019s"}}, {"type": "node", "id": 2340802796, "lat": 50.8590953, "lon": 4.3892222, "tags": {"amenity": "bar", "brewery": "yes;various", "check_date": "2022-08-30", "contact:email": "hello@1030.cafe", "contact:website": "https://www.1030.cafe/", "food": "yes", "name": "1030 Caf\u00e9", "opening_hours": "Mo,Su 16:00-23:00; Tu-Th,Sa 16:00-01:00; Fr 16:00-03:00", "outdoor_seating": "yes", "payment:bancontact": "yes", "payment:mastercard": "yes", "payment:pluxee": "yes", "payment:visa": "yes", "wheelchair": "yes"}}, {"type": "node", "id": 2354779080, "lat": 50.8609507, "lon": 4.3843845, "tags": {"amenity": "bar", "contact:facebook": "https://www.facebook.com/Silvertavern1030/", "name": "Central Park"}}, {"type": "node", "id": 2354798083, "lat": 50.8614544, "lon": 4.3827322, "tags": {"amenity": "bar", "cocktails": "yes", "contact:website": "https://foxdenbar.be/", "drink:cocktail": "served", "name": "Fox Den", "opening_hours": "We-Th 18:00-00:00, Fr-Sa 18:00-01:00, Su 16:00-23:00"}}, {"type": "node", "id": 5128638461, "lat": 50.8568422, "lon": 4.3902499, "tags": {"amenity": "bar", "name": "Duc de Brabant"}}, {"type": "node", "id": 5506428221, "lat": 50.8572251, "lon": 4.3885862, "tags": {"amenity": "bar", "brewery": "yes", "contact:facebook": "https://www.facebook.com/1090393574399987", "contact:instagram": "https://instagram.com/copain.bar", "contact:phone": "+32 2 447 20 59", "contact:website": "https://copain.brussels", "name": "Copain", "opening_hours": "Mo-Sa 16:00-01:00; Su off"}}, {"type": "node", "id": 10073407641, "lat": 50.8587384, "lon": 4.3814118, "tags": {"amenity": "bar", "check_date": "2025-02-12", "check_date:opening_hours": "2024-05-05", "internet_access": "wlan", "internet_access:fee": "no", "name": "Brasserie Rogier", "opening_hours": "Mo-Th,Su 08:00-01:00; Fr-Sa 08:00-03:00", "opening_hours:signed": "no", "payment:bancontact": "yes", "payment:mastercard": "yes", "payment:pluxee": "yes", "payment:visa": "yes", "wheelchair": "no"}}, {"type": "node", "id": 11546145107, "lat": 50.8579992, "lon": 4.3850657, "tags": {"amenity": "pub", "name": "Belved\u00e8re"}}]}