{"version": 0.6, "generator": "Overpass API 0.7.62.10 2d4cfc48", "osm3s": {"timestamp_osm_base": "2026-02-02T18:46:16Z", "copyright": "The data included in this document is from www.openstreetmap.org. The data is made available under ODbL."}, "elements": [{"type": "node", "id": 1612984301, "lat": 50.8314277, "lon": 4.432936, "tags": {"name": "Mus\u00e9e du Tram - Trammuseum", "name:fr": "Mus\u00e9e du Tram", "name:nl": "Trammuseum", "public_transport": "stop_position", "railway": "tram_stop", "tram": "yes"}}, {"type": "node", "id": 1934010725, "lat": 50.8322751, "lon": 4.4324295, "tags": {"name": "Mus\u00e9e du Tram - Trammuseum", "name:fr": "Mus\u00e9e du Tram", "name:nl": "Trammuseum", "public_transport": "stop_position", "railway": "tram_stop", "tram": "yes"}}, {"type": "node", "id": 2591016929, "lat": 50.8278453, "lon": 4.4386777, "tags": {"name": "de Villalobar", "public_transport": "stop_position", "railway": "tram_stop", "tram": "yes"}}, {"type": "node", "id": 2591016931, "lat": 50.8278381, "lon": 4.4390008, "tags": {"name": "de Villalobar", "public_transport": "stop_position", "railway": "tram_stop", "tram": "yes"}}, {"type": "node", "id": 4652816035, "lat": 50.8323169, "lon": 4.4325975, "tags": {"name": "Mus\u00e9e du Tram - Trammuseum", "name:fr": "Mus\u00e9e du Tram", "name:nl": "Trammuseum", "public_transport": "stop_position", "railway": "tram_stop", "tram": "yes"}}, {"type": "node", "id": 5329635366, "lat": 50.8249944, "lon": 4.4318913, "tags": {"name": "Empain", "public_transport": "stop_position", "railway": "tram_stop", "tram": "yes"}}, {"type": "node", "id": 5329635374, "lat": 50.8239805, "lon": 4.4315074, "tags": {"name": "Empain", "public_transport": "stop_position", "railway": "tram_stop", "tram": "yes"}}]}