{"version": 0.6, "generator": "Overpass API 0.7.62.10 2d4cfc48", "osm3s": {"timestamp_osm_base": "2026-02-03T08:46:36Z", "copyright": "The data included in this document is from www.openstreetmap.org. The data is made available under ODbL."}, "elements": [{"type": "node", "id": 826830628, "lat": 50.8333203, "lon": 4.3563505, "tags": {"amenity": "pub", "check_date": "2025-12-25", "check_date:opening_hours": "2025-12-25", "name": "Le Stephany", "opening_hours:signed": "no"}}, {"type": "node", "id": 3100741123, "lat": 50.8312334, "lon": 4.3470158, "tags": {"amenity": "bar", "check_date": "2025-02-23", "indoor_seating": "yes", "name": "La Victoire", "outdoor_seating": "yes"}}, {"type": "node", "id": 4006928840, "lat": 50.8285078, "lon": 4.3518549, "tags": {"alt_name": "Taverne Herman d", "amenity": "pub", "check_date": "2025-02-20", "name": "Chez mon ex", "opening_hours": "Mo-Fr 12:00-24:00; Sa 15:00-24:00; Su off"}}, {"type": "node", "id": 4008338465, "lat": 50.8305378, "lon": 4.3510629, "tags": {"amenity": "bar", "check_date": "2025-11-30", "name": "Charivari"}}, {"type": "node", "id": 6815860564, "lat": 50.8309882, "lon": 4.3464518, "tags": {"amenity": "bar", "check_date": "2025-02-02", "indoor_seating": "yes", "name": "Lusitano", "outdoor_seating": "yes"}}, {"type": "node", "id": 7041630137, "lat": 50.8311708, "lon": 4.3459958, "tags": {"amenity": "bar", "brewery": "Ermitage;Kaapse_Brouwers;Cantillon;Cyclic_Beer_Farm;Ministry_of_Belgian_Beer", "check_date": "2024-08-31", "contact:phone": "+32 2 732 32 68", "contact:website": "https://ermitagesaintgilles.be/", "microbrewery": "yes", "name": "L'Ermitage Saint-Gilles", "opening_hours": "Mo-Su 16:00-24:00", "outdoor_seating": "yes", "start_date": "2019-12-07"}}, {"type": "node", "id": 9654627315, "lat": 50.8317986, "lon": 4.3489481, "tags": {"air_conditioning": "yes", "amenity": "pub", "changing_table": "no", "changing_table:adult": "no", "check_date": "2025-08-08", "entrance:kerb:height": "0.3", "entrance:step_count": "2", "entrance:width": "0.8", "indoor_seating": "yes", "name": "Le Dillens", "opening_hours": "Mo-We 08:00-24:00, Th 08:00-01:00, Fr 08:00-02:00, Sa 10:00-01:00, Su 10:00-24:00", "outdoor_seating": "yes", "payment:credit_cards": "yes", "payment:debit_cards": "yes", "ramp:wheelchair": "no", "smoking": "outside", "toilets": "yes", "toilets:wheelchair": "no", "wheelchair": "no", "wheelchair:turning_circle": "no"}}, {"type": "node", "id": 9762478271, "lat": 50.8345531, "lon": 4.3568015, "tags": {"amenity": "nightclub", "check_date:opening_hours": "2025-10-31", "contact:instagram": "bloodylouisgram", "contact:mobile": "+32 474 40 56 82", "contact:website": "https://www.bloodylouis.be/", "live_music": "yes", "name": "Bloody Louis", "opening_hours:signed": "no"}}, {"type": "node", "id": 10100483525, "lat": 50.8322977, "lon": 4.3494579, "tags": {"amenity": "bar", "brewery": "no", "check_date": "2022-10-14", "description": "Bar \u00e0 vin", "name": "Coude \u00e0 coude", "wheelchair": "no"}}, {"type": "node", "id": 10246359512, "lat": 50.8306665, "lon": 4.3482459, "tags": {"amenity": "bar", "check_date": "2025-11-14", "name": "Amarcord"}}, {"type": "node", "id": 10550531075, "lat": 50.8270993, "lon": 4.3549184, "tags": {"amenity": "bar", "check_date": "2025-03-11", "contact:facebook": "joliejolicocktailclub", "name": "Jolie Joli Cocktail Club"}}, {"type": "node", "id": 11019548016, "lat": 50.8303413, "lon": 4.3479704, "tags": {"amenity": "bar", "check_date": "2024-11-21", "name": "Maguie", "opening_hours": "Th-Mo 17:00-24:00"}}, {"type": "node", "id": 11630611490, "lat": 50.8258732, "lon": 4.3544671, "tags": {"amenity": "nightclub", "name": "BPM", "wifi": "no"}}, {"type": "node", "id": 12535200643, "lat": 50.8344544, "lon": 4.3545409, "tags": {"amenity": "bar", "check_date:opening_hours": "2025-10-31", "name": "The Louise Bar", "opening_hours:signed": "no"}}, {"type": "node", "id": 12546316599, "lat": 50.8345995, "lon": 4.3549848, "tags": {"amenity": "bar", "check_date:opening_hours": "2025-10-31", "indoor_seating": "bar_table", "name": "Le Jourdan", "opening_hours:signed": "no", "outdoor_seating": "yes", "wheelchair": "no"}}]}