{"version": 0.6, "generator": "Overpass API 0.7.62.10 2d4cfc48", "osm3s": {"timestamp_osm_base": "2026-02-02T15:44:23Z", "copyright": "The data included in this document is from www.openstreetmap.org. The data is made available under ODbL."}, "elements": [{"type": "node", "id": 331953377, "lat": 50.8415512, "lon": 4.3525901, "tags": {"amenity": "restaurant", "contact:phone": "+32 2 502 25 12", "contact:website": "https://www.skievelatsablon.be/", "cuisine": "regional", "name": "Skievelat", "opening_hours": "12:00-22:30"}}, {"type": "node", "id": 411458802, "lat": 50.7994622, "lon": 4.3785814, "tags": {"air_conditioning": "yes", "amenity": "restaurant", "contact:email": "info@villalorraine.be", "contact:phone": "+32 2 374 31 63", "contact:website": "https://www.lavillalorraine.be/", "cuisine": "french", "name": "La Villa Lorraine", "outdoor_seating": "yes", "reservation": "recommended", "start_date": "1800", "start_date:edtf": "18XX", "start_date:note": "19th century", "wikidata": "Q20747687", "wikipedia": "nl:Villa Lorraine"}}, {"type": "node", "id": 413462757, "lat": 50.9054623, "lon": 4.4173452, "tags": {"amenity": "restaurant", "contact:email": "daphne.mommaerts@gmail.com", "contact:facebook": "https://www.facebook.com/people/The-Corner/100041307865808/", "contact:phone": "+32 2 215 40 81", "cuisine": "regional", "name": "The Corner", "was:amenity": "cafe", "was:name": "New Rock Vallee"}}, {"type": "node", "id": 433340087, "lat": 50.9074912, "lon": 4.4109491, "tags": {"amenity": "restaurant", "name": "La Marina", "wheelchair": "limited"}}, {"type": "node", "id": 488330252, "lat": 50.8499301, "lon": 4.379668, "tags": {"amenity": "restaurant", "contact:facebook": "https://m.facebook.com/people/CHEZ-FIRAS/100076249354461/", "cuisine": "syrian", "name": "Chez Firas", "was:name": "Le Mezze"}}, {"type": "node", "id": 556338156, "lat": 50.8488654, "lon": 4.3509211, "tags": {"air_conditioning": "yes", "amenity": "restaurant", "contact:email": "kabuki.bruxelles@gmail.com", "contact:phone": "+32 2 218 86 96", "contact:website": "https://www.restaurant-kabuki.be/", "cuisine": "japanese", "indoor_seating": "yes", "name": "Kabuki", "opening_hours": "Mo-Su 12:00-14:00,18:00-23:00", "outdoor_seating": "no", "wheelchair": "yes"}}, {"type": "node", "id": 575898378, "lat": 50.849865, "lon": 4.3553851, "tags": {"amenity": "restaurant", "check_date:opening_hours": "2025-12-02", "cuisine": "syrian", "indoor_seating": "yes", "name": "Mine Madeh", "opening_hours:signed": "no", "outdoor_seating": "pedestrian_zone", "start_date": "2024-03-14", "takeaway": "yes", "wheelchair": "no"}}, {"type": "node", "id": 674681221, "lat": 50.8529978, "lon": 4.3454388, "tags": {"amenity": "restaurant", "contact:email": "info@chicagotrattoria.be", "contact:mobile": "+32 486 30 90 64", "contact:phone": "+32 2 465 96 71", "contact:website": "https://chicagocafe.be/chicago-trattoria-home", "cuisine": "pizza;italian;pasta", "entrance:kerb:height": "0.06", "entrance:step_count": "1", "entrance:width": "0.85", "name": "Chicago Trattoria", "opening_hours": "Tu-Fr 12:00-14:00, 18:00-22:00; Sa-Su 18:00-22:00", "wheelchair:turning_circle": "yes"}}, {"type": "node", "id": 694045674, "lat": 50.848976, "lon": 4.352213, "tags": {"amenity": "restaurant", "brewery": "various", "contact:email": "info@drugopera.be", "contact:phone": "+32 2 229 16 66", "contact:website": "https://www.drugopera.be/", "cuisine": "regional", "name": "Drug Opera", "opening_hours": "Mo-Fr 12:00-23:00, Sa,Su 12:00-24:00", "outdoor_seating": "yes", "panoramax": "26abee85-b267-452d-8ed5-37fd9ce90d2a", "ref:vatin": "BE0408361981", "smoking": "no", "toilets:wheelchair": "no", "wheelchair": "limited"}}, {"type": "node", "id": 698288168, "lat": 50.8486419, "lon": 4.3502412, "tags": {"amenity": "restaurant", "check_date:opening_hours": "2026-01-05", "contact:phone": "+32 2 502 85 87", "contact:website": "https://restaurant-anata.be/", "cuisine": "japanese", "diet:vegetarian": "limited", "name": "Anata", "opening_hours:signed": "no", "payment:cards": "yes", "payment:cash": "yes", "payment:qr_code": "no", "reservation": "yes", "wheelchair": "yes"}}, {"type": "node", "id": 843728921, "lat": 50.8431302, "lon": 4.3460212, "tags": {"amenity": "restaurant", "check_date": "2024-02-01", "contact:email": "info@houtsiplou.be", "contact:phone": "+32 2 511 38 16", "contact:website": "https://houtsiplou.be", "cuisine": "burger;brasserie", "internet_access": "wlan", "internet_access:fee": "customers", "name": "Houtsiplou", "opening_hours": "Tu-Su unknown; Mo off", "payment:cash": "yes", "payment:credit_cards": "yes", "payment:debit_cards": "yes", "toilets": "yes", "toilets:access": "public", "toilets:description": "Le r\u00e9seau des toilettes accueillantes - Netwerk gastvrije toiletten", "toilets:fee": "no", "wheelchair": "no"}}, {"type": "node", "id": 843728997, "lat": 50.8453335, "lon": 4.3475373, "tags": {"amenity": "restaurant", "name": "Jardin des olives"}}, {"type": "node", "id": 843729099, "lat": 50.8465379, "lon": 4.3491247, "tags": {"amenity": "restaurant", "contact:facebook": "https://www.facebook.com/people/Le-Plattesteen/100064031887952/", "name": "Plattesteen", "start_date": "1936", "toilets:wheelchair": "no", "wheelchair": "yes"}}, {"type": "node", "id": 870363570, "lat": 50.8465296, "lon": 4.3591367, "tags": {"amenity": "restaurant", "contact:email": "moodsbxl@gmail.com", "contact:mobile": "+32 488 76 26 50", "contact:phone": "+32 2 513 80 29", "contact:website": "https://www.moodsbxl.be/", "indoor_seating": "yes", "name": "Moods", "opening_hours": "Mo-Fr 10:30-24:00; Sa 16:30-24:00; Su off", "outdoor_seating": "no", "payment:cash": "yes", "payment:maestro": "yes", "payment:mastercard": "yes"}}, {"type": "node", "id": 933102661, "lat": 50.85014, "lon": 4.3479085, "tags": {"amenity": "restaurant", "contact:phone": "+32 2 882 08 85", "contact:website": "https://takumiramennoodles.com/be/brussels-catherine2/", "cuisine": "japanese", "name": "Takumi Tonkotsu Ramen", "opening_hours": "Mo-Sa 12:00-22:00; Su 12:00-21:00"}}, {"type": "node", "id": 945336367, "lat": 50.8045421, "lon": 4.380757}, {"type": "node", "id": 1106127078, "lat": 50.8903759, "lon": 4.3362078, "tags": {"amenity": "restaurant", "name": "Brasserie de l\u2019Expo", "outdoor_seating": "yes"}}, {"type": "node", "id": 1106127085, "lat": 50.890264, "lon": 4.3373237, "tags": {"amenity": "restaurant", "contact:email": "ilrifugio164@gmail.com", "contact:facebook": "https://www.facebook.com/ILRIFUGIO164", "contact:phone": "+32 2 478 02 89", "contact:website": "https://www.ilrifugio.be", "cuisine": "italian;french", "name": "Il Rifugio", "opening_hours": "12:00-14:00,18:00-22:00; Tu,We off; Fr 12:00-14:00,18:00-22:30; Sa 18:00-22:30", "outdoor_seating": "yes", "takeaway": "yes"}}, {"type": "node", "id": 1138938717, "lat": 50.8302393, "lon": 4.3589244, "tags": {"amenity": "restaurant", "contact:fax": "+32 2 538 23 78", "contact:phone": "+32 2 537 71 31", "cuisine": "lebanese", "name": "Mont Liban", "name:en": "Mount Leban", "opening_hours:signed": "no", "url": "http://www.montliban.be/"}}, {"type": "node", "id": 1151269399, "lat": 50.8452613, "lon": 4.3493227, "tags": {"amenity": "restaurant", "contact:phone": "+32 2 514 39 49", "contact:website": "https://www.lecercledesvoyageurs.com/", "cuisine": "international", "name": "Le Cercle des Voyageurs", "opening_hours": "Mo-Su 11:00-00:00", "panoramax": "bb6a8b96-c5aa-4fa9-8e94-fabbdd93461b"}}, {"type": "node", "id": 1151269409, "lat": 50.8458449, "lon": 4.3484449, "tags": {"amenity": "restaurant", "check_date": "2025-08-18", "contact:website": "https://tapaslocas.be/", "cuisine": "spanish", "name": "Tapas Locas"}}, {"type": "node", "id": 1151269436, "lat": 50.8486606, "lon": 4.3534104, "tags": {"amenity": "restaurant", "check_date:opening_hours": "2025-05-11", "contact:mobile": "+32 475 82 15 53", "contact:phone": "+32 2 219 59 54", "contact:website": "https://www.bombayinn.be/", "cuisine": "indian", "diet:vegetarian": "yes", "indoor_seating": "yes", "name": "Bombay Inn", "opening_hours": "Mo-Sa,PH 12:00-14:30,18:00-23:30; Su 17:00-22:30", "outdoor_seating": "pedestrian_zone", "takeaway": "yes"}}, {"type": "node", "id": 1221337369, "lat": 50.875071, "lon": 4.3404797, "tags": {"amenity": "restaurant", "contact:mobile": "+32 476 26 28 88", "cuisine": "pizza", "name": "Benvenutto"}}, {"type": "node", "id": 1286089058, "lat": 50.8751812, "lon": 4.3539078, "tags": {"amenity": "restaurant", "name": "Khayma Grill"}}, {"type": "node", "id": 1438475547, "lat": 50.8042784, "lon": 4.3807059}, {"type": "node", "id": 1438475555, "lat": 50.8043689, "lon": 4.3809312}, {"type": "node", "id": 1438475557, "lat": 50.8044516, "lon": 4.3805317}, {"type": "node", "id": 1438475559, "lat": 50.8044426, "lon": 4.380857, "tags": {"entrance": "yes"}}, {"type": "node", "id": 1639224198, "lat": 50.8441739, "lon": 4.3841565, "tags": {"amenity": "restaurant", "check_date": "2023-08-26", "contact:website": "https://lecoindudiable.com/", "name": "Le Coin du Diable", "name:en": "The Devil\u2019s Corner"}}, {"type": "node", "id": 1676021592, "lat": 50.895347, "lon": 4.387884, "tags": {"amenity": "restaurant", "contact:phone": "+32 2 262 27 49", "name": "In den Achtsten Hemel", "opening_hours": "Mo-Sa 11:00-22:00"}}, {"type": "node", "id": 1762909959, "lat": 50.8402655, "lon": 4.3430116, "tags": {"amenity": "restaurant", "name": "L'oc\u00e9an"}}, {"type": "node", "id": 2122303453, "lat": 50.8412094, "lon": 4.3541486, "tags": {"amenity": "restaurant", "check_date:opening_hours": "2024-07-03", "name": "Relais de Paris", "opening_hours:signed": "no"}}, {"type": "node", "id": 2140364948, "lat": 50.8471839, "lon": 4.3505779, "tags": {"addr:housenumber": "13", "addr:street": "Rue du Midi - Zuidstraat", "entrance": "home", "ref:UrbIS": "6044877"}}, {"type": "node", "id": 2329109281, "lat": 50.8498531, "lon": 4.3545561, "tags": {"amenity": "restaurant", "breakfast": "yes", "check_date": "2025-04-14", "contact:email": "hello@frank.brussels", "contact:instagram": "https://www.instagram.com/frank.brussels", "contact:website": "https://www.frank.brussels", "cuisine": "brunch;breakfast;lunch;coffee_shop;tea", "description": "Breakfast, brunch, lunch", "indoor_seating": "yes", "lunch": "yes", "name": "Frank.", "opening_hours": "Mo-Fr 08:00-16:00; Sa-Su,PH 10:00-16:00", "outdoor_seating": "pedestrian_zone", "payment:cash": "no", "payment:credit_cards": "yes", "payment:debit_cards": "yes", "reservation": "yes", "takeaway": "yes", "wheelchair": "yes"}}, {"type": "node", "id": 2333276420, "lat": 50.8456383, "lon": 4.3525085, "tags": {"amenity": "restaurant", "cuisine": "french", "name": "La Roue d'Or", "opening_hours": "Mo-Su 12:00-00:30", "wikidata": "Q126014561", "wikimedia_commons": "Category:La Roue d'Or"}}, {"type": "node", "id": 2333276696, "lat": 50.846042, "lon": 4.3528043, "tags": {"amenity": "restaurant", "cuisine": "lebanese", "indoor_seating": "yes", "name": "L'Express", "outdoor_seating": "yes", "takeaway": "yes"}}, {"type": "node", "id": 2334478699, "lat": 50.8441485, "lon": 4.3524615}, {"type": "node", "id": 2334478702, "lat": 50.8441517, "lon": 4.3524582}, {"type": "node", "id": 2334478707, "lat": 50.8441613, "lon": 4.3524481}, {"type": "node", "id": 2334478712, "lat": 50.8441739, "lon": 4.3525045}, {"type": "node", "id": 2334478715, "lat": 50.8441843, "lon": 4.3524892}, {"type": "node", "id": 2334478724, "lat": 50.8442167, "lon": 4.352368}, {"type": "node", "id": 2334478735, "lat": 50.844256, "lon": 4.3524046}, {"type": "node", "id": 2339843290, "lat": 50.8487834, "lon": 4.3666289, "tags": {"amenity": "restaurant", "contact:email": "info@madous-folie.be", "contact:phone": "+32 2 217 38 31", "contact:website": "https://www.resto-madous-folie.be", "cuisine": "regional", "name": "Madou's Folie", "opening_hours": "Mo-Fr 12:00-15:00,18:30-22:00", "payment:cash": "yes", "payment:maestro": "yes", "payment:mastercard": "yes", "payment:visa": "yes"}}, {"type": "node", "id": 2339843343, "lat": 50.8494644, "lon": 4.3658962, "tags": {"amenity": "restaurant", "check_date": "2025-02-12", "contact:website": "https://basils.org/", "cuisine": "italian;pizza", "name": "Basils", "opening_hours": "Mo-Su 18:30-22:30; Mo-Sa 12:00-14:30"}}, {"type": "node", "id": 2339843363, "lat": 50.8483884, "lon": 4.3644704, "tags": {"amenity": "restaurant", "contact:phone": "+32 2 219 42 00", "contact:website": "http://www.la-bottega-resto.be/", "cuisine": "italian", "name": "La Bottega", "opening_hours": "Mo-We 12:00-15:00; Th-Fr 12:00-15:00,18:00-23:00; Sa,Su,PH off"}}, {"type": "node", "id": 2339843382, "lat": 50.848226, "lon": 4.36499, "tags": {"amenity": "restaurant", "contact:email": "info@ahnonpeutetre.brussels", "contact:website": "https://www.ahnonpeutetre.brussels/", "cuisine": "regional", "name": "Ah non peut-\u00eatre !", "opening_hours": "Mo-Fr 11:30-14:30", "payment:maestro": "yes", "payment:mastercard": "yes", "payment:visa": "yes", "wheelchair": "no"}}, {"type": "node", "id": 2341205042, "lat": 50.8479706, "lon": 4.364618, "tags": {"amenity": "restaurant", "cuisine": "italian", "name": "Agora", "wheelchair": "no"}}, {"type": "node", "id": 2341205071, "lat": 50.8480011, "lon": 4.3647704, "tags": {"amenity": "restaurant", "check_date:opening_hours": "2021-06-25", "contact:phone": "+32 2 627 15 50", "name": "Bonjour Colette", "opening_hours": "Mo-Fr 11:30-15:00", "wheelchair": "no"}}, {"type": "node", "id": 2341205164, "lat": 50.84875, "lon": 4.3675184, "tags": {"amenity": "restaurant", "contact:phone": "+32 2 203 87 39", "cuisine": "thai;vietnamese", "name": "Bambou Rouge", "opening_hours": "Mo-Fr 12:00-15:00,18:00-23:00; Sa-Su 18:00-23:00", "takeaway": "yes", "wheelchair": "no"}}, {"type": "node", "id": 2345001230, "lat": 50.849507, "lon": 4.3667853, "tags": {"amenity": "restaurant", "contact:facebook": "https://www.facebook.com/DeBruxellesEtDAilleurs/", "contact:mobile": "+32 484 95 31 81", "cuisine": "international", "indoor_seating": "yes", "name": "De Bruxelles et d'Ailleurs", "opening_hours": "Mo-Fr 12:00-14:30,18:45-22:30", "outdoor_seating": "yes"}}, {"type": "node", "id": 2345001354, "lat": 50.8499377, "lon": 4.3665137, "tags": {"amenity": "restaurant", "bar": "yes", "brewery": "yes", "cuisine": "french", "diet:vegetarian": "no", "indoor_seating": "yes", "name": "Garden City", "opening_hours": "Mo-Su 09:30-22:00; Su 09:30-18:00", "outdoor_seating": "yes"}}, {"type": "node", "id": 2345001387, "lat": 50.8499017, "lon": 4.3666768, "tags": {"amenity": "restaurant", "bar": "yes", "contact:phone": "+32 2 356 14 05", "contact:website": "https://www.caberdouche.com/", "cuisine": "french", "diet:vegetarian": "yes", "indoor_seating": "yes", "name": "Caf\u00e9 Caberdouche", "opening_hours": "Mo-Th, Su 09:00-00:00; Fr, Sa 09:00-01:00", "outdoor_seating": "yes"}}, {"type": "node", "id": 2345001393, "lat": 50.8497489, "lon": 4.3669493, "tags": {"amenity": "restaurant", "contact:mobile": "+32 489 23 79 14", "contact:website": "https://los-chiringuitos.com", "cuisine": "tapas", "name": "Los Chiringuitos"}}, {"type": "node", "id": 2345001396, "lat": 50.8485824, "lon": 4.3683423, "tags": {"amenity": "restaurant", "cuisine": "japanese", "name": "Senraku"}}, {"type": "node", "id": 2365906504, "lat": 50.8405603, "lon": 4.3851354, "tags": {"amenity": "restaurant", "contact:phone": "+32 2 280 28 00", "contact:website": "https://www.paolosidea.com", "cuisine": "pizza", "name": "Paolo\u2019s Idea", "opening_hours": "Mo 12:00-14:30; Tu-Fr 12:00-14:30,18:30-22:30, Sa 18:30-22:30; Su,PH off", "takeaway": "yes"}}, {"type": "node", "id": 2382490251, "lat": 50.8445241, "lon": 4.384433, "tags": {"amenity": "restaurant", "check_date": "2023-08-26", "contact:phone": "+32 2 736 76 19", "contact:website": "https://lariviera.be/", "cuisine": "italian", "delivery": "yes", "name": "La Riviera", "opening_hours": "Mo-Fr 12:00-15:00, 18:00-23:00; Sa,Su 18:00-23:00", "outdoor_seating": "patio", "wheelchair": "no"}}, {"type": "node", "id": 2383033179, "lat": 50.8451019, "lon": 4.3797186, "tags": {"amenity": "restaurant", "check_date": "2025-04-09", "contact:mobile": "+32 470 83 3530", "contact:website": "https://elquetzalbxl.com", "cuisine": "mexican", "delivery": "yes", "description": "Mexican Restaurant & Bar", "name": "El Quetzal", "opening_hours": "Mo-Fr 12:00-15:00,18:00-22:00; Sa 12:00-22:00; Su off"}}, {"type": "node", "id": 2383044819, "lat": 50.8446756, "lon": 4.3819468, "tags": {"amenity": "restaurant", "cuisine": "sushi", "diet:vegetarian": "yes", "indoor_seating": "yes", "name": "Houchou", "opening_hours": "Mo-Fr 12:00-20:30", "outdoor_seating": "yes"}}, {"type": "node", "id": 2385647061, "lat": 50.8450441, "lon": 4.3790756, "tags": {"amenity": "restaurant", "contact:website": "https://www.mazmiz.be/", "cuisine": "lebanese", "name": "Mazmiz", "opening_hours": "Mo-Fr 11:30-18:30"}}, {"type": "node", "id": 2394706142, "lat": 50.8432303, "lon": 4.3840963, "tags": {"amenity": "restaurant", "cuisine": "portuguese", "name": "Puro"}}, {"type": "node", "id": 2403700022, "lat": 50.8492301, "lon": 4.389329, "tags": {"amenity": "restaurant", "contact:phone": "+32 2 351 63 23", "contact:website": "https://topogigiobruxelles.be", "cuisine": "italian;pizza", "diet:vegan": "no", "diet:vegetarian": "yes", "internet_access": "wlan", "name": "TopoGigio"}}, {"type": "node", "id": 2403723652, "lat": 50.8493697, "lon": 4.3836126, "tags": {"amenity": "restaurant", "diet:vegan": "no", "diet:vegetarian": "yes", "name": "Smyrna"}}, {"type": "node", "id": 2414370933, "lat": 50.8510356, "lon": 4.3481828, "tags": {"amenity": "restaurant", "changing_table": "no", "contact:phone": "+32 2 511 60 89", "contact:website": "https://restaurant-francois.be/", "cuisine": "fish", "diet:vegetarian": "no", "entrance:kerb:height": "0.1", "entrance:ramp": "no", "entrance:step_count": "1", "entrance:width": "0.8", "indoor_seating": "yes", "name": "Fran\u00e7ois", "opening_hours": "12:00-14:30,18:30-22:30", "outdoor_seating": "yes", "toilets:wheelchair": "no", "wheelchair": "no", "wheelchair:turning_circle": "no"}}, {"type": "node", "id": 2414370935, "lat": 50.85144, "lon": 4.3479042, "tags": {"amenity": "restaurant", "changing_table": "no", "check_date": "2025-08-11", "cuisine": "seafood", "entrance:kerb:height": "0.12", "entrance:ramp": "no", "entrance:step_count": "1", "entrance:width": "1.04", "name": "Master Crab", "toilets:wheelchair": "no", "toilets:wheelchair:accessible_via": "elevator", "wheelchair": "no", "wheelchair:turning_circle": "no"}}, {"type": "node", "id": 2414370936, "lat": 50.8518254, "lon": 4.3476388, "tags": {"amenity": "restaurant", "contact:phone": "+32 2 513 05 13", "cuisine": "japanese", "indoor_seating": "yes", "name": "Menma", "opening_hours": "Tu-Fr 12:00-14:30,19:00-22:00; Sa-Su 12:00-22:00", "outdoor_seating": "yes"}}, {"type": "node", "id": 2414370937, "lat": 50.8512949, "lon": 4.3480042, "tags": {"amenity": "restaurant", "cuisine": "fish", "diet:vegetarian": "no", "name": "Le Quai", "wheelchair": "no"}}, {"type": "node", "id": 2414370938, "lat": 50.85133, "lon": 4.34798, "tags": {"amenity": "restaurant", "changing_table": "no", "cuisine": "fish", "diet:vegetarian": "no", "entrance:kerb:height": "0.11", "entrance:ramp": "no", "entrance:step_count": "1", "entrance:width": "0.88", "name": "Le Vistro", "toilets:wheelchair": "yes", "toilets:wheelchair:accessible_via": "ground floor", "wheelchair": "no", "wheelchair:turning_circle": "yes"}}, {"type": "node", "id": 2414370939, "lat": 50.8511776, "lon": 4.3480849, "tags": {"amenity": "restaurant", "diet:vegetarian": "no", "indoor_seating": "yes", "name": "Mussel Mongers", "outdoor_seating": "yes"}}, {"type": "node", "id": 2414370943, "lat": 50.8513704, "lon": 4.3479522, "tags": {"amenity": "restaurant", "check_date": "2025-08-11", "contact:phone": "+32 2 567 94 05", "cuisine": "korean", "name": "Gigi Korean BBQ", "opening_hours": "Mo,We-Su 12:00-15:00,17:00-23:00"}}, {"type": "node", "id": 2420204400, "lat": 50.8528035, "lon": 4.3469652, "tags": {"amenity": "restaurant", "name": "Africa"}}, {"type": "node", "id": 2420204401, "lat": 50.8525259, "lon": 4.3471564, "tags": {"amenity": "restaurant", "contact:website": "https://www.bijdenboer.com/", "cuisine": "fish", "diet:vegetarian": "no", "indoor_seating": "yes", "name": "Bij den Boer", "opening_hours": "Mo-Sa 12:00-14:30,18:00-22:30; Su off", "outdoor_seating": "yes", "wheelchair": "no"}}, {"type": "node", "id": 2420204405, "lat": 50.8520688, "lon": 4.3474712, "tags": {"amenity": "restaurant", "contact:facebook": "https://www.facebook.com/restaurantchezjacques/", "contact:instagram": "https://www.instagram.com/jacquesrestaurant/", "contact:phone": "+32 2 512 20 27", "contact:website": "https://www.restaurantjacques.be/", "cuisine": "fish", "indoor_seating": "yes", "name": "Jacques", "opening_hours": "Tu-Sa 12:00-14:00,18:00-22:00", "outdoor_seating": "yes", "wheelchair": "no"}}, {"type": "node", "id": 2422528371, "lat": 50.8532828, "lon": 4.3475568, "tags": {"amenity": "restaurant", "changing_table": "no", "cuisine": "french", "entrance:kerb:height": "0", "entrance:step_count": "0", "entrance:width": "1.03", "name": "La Boussole", "payment:american_express": "yes", "payment:mastercard": "yes", "payment:visa": "yes", "payment:visa_electron": "yes", "wheelchair:turning_circle": "no"}}, {"type": "node", "id": 2422528374, "lat": 50.8517211, "lon": 4.3486323, "tags": {"amenity": "restaurant", "cuisine": "pasta", "name": "Pasta Bar", "note": "Closed as of 2023-07-22, could not determine whether it is out of business or closed during holidays"}}, {"type": "node", "id": 2430177136, "lat": 50.8435928, "lon": 4.3746855, "tags": {"amenity": "restaurant", "check_date": "2024-10-07", "contact:phone": "+32 2 230 76 04", "cuisine": "italian", "diet:vegetarian": "yes", "entrance:kerb:height": "0", "entrance:step_count": "0", "entrance:width": "0.86", "name": "Il buongustaio"}}, {"type": "node", "id": 2435780467, "lat": 50.8434426, "lon": 4.3752631, "tags": {"amenity": "restaurant", "entrance:kerb:height": "0.13", "entrance:step_count": "1", "entrance:width": "0.86", "indoor_seating": "yes", "name": "La Galia", "opening_hours:signed": "no", "outdoor_seating": "yes"}}, {"type": "node", "id": 2436568806, "lat": 50.8421472, "lon": 4.3859761, "tags": {"amenity": "restaurant", "contact:phone": "+32 2 238 08 08", "contact:website": "https://restoparkside.be/", "internet_access": "wlan", "name": "Park Side Brasserie", "opening_hours": "Mo-Fr 12:00-14:30,18:30-22:00"}}, {"type": "node", "id": 2466682759, "lat": 50.823099, "lon": 4.367099, "tags": {"amenity": "restaurant", "cuisine": "asian", "name": "Phopho", "opening_hours": "Mo-Th 11:30-14:00,19:00-22:00, Fr,Sa 12:00-15:00,19:00-23:00", "website": "http://phopho.be/", "wheelchair": "no"}}, {"type": "node", "id": 2478526101, "lat": 50.8480861, "lon": 4.3538956, "tags": {"amenity": "restaurant", "contact:phone": "+32 2 511 55 98", "contact:website": "https://auxarmesdebruxelles.com", "cuisine": "regional", "diet:vegetarian": "no", "internet_access": "wlan", "internet_access:fee": "no", "name": "Aux Armes de Bruxelles", "opening_hours": "Mo-Fr 12:00-22:45; Sa 12:00-23:15; Su 12:00-22:30", "wheelchair": "limited"}}, {"type": "node", "id": 2489046144, "lat": 50.8459591, "lon": 4.3721222, "tags": {"amenity": "restaurant", "changing_table": "no", "changing_table:adult": "no", "check_date:opening_hours": "2023-04-01", "contact:email": "contact@kamilou.be", "contact:phone": "+32 2 894 46 67", "contact:website": "https://www.kamilou.be/en/restaurant-at-arts-loi/", "delivery": "yes", "diet:vegan": "no", "diet:vegetarian": "no", "entrance:step_count": "0", "entrance:width": "1.04", "internet_access": "wlan", "name": "Kamilou", "opening_hours:signed": "no", "outdoor_seating": "yes", "takeaway": "yes", "wheelchair:turning_circle": "no"}}, {"type": "node", "id": 2501834384, "lat": 50.8568936, "lon": 4.3469641, "tags": {"amenity": "restaurant", "check_date": "2025-06-26", "contact:phone": "+32 2 425 73 60", "contact:website": "https://bargerestaurant.be/", "cuisine": "french;regional", "name": "Barge", "outdoor_seating": "no"}}, {"type": "node", "id": 2506689132, "lat": 50.8533239, "lon": 4.3418939, "tags": {"amenity": "restaurant", "contact:mobile": "+32 465 16 17 45", "cuisine": "syrian", "diet:vegan": "limited", "diet:vegetarian": "yes", "name": "Midan de Damas", "opening_hours": "Mo-Su 12:00-24:00", "reservation": "yes", "takeaway": "yes"}}, {"type": "node", "id": 2509496037, "lat": 50.8519414, "lon": 4.3507362, "tags": {"amenity": "restaurant", "contact:phone": "+32 2 219 39 33", "cuisine": "indian;nepalese;tibetan", "internet_access": "wlan", "name": "New Annapurna", "opening_hours": "11:30-14:30,17:30-23:00", "self_service": "no"}}, {"type": "node", "id": 2509496063, "lat": 50.8522947, "lon": 4.352661, "tags": {"amenity": "restaurant", "contact:facebook": "https://www.facebook.com/superfourchette", "contact:instagram": "superfourchette", "contact:phone": "+32 2 267 13 01", "description": "Restaurant with music concerts, sells music CDs", "live_music": "yes", "name": "Super Fourchette", "opening_hours": "Mo 12:00-14:00; Tu-Fr 12:00-14:00,18:30-21:30", "panoramax": "abb7edc0-45cc-4eda-a3bd-db56640838ff", "wheelchair": "no"}}, {"type": "node", "id": 2509496144, "lat": 50.852326, "lon": 4.3497339, "tags": {"amenity": "restaurant", "check_date:opening_hours": "2025-02-02", "contact:email": "brasseriedugourmet@gmail.com", "contact:phone": "+32 2 223 33 40", "cuisine": "regional", "name": "Brasserie du Gourmet", "opening_hours": "Mo,Tu,Th,Fr 12:00-15:00,18:30-22:30; We 18:30-22:30; Sa 18:30-22:30"}}, {"type": "node", "id": 2509496183, "lat": 50.8527231, "lon": 4.3522921, "tags": {"amenity": "restaurant", "contact:mobile": "+32 471 10 32 96;+32 472 46 21 65", "contact:website": "https://lafonda.be", "cuisine": "colombian", "name": "La Fonda", "opening_hours": "Fr 18:00-23:00; Sa 13:00-23:00; Su 13:00-21:30"}}, {"type": "node", "id": 2514192403, "lat": 50.8407697, "lon": 4.3567483, "tags": {"amenity": "restaurant", "check_date:opening_hours": "2023-05-22", "contact:email": "reservation@lecaillerdupalaisroyal.be", "contact:phone": "+32 2 512 87 51", "contact:website": "https://www.lecaillerdupalaisroyal.be", "name": "L'\u00c9caillier du Palais Royal", "opening_hours": "Mo-Su 12:00-14:30, 19:00-23:30", "opening_hours:signed": "no"}}, {"type": "node", "id": 2514211608, "lat": 50.8450117, "lon": 4.3582318, "tags": {"amenity": "restaurant", "contact:website": "https://eatwell.brussels", "cuisine": "sandwich;burger;pasta", "diet:vegan": "yes", "diet:vegetarian": "yes", "indoor_seating": "yes", "name": "Eat Well", "outdoor_seating": "no", "takeaway": "yes", "wheelchair": "limited"}}, {"type": "node", "id": 2518122683, "lat": 50.8524247, "lon": 4.3428352, "tags": {"amenity": "restaurant", "cuisine": "pizza;italian", "name": "Mamma Mia"}}, {"type": "node", "id": 2518122931, "lat": 50.8534657, "lon": 4.3465091, "tags": {"amenity": "restaurant", "contact:instagram": "chevalmarin_brussels", "cuisine": "regional", "live_music": "yes", "name": "Le Cheval Marin", "opening_hours": "Tu-Fr 16:00-03:00; Sa 12:00-03:00; Su 12:00-18:00"}}, {"type": "node", "id": 2521208499, "lat": 50.8493565, "lon": 4.348552}, {"type": "node", "id": 2521208516, "lat": 50.8493827, "lon": 4.3486005}, {"type": "node", "id": 2521208533, "lat": 50.8494076, "lon": 4.3484752}, {"type": "node", "id": 2521208536, "lat": 50.8494096, "lon": 4.34865}, {"type": "node", "id": 2521208537, "lat": 50.8494131, "lon": 4.3484849}, {"type": "node", "id": 2521208540, "lat": 50.8494248, "lon": 4.3484591}, {"type": "node", "id": 2521208546, "lat": 50.8494272, "lon": 4.348463}, {"type": "node", "id": 2521208550, "lat": 50.8494412, "lon": 4.348434}, {"type": "node", "id": 2521208552, "lat": 50.8494461, "lon": 4.3484413}, {"type": "node", "id": 2521208556, "lat": 50.8494488, "lon": 4.3484374}, {"type": "node", "id": 2521208564, "lat": 50.849468, "lon": 4.3484645}, {"type": "node", "id": 2521208587, "lat": 50.8494974, "lon": 4.3485088}, {"type": "node", "id": 2522237922, "lat": 50.8487702, "lon": 4.3474415, "tags": {"amenity": "restaurant", "contact:phone": "+32 2 512 90 49", "contact:website": "https://9-et-voisins.be", "cuisine": "regional", "indoor_seating": "yes", "name": "9 et voisins", "outdoor_seating": "yes", "reservation": "no"}}, {"type": "node", "id": 2522238858, "lat": 50.8456907, "lon": 4.3465956, "tags": {"amenity": "restaurant", "contact:phone": "+32 2 512 38 00", "contact:website": "https://jour-de-fete.be/", "name": "Jour de F\u00eate"}}, {"type": "node", "id": 2522239126, "lat": 50.8483344, "lon": 4.3480547, "tags": {"amenity": "restaurant", "contact:email": "info@kelurah.com", "cuisine": "indonesian", "diet:vegan": "limited", "diet:vegetarian": "yes", "name": "Kelurah", "opening_hours": "Tu 18:00-22:30; We-Sa 12:00-15:00,18:00-22:30; Su 12:00-14:00,18:00-22:00", "website": "https://kelurah.com/"}}, {"type": "node", "id": 2522239434, "lat": 50.848891, "lon": 4.3491505, "tags": {"air_conditioning": "yes", "amenity": "restaurant", "bar": "yes", "contact:phone": "+32 2 516 90 53", "cuisine": "belgian", "indoor_seating": "yes", "level": "0", "name": "Rotisse", "opening_hours": "Mo-Su 12:00-23:30", "outdoor_seating": "yes", "payment:american_express": "yes", "payment:bancomat": "yes", "payment:coins": "yes", "payment:contactless": "yes", "payment:debit_cards": "yes", "payment:mastercard": "yes", "payment:notes": "yes", "payment:visa": "yes", "toilets": "yes", "wheelchair": "yes"}}, {"type": "node", "id": 2522239865, "lat": 50.8489285, "lon": 4.3471046, "tags": {"amenity": "restaurant", "contact:facebook": "findesieclebruxelles", "contact:website": "https://findesiecle.be/", "cuisine": "regional", "indoor_seating": "yes", "name": "Fin de Si\u00e8cle", "opening_hours": "Mo-Su 12:00-00:00", "outdoor_seating": "yes"}}, {"type": "node", "id": 2522741218, "lat": 50.8528847, "lon": 4.3416661, "tags": {"amenity": "restaurant", "name": "Aster"}}, {"type": "node", "id": 2589704880, "lat": 50.8968417, "lon": 4.3584053, "tags": {"amenity": "restaurant", "contact:email": "info@skievelat.be", "contact:facebook": "https://www.facebook.com/skievelatdewand/", "contact:phone": "+32 2 735 65 47", "contact:website": "http://www.skievelat.be/", "cuisine": "regional", "name": "Skievelat", "opening_hours": "Tu-Fr 12:00-14:00,18:00-22:00; Sa 18:00-22:00"}}, {"type": "node", "id": 2590398124, "lat": 50.8881762, "lon": 4.3396696, "tags": {"amenity": "restaurant", "contact:email": "info@barapates.be", "contact:facebook": "https://www.facebook.com/bar.a.pates.laeken/", "contact:phone": "+32 2 478 66 44", "contact:website": "https://www.barapates.be/", "cuisine": "pasta;french;belgian", "name": "Bar \u00e0 P\u00e2tes l'Aquarelle", "opening_hours": "12:00-23:00; Tu off; Fr 12:00-01:00; Sa 12:00-24:00", "outdoor_seating": "yes", "takeaway": "yes", "toilets": "yes", "toilets:access": "public", "toilets:description": "Le r\u00e9seau des toilettes accueillantes - Netwerk gastvrije toiletten", "toilets:fee": "no"}}, {"type": "node", "id": 2620319367, "lat": 50.8410483, "lon": 4.3417809, "tags": {"amenity": "restaurant", "cuisine": "arab", "internet_access": "wlan", "name": "Maison de Th\u00e9", "name:en": "Arabic Tea House", "opening_hours": "Mo-Su 07:00-23:00"}}, {"type": "node", "id": 2620469554, "lat": 50.8535925, "lon": 4.3547176, "tags": {"amenity": "restaurant", "contact:phone": "+32 2 450 14 00", "contact:website": "http://thaimo.be", "cuisine": "thai", "delivery": "yes", "name": "Thaimo", "opening_hours": "Mo-We 11:30-15:00,18:00-21:00; Th,Fr 11:30-15:00,18:00-21:30", "payment:bancontact": "no", "payment:cash": "yes", "payment:credit_cards": "no", "payment:cryptocurrencies": "no", "payment:debit_cards": "no", "payment:electronic_purses": "no", "takeaway": "yes"}}, {"type": "node", "id": 2620469598, "lat": 50.8524191, "lon": 4.3534863, "tags": {"amenity": "restaurant", "name": "Happy B\u00f4l"}}, {"type": "node", "id": 2621607378, "lat": 50.8732198, "lon": 4.3579036}, {"type": "node", "id": 2621607391, "lat": 50.8733559, "lon": 4.3577677}, {"type": "node", "id": 2622002524, "lat": 50.8730477, "lon": 4.3579799}, {"type": "node", "id": 2622002527, "lat": 50.8730758, "lon": 4.3580491}, {"type": "node", "id": 2622002535, "lat": 50.8731901, "lon": 4.3578393}, {"type": "node", "id": 2622002542, "lat": 50.873258, "lon": 4.3577696}, {"type": "node", "id": 2622002546, "lat": 50.8732728, "lon": 4.3578077}, {"type": "node", "id": 2622002552, "lat": 50.8733277, "lon": 4.357754}, {"type": "node", "id": 2622002553, "lat": 50.8733335, "lon": 4.3577668}, {"type": "node", "id": 2622002561, "lat": 50.8733492, "lon": 4.3577511}, {"type": "node", "id": 2624442420, "lat": 50.8408089, "lon": 4.3428647, "tags": {"amenity": "restaurant", "cuisine": "fish", "name": "Antartique", "note": "They spell it Antartique and not Antarctique (French name for Antarctica)\u2014this is not a typo in OSM, this is how the business owners wanted it"}}, {"type": "node", "id": 2631878633, "lat": 50.8456113, "lon": 4.3471137, "tags": {"amenity": "restaurant", "contact:phone": "+32 2 511 21 95", "contact:website": "https://www.rugantino-bxl.be", "cuisine": "italian", "name": "Rugantino", "opening_hours": "Mo-Fr 11:00-15:00,17:00-23:00; Sa 17:00-23:00"}}, {"type": "node", "id": 2631880233, "lat": 50.8451307, "lon": 4.3476059}, {"type": "node", "id": 2631880238, "lat": 50.8451351, "lon": 4.3476867}, {"type": "node", "id": 2631880240, "lat": 50.8451385, "lon": 4.3476856}, {"type": "node", "id": 2631880245, "lat": 50.8451395, "lon": 4.3475551}, {"type": "node", "id": 2631880247, "lat": 50.8451408, "lon": 4.3477326}, {"type": "node", "id": 2631880259, "lat": 50.8451437, "lon": 4.3477315}, {"type": "node", "id": 2631880265, "lat": 50.8451474, "lon": 4.3477823}, {"type": "node", "id": 2631880328, "lat": 50.8451911, "lon": 4.3475706}, {"type": "node", "id": 2631880331, "lat": 50.8451928, "lon": 4.3477629}, {"type": "node", "id": 2631880345, "lat": 50.8452147, "lon": 4.3476327}, {"type": "node", "id": 2631880347, "lat": 50.8452155, "lon": 4.3476558}, {"type": "node", "id": 2631880348, "lat": 50.845218, "lon": 4.3475787}, {"type": "node", "id": 2631880350, "lat": 50.8452183, "lon": 4.3477095}, {"type": "node", "id": 2631880354, "lat": 50.8452217, "lon": 4.3477081}, {"type": "node", "id": 2631880357, "lat": 50.845224, "lon": 4.3477481}, {"type": "node", "id": 2640980965, "lat": 50.8585827, "lon": 4.3545714, "tags": {"amenity": "restaurant", "cuisine": "meat;fries;salad", "description": "Restaurant", "name": "Haythem"}}, {"type": "node", "id": 2640980978, "lat": 50.8587885, "lon": 4.3547067, "tags": {"amenity": "restaurant", "contact:phone": "+32 2 465 19 51", "contact:website": "http://sawad.be/", "cuisine": "indian", "name": "Sawad", "opening_hours": "Mo-Fr 11:30-14:30,18:00-22:00; Sa 12:00-14:00,18:00-22:00", "panoramax": "b584eeb6-8fda-47b8-9d8e-27ef203bc6ae", "payment:cards": "yes", "payment:cash": "yes", "takeaway": "yes"}}, {"type": "node", "id": 2640981003, "lat": 50.8587399, "lon": 4.3548783, "tags": {"amenity": "restaurant", "contact:email": "info@osolemiobrussels.be", "contact:phone": "+32 2 223 72 78", "contact:website": "https://osolemiobrussels.be/", "cuisine": "italian", "name": "O'Sole Mio", "opening_hours": "Mo-Fr 11:30-15:00,18:00-22:00; Sa 11:30-22:00"}}, {"type": "node", "id": 2640981051, "lat": 50.8592106, "lon": 4.35494, "tags": {"amenity": "restaurant", "contact:phone": "+32 2 203 61 00", "contact:website": "https://pastafactorybxl.be/", "cuisine": "italian;pasta", "name": "Pasta Factory", "opening_hours": "Mo-Fr 11:30-14:45", "outdoor_seating": "yes"}}, {"type": "node", "id": 2656942970, "lat": 50.8400229, "lon": 4.3680788, "tags": {"amenity": "restaurant", "cuisine": "asian", "name": "Be Bo Bun"}}, {"type": "node", "id": 2656942982, "lat": 50.839368, "lon": 4.3672461, "tags": {"amenity": "restaurant", "check_date:opening_hours": "2025-03-11", "contact:phone": "+32 2 513 47 81", "cuisine": "italian", "name": "Trattoria al dente", "opening_hours:signed": "no"}}, {"type": "node", "id": 2656943200, "lat": 50.8420705, "lon": 4.3686351, "tags": {"amenity": "restaurant", "contact:phone": "+32 2 511 00 98", "contact:website": "https://www.khunmaybrussels.com", "cuisine": "thai", "name": "Khun May", "opening_hours:signed": "no", "payment:cash": "yes", "payment:credit_cards": "no", "payment:debit_cards": "no", "wheelchair": "no"}}, {"type": "node", "id": 2659564164, "lat": 50.8376914, "lon": 4.3482543, "tags": {"amenity": "restaurant", "contact:email": "thejudgyvegan@gmail.com", "contact:facebook": "TheJudgyVeganCafe", "contact:instagram": "thejudgyvegan", "contact:phone": "+32 2 540 80 38", "contact:website": "https://www.thejudgyvegan.com/", "cuisine": "cake", "diet:vegan": "only", "indoor_seating": "yes", "name": "The Judgy Vegan", "opening_hours": "Th-Fr 17:30-22:30; Sa-Su 10:30-21:30", "outdoor_seating": "yes"}}, {"type": "node", "id": 2665165909, "lat": 50.8409482, "lon": 4.3514601, "tags": {"amenity": "restaurant", "check_date": "2025-05-01", "cuisine": "burger", "indoor_seating": "yes", "name": "Berlin Fabrik", "outdoor_seating": "yes"}}, {"type": "node", "id": 2665165935, "lat": 50.83828, "lon": 4.3509474, "tags": {"amenity": "restaurant", "check_date:opening_hours": "2025-07-29", "name": "Lazy Bear", "opening_hours:signed": "no"}}, {"type": "node", "id": 2665166019, "lat": 50.8418513, "lon": 4.3530968, "tags": {"amenity": "restaurant", "contact:website": "https://www.wantany.be", "indoor_seating": "yes", "name": "Wantany", "outdoor_seating": "yes", "takeaway": "yes"}}, {"type": "node", "id": 2665166124, "lat": 50.8420491, "lon": 4.3525188, "tags": {"addr:housenumber": "3", "addr:street": "Rue de Rollebeek - Rollebeekstraat", "entrance": "yes", "ref:UrbIS": "8185725"}}, {"type": "node", "id": 2665166157, "lat": 50.8404106, "lon": 4.3599575, "tags": {"amenity": "restaurant", "cuisine": "italian", "name": "Il passatempo vini & cucina", "short_name": "Il passatempo"}}, {"type": "node", "id": 2665166291, "lat": 50.8415191, "lon": 4.3536208, "tags": {"amenity": "restaurant", "indoor_seating": "yes", "name": "Caf\u00e9 Leffe", "outdoor_seating": "yes"}}, {"type": "node", "id": 2665166322, "lat": 50.8395093, "lon": 4.3534273, "tags": {"amenity": "restaurant", "indoor_seating": "yes", "name": "Orphyse Chaussette", "opening_hours": "Tu-Sa 12:00-14:30,19:00-22:30", "outdoor_seating": "yes"}}, {"type": "node", "id": 2665166332, "lat": 50.8420228, "lon": 4.3525933, "tags": {"addr:housenumber": "5", "addr:street": "Rue de Rollebeek - Rollebeekstraat", "entrance": "yes", "ref:UrbIS": "8182235"}}, {"type": "node", "id": 2665166340, "lat": 50.8398064, "lon": 4.3597914, "tags": {"amenity": "restaurant", "contact:phone": "+32 2 512 10 12", "contact:website": "https://lepetitpalais.be/", "cuisine": "belgian", "delivery": "yes", "internet_access": "wlan", "name": "Le Petit Palais", "outdoor_seating": "yes", "smoking": "outside"}}, {"type": "node", "id": 2665166486, "lat": 50.8391589, "lon": 4.3607994, "tags": {"amenity": "restaurant", "name": "\u00e0 l'Ombre de la Ville", "website": "https://alombredelaville.com/"}}, {"type": "node", "id": 2665166597, "lat": 50.8389335, "lon": 4.3608471, "tags": {"amenity": "restaurant", "contact:email": "reservations@restaurant-uma.com", "contact:facebook": "https://www.facebook.com/Umarestaurantbxl", "contact:instagram": "https://www.instagram.com/umarestaurant", "contact:phone": "+32 2 425 51 15", "contact:website": "https://www.uma-restaurant.com", "cuisine": "french;fine_dining", "diet:vegetarian": "yes", "name": "Um\u0101", "opening_hours": "Mo, Su off; Tu-Sa 12:00-14:00,19:00-22:00", "reservation": "yes"}}, {"type": "node", "id": 2665173979, "lat": 50.8419778, "lon": 4.352574}, {"type": "node", "id": 2665173992, "lat": 50.8420022, "lon": 4.352515}, {"type": "node", "id": 2665173999, "lat": 50.8420163, "lon": 4.3526153}, {"type": "node", "id": 2665174011, "lat": 50.8420303, "lon": 4.3524548}, {"type": "node", "id": 2665174013, "lat": 50.8420357, "lon": 4.3525501}, {"type": "node", "id": 2665174026, "lat": 50.8420625, "lon": 4.3524875}, {"type": "node", "id": 2698048065, "lat": 50.8469698, "lon": 4.3486896, "tags": {"amenity": "restaurant", "check_date": "2023-11-14", "contact:mobile": "+32 472 93 48 34", "contact:website": "https://www.chou-sando.be/", "cuisine": "japanese", "name": "Chou Sando", "opening_hours": "Tu-Fr 11:30-14:30,18:00-21:30; Sa 11:30-21:30; Mo 11:30-14:30", "wheelchair": "no"}}, {"type": "node", "id": 2698048950, "lat": 50.8471398, "lon": 4.3505465}, {"type": "node", "id": 2698048956, "lat": 50.8471574, "lon": 4.350489}, {"type": "node", "id": 2698048961, "lat": 50.8471713, "lon": 4.3504435}, {"type": "node", "id": 2698048971, "lat": 50.8471911, "lon": 4.3505831}, {"type": "node", "id": 2698048986, "lat": 50.8472126, "lon": 4.3505261}, {"type": "node", "id": 2698048997, "lat": 50.8472286, "lon": 4.3504832}, {"type": "node", "id": 2777306317, "lat": 50.8466911, "lon": 4.3487013, "tags": {"amenity": "restaurant", "check_date": "2023-11-14", "cuisine": "italian", "diet:vegan": "yes", "diet:vegetarian": "yes", "indoor_seating": "yes", "name": "Mirante", "outdoor_seating": "yes", "wheelchair": "limited"}}, {"type": "node", "id": 2824297378, "lat": 50.8458359, "lon": 4.3498269, "tags": {"amenity": "restaurant", "contact:email": "info@nuetnigenough.be", "contact:phone": "+32 2 513 78 84", "contact:website": "http://www.nuetnigenough.be/", "cuisine": "belgian", "name": "N\u00fcetnigenough"}}, {"type": "node", "id": 3000941409, "lat": 50.853293, "lon": 4.3535047, "tags": {"amenity": "restaurant", "cuisine": "thai", "name": "Tha\u00ef Bangkok"}}, {"type": "node", "id": 3000941410, "lat": 50.8464536, "lon": 4.3501766, "tags": {"amenity": "restaurant", "check_date": "2025-10-20", "cuisine": "thai;vietnamese", "name": "Ubon Thai Isan", "wheelchair": "no"}}, {"type": "node", "id": 3014393249, "lat": 50.8418701, "lon": 4.3530346, "tags": {"amenity": "restaurant", "cuisine": "italian", "indoor_seating": "yes", "name": "Sta senza pensieri", "opening_hours": "Mo-Th 12:00-15:00,18:00-23:00, Fr-Su 12:00-24:00", "outdoor_seating": "yes"}}, {"type": "node", "id": 3023196289, "lat": 50.8461631, "lon": 4.3495735, "tags": {"amenity": "restaurant", "check_date:opening_hours": "2025-10-20", "indoor_seating": "yes", "name": "Iyagi", "opening_hours:signed": "no", "outdoor_seating": "no"}}, {"type": "node", "id": 3083236694, "lat": 50.8367993, "lon": 4.3480667, "tags": {"amenity": "restaurant", "capacity": "55", "change:XLT-ZINN": "yes", "check_date:opening_hours": "2023-02-02", "contact:email": "info@leauchaude.be", "contact:facebook": "https://www.facebook.com/het.warm.water", "contact:mobile": "+32 493 37 81 64", "contact:website": "https://www.leauchaude.be/", "cuisine": "regional", "diet:vegan": "yes", "diet:vegetarian": "only", "name": "L'Eau Chaude - Het Warm Water", "name:fr": "L'Eau Chaude", "name:nl": "Het Warm Water", "opening_hours": "Tu-Su 11:00-16:00", "opening_hours:kitchen": "Tu-Su 12:00-15:00", "organic": "only", "outdoor_seating": "yes", "smoking": "outside", "takeaway": "no"}}, {"type": "node", "id": 3118681448, "lat": 50.8482736, "lon": 4.3546081, "tags": {"alt_name": "Den Ogenblik", "amenity": "restaurant", "contact:phone": "+32 2 511 61 51", "contact:website": "https://ogenblik.be", "cuisine": "regional", "name": "L'Ogenblik", "opening_hours": "Mo-Sa 12:00-14:30, 19:00-24:00;Su off", "outdoor_seating": "pedestrian_zone"}}, {"type": "node", "id": 3118681514, "lat": 50.8475018, "lon": 4.3529573, "tags": {"amenity": "restaurant", "contact:phone": "+32 2 502 81 00", "cuisine": "regional", "indoor_seating": "yes", "name": "Au coin gourmand", "opening_hours": "Mo-Su 09:00-23:00", "outdoor_seating": "pedestrian_zone", "toilets": "yes", "toilets:wheelchair": "no", "wheelchair": "limited"}}, {"type": "node", "id": 3118693293, "lat": 50.8475693, "lon": 4.3547135, "tags": {"amenity": "restaurant", "changing_table": "no", "changing_table:adult": "no", "contact:phone": "+32 2 512 37 31", "contact:website": "https://latavernedupassage.be/", "cuisine": "regional", "indoor_seating": "yes", "name": "Taverne du Passage", "opening_hours": "Mo off; Tu-Th 12:00-23:00; Fr-Sa 12:00-23:30; Su,PH 12:00-23:00", "outdoor_seating": "yes", "wheelchair:turning_circle": "no"}}, {"type": "node", "id": 3118694198, "lat": 50.8479893, "lon": 4.3550831, "tags": {"addr:housenumber": "6", "addr:street": "Galerie du Roi - Koningsgalerij", "entrance": "yes", "ref:UrbIS": "11018628"}}, {"type": "node", "id": 3118694222, "lat": 50.8472011, "lon": 4.3526735, "tags": {"addr:housenumber": "7", "addr:street": "Rue Chair et Pain - Vlees-en-Broodstraat", "entrance": "yes", "ref:UrbIS": "8181969"}}, {"type": "node", "id": 3118695665, "lat": 50.8471637, "lon": 4.3526352}, {"type": "node", "id": 3118695700, "lat": 50.8471936, "lon": 4.3526659}, {"type": "node", "id": 3118695716, "lat": 50.8472019, "lon": 4.352565}, {"type": "node", "id": 3118695853, "lat": 50.847227, "lon": 4.3526997}, {"type": "node", "id": 3118695855, "lat": 50.8472287, "lon": 4.3525975}, {"type": "node", "id": 3118695877, "lat": 50.8472545, "lon": 4.3525444}, {"type": "node", "id": 3118696029, "lat": 50.8472831, "lon": 4.35258}, {"type": "node", "id": 3118696031, "lat": 50.8472854, "lon": 4.3525828}, {"type": "node", "id": 3118698027, "lat": 50.8478492, "lon": 4.354794}, {"type": "node", "id": 3118698225, "lat": 50.8479753, "lon": 4.3547725}, {"type": "node", "id": 3118698226, "lat": 50.847926, "lon": 4.3548517}, {"type": "node", "id": 3118698679, "lat": 50.8480354, "lon": 4.3550201}, {"type": "node", "id": 3118699033, "lat": 50.8480732, "lon": 4.3548544}, {"type": "node", "id": 3118699065, "lat": 50.8480952, "lon": 4.3548728}, {"type": "node", "id": 3118699675, "lat": 50.8482825, "lon": 4.353442}, {"type": "node", "id": 3118699710, "lat": 50.8483128, "lon": 4.3534886}, {"type": "node", "id": 3118699726, "lat": 50.8483269, "lon": 4.353363}, {"type": "node", "id": 3118699829, "lat": 50.8483278, "lon": 4.3534638}, {"type": "node", "id": 3118699833, "lat": 50.8483318, "lon": 4.3534696}, {"type": "node", "id": 3118699862, "lat": 50.8483506, "lon": 4.3534967}, {"type": "node", "id": 3118699879, "lat": 50.8483633, "lon": 4.3534136}, {"type": "node", "id": 3118699900, "lat": 50.8483833, "lon": 4.3534418}, {"type": "node", "id": 3118701081, "lat": 50.8487981, "lon": 4.3539031}, {"type": "node", "id": 3118701091, "lat": 50.8487628, "lon": 4.353876}, {"type": "node", "id": 3118701105, "lat": 50.8488012, "lon": 4.3539055}, {"type": "node", "id": 3118701117, "lat": 50.848821, "lon": 4.3538636}, {"type": "node", "id": 3118701118, "lat": 50.848828, "lon": 4.3536775}, {"type": "node", "id": 3118701120, "lat": 50.8488328, "lon": 4.353827}, {"type": "node", "id": 3118701231, "lat": 50.8488508, "lon": 4.3538451}, {"type": "node", "id": 3118701233, "lat": 50.8488556, "lon": 4.3539046}, {"type": "node", "id": 3118701236, "lat": 50.8488719, "lon": 4.353867}, {"type": "node", "id": 3118701240, "lat": 50.8488763, "lon": 4.3539334}, {"type": "node", "id": 3118701246, "lat": 50.8488904, "lon": 4.3539107}, {"type": "node", "id": 3118701258, "lat": 50.8489157, "lon": 4.3538613}, {"type": "node", "id": 3118701261, "lat": 50.8489189, "lon": 4.353761}, {"type": "node", "id": 3118701266, "lat": 50.8489274, "lon": 4.3539561}, {"type": "node", "id": 3118701268, "lat": 50.8489397, "lon": 4.3539331}, {"type": "node", "id": 3118701272, "lat": 50.8489504, "lon": 4.3539131}, {"type": "node", "id": 3118701275, "lat": 50.8489535, "lon": 4.3537941}, {"type": "node", "id": 3118701315, "lat": 50.8490181, "lon": 4.3540128}, {"type": "node", "id": 3261814416, "lat": 50.8486506, "lon": 4.3478965, "tags": {"amenity": "restaurant", "contact:email": "info@spagobrussels.com", "contact:phone": "+32 2 512 25 30", "contact:website": "https://spagobrussels.be/", "cuisine": "italian", "internet_access": "wlan", "internet_access:access": "customers", "internet_access:fee": "no", "name": "Spago", "opening_hours": "Mo-Th 12:00-23:00, Fr,Sa 12:00-24:00, Su 12:00-23:00", "payment:cash": "yes", "payment:maestro": "yes", "payment:mastercard": "yes", "payment:visa": "yes", "wheelchair": "no"}}, {"type": "node", "id": 3285060190, "lat": 50.8455161, "lon": 4.3524292, "tags": {"amenity": "restaurant", "contact:email": "info@abrussel.be", "contact:mobile": "+32 486 96 84 60", "contact:phone": "+32 2 649 01 19", "contact:website": "http://www.abrussel.be/", "name": "ABrussel", "note": "The name is \"ABrussel\", this is not a typo (see their website), despite their logo might suggest another spelling", "opening_hours": "Mo 18:00-22:00; Tu-Sa 12:00-14:00,18:00-22:00; Su,PH off"}}, {"type": "node", "id": 3293024561, "lat": 50.845749, "lon": 4.346615, "tags": {"amenity": "restaurant", "contact:website": "http://www.kaki-kika.be", "cuisine": "french", "name": "KiKa", "outdoor_seating": "no"}}, {"type": "node", "id": 3321089465, "lat": 50.8245392, "lon": 4.3661905, "tags": {"amenity": "restaurant", "contact:website": "https://maisondistrie.be/", "cuisine": "mediterranean", "name": "Maison d'Istrie", "opening_hours": "Mo-Th 11:30-23:00; Fr 11:30-24:00; Sa 12:00-24:00", "outdoor_seating": "yes"}}, {"type": "node", "id": 3327016375, "lat": 50.8483028, "lon": 4.3543894, "tags": {"amenity": "restaurant", "contact:phone": "+32 2 511 26 07", "contact:website": "https://restaurantvincent.be", "cuisine": "regional", "name": "Vincent", "opening_hours": "Mo-Sa 12:00-14:45,18:30-23:30; Su off", "smoking": "no"}}, {"type": "node", "id": 3328716556, "lat": 50.8462541, "lon": 4.3489166, "tags": {"amenity": "restaurant", "check_date": "2023-11-14", "contact:email": "info@lelombard.eu", "contact:mobile": "+32 488 04 08 08", "contact:website": "https://www.lelombard.eu/", "cuisine": "regional", "indoor_seating": "yes", "internet_access": "wlan", "name": "Le Lombard", "outdoor_seating": "yes", "wheelchair": "no", "wikidata": "Q126014009", "wikimedia_commons": "Category:Le Lombard, Brussels"}}, {"type": "node", "id": 3382932808, "lat": 50.8466879, "lon": 4.3595318, "tags": {"amenity": "restaurant", "name": "Zouzou Brussels"}}, {"type": "node", "id": 3384141535, "lat": 50.8498889, "lon": 4.3479265, "tags": {"alt_name": "Amadeo", "amenity": "restaurant", "contact:mobile": "+32 495 16 77 53", "contact:website": "https://amadeus-resto.be/amadeus-brussel/", "cuisine": "regional", "indoor_seating": "yes", "name": "Amadeus", "opening_hours": "Mo-Th 18:30-23:00; Fr,Sa 18:00-24:00; Su 18:00-23:00", "outdoor_seating": "yes", "wheelchair": "no"}}, {"type": "node", "id": 3476202565, "lat": 50.8949151, "lon": 4.3689376, "tags": {"amenity": "restaurant", "contact:email": "hello@levillage-tearoom.be", "contact:facebook": "https://www.facebook.com/people/Le-Village-Tea-Room/100083284033225/", "contact:mobile": "+32 478 11 19 78;+32 484 56 38 36", "contact:website": "https://levillage-tearoom.be/", "name": "Le Village", "opening_hours": "18:00-24:00; Fr,Sa 18:00-02:00"}}, {"type": "node", "id": 3505027549, "lat": 50.8486556, "lon": 4.3507792, "tags": {"amenity": "restaurant", "contact:phone": "+32 2 502 00 61", "contact:website": "https://www.biamara.com/", "cuisine": "fish_and_chips", "diet:vegan": "no", "diet:vegetarian": "yes", "indoor_seating": "yes", "name": "Bia Mara", "opening_hours": "Mo-Th 12:00-14:00,18:00-21:30; Fr 12:00-14:00,18:00-22:00; Sa 12:00-22:00; Su 12:00-15:00,18:00-21:00", "outdoor_seating": "yes", "takeaway": "yes", "toilets:wheelchair": "no", "wheelchair": "yes"}}, {"type": "node", "id": 3514803687, "lat": 50.8463192, "lon": 4.3524059, "tags": {"amenity": "restaurant", "name": "La Maison du Cygne", "note": "Temporarily closed for works and renovation\u2014will reopen later in 2023", "opening_hours": "off", "website": "https://www.lamaisonducygne.com"}}, {"type": "node", "id": 3514803688, "lat": 50.8462181, "lon": 4.3526273, "tags": {"amenity": "restaurant", "check_date": "2025-12-31", "contact:phone": "+32 2 513 64 79", "contact:website": "https://www.restaurant-rose-blanche.be/", "indoor_seating": "yes", "name": "La Rose Blanche", "opening_hours": "Mo-Su 11:30-23:00", "outdoor_seating": "yes"}}, {"type": "node", "id": 3632161905, "lat": 50.8451324, "lon": 4.3531261, "tags": {"amenity": "restaurant", "contact:email": "info@albarmaki.be", "contact:phone": "+32 2 513 08 34", "contact:website": "https://www.albarmaki.be/", "cuisine": "lebanese", "name": "Al Barmaki", "opening_hours": "Mo-Sa 19:00-24:00", "start_date": "1976"}}, {"type": "node", "id": 3682459882, "lat": 50.8410547, "lon": 4.3553079, "tags": {"amenity": "restaurant", "cuisine": "regional", "indoor_seating": "yes", "name": "La Kartchma", "outdoor_seating": "sidewalk"}}, {"type": "node", "id": 3775682901, "lat": 50.84526, "lon": 4.3524644, "tags": {"amenity": "restaurant", "contact:phone": "+32 2 513 15 11", "contact:website": "https://restaurant-caspian.be", "cuisine": "persian", "diet:vegetarian": "yes", "name": "Caspian", "opening_hours": "Tu-Sa 12:00-14:30, 18:00-22:30; Su 18:00-22:30"}}, {"type": "node", "id": 3815915894, "lat": 50.8994174, "lon": 4.3602726, "tags": {"amenity": "restaurant", "name": "La Terrasse", "outdoor_seating": "yes"}}, {"type": "node", "id": 3863696750, "lat": 50.8496725, "lon": 4.366034, "tags": {"amenity": "restaurant", "contact:email": "basils.liberte.bruxelles@gmail.com", "contact:phone": "+32 2 648 85 33", "contact:website": "https://www.basilsliberte.com/", "cuisine": "italian", "name": "Basils Libert\u00e9", "opening_hours": "Mo, Sa 18:30-22:30; Tu-Fr 12:00-14:00, 18:30-22:30"}}, {"type": "node", "id": 3863696753, "lat": 50.8481181, "lon": 4.363584, "tags": {"amenity": "restaurant", "check_date": "2024-04-22", "fixme": "Not sure about the name, Latos Latino is the name written on the permit displayed on the shop window", "name": "Yuca Latina"}}, {"type": "node", "id": 3863699459, "lat": 50.8485277, "lon": 4.3647108, "tags": {"amenity": "restaurant", "contact:phone": "+32 2 219 54 45", "contact:website": "https://www.menthesafran.be/", "cuisine": "moroccan", "name": "Menthe & Safran", "opening_hours": "Mo-Fr 12:00-14:00,18:00-22:00; Sa 18:00-22:00; Su,PH off"}}, {"type": "node", "id": 3863699460, "lat": 50.8483621, "lon": 4.3640038, "tags": {"amenity": "restaurant", "contact:phone": "+32 2 315 24 17", "cuisine": "sushi;ramen", "diet:vegetarian": "yes", "name": "Sapporo-Shi", "opening_hours": "Mo-Fr 12:00-14:30,18:00-22:00; Sa,Su,PH 18:00-22:00"}}, {"type": "node", "id": 3863699462, "lat": 50.8486744, "lon": 4.3645411, "tags": {"amenity": "restaurant", "name": "Oda Kitchen", "opening_hours": "Mo-Sa 12:00-14:00,18:00-23:00"}}, {"type": "node", "id": 3863699466, "lat": 50.8490026, "lon": 4.3655284, "tags": {"amenity": "restaurant", "contact:fax": "+32 2 217 34 19", "contact:phone": "+32 2 217 34 19", "cuisine": "italian", "name": "Al Solito Posto", "shop": "vacant", "takeaway": "yes"}}, {"type": "node", "id": 3863699467, "lat": 50.8516942, "lon": 4.3651359, "tags": {"amenity": "restaurant", "check_date:opening_hours": "2021-08-30", "cuisine": "vietnamese", "name": "Parfum d'Asie", "opening_hours": "Mo-Sa 12:00-17:00"}}, {"type": "node", "id": 3863699470, "lat": 50.8521033, "lon": 4.3653496, "tags": {"amenity": "restaurant", "cuisine": "italian", "name": "Villa Romana", "opening_hours": "Mo-Su,PH 11:00-23:00", "takeaway": "yes", "wheelchair": "no"}}, {"type": "node", "id": 3863737378, "lat": 50.8479968, "lon": 4.3637945, "tags": {"amenity": "restaurant", "contact:mobile": "+32 496 91 29 71", "contact:website": "https://beatrestaurants.be/", "cuisine": "belgian", "entrance:kerb:height": "0.2", "entrance:step_count": "2", "entrance:width": "1.22", "indoor_seating": "yes", "name": "Beat", "opening_hours": "11:00-01:00", "outdoor_seating": "yes", "wheelchair": "no"}}, {"type": "node", "id": 3863812078, "lat": 50.8505351, "lon": 4.3680484, "tags": {"amenity": "restaurant", "contact:website": "https://www.gus-brussels.be/", "cuisine": "italian", "name": "Brassonomie Gus", "opening_hours": "Mo off; Tu,Th,Fr 12:00-13:30; We 12:00-13:30,19:00-21:30; Sa, Su off", "short_name": "Gus", "wheelchair": "no"}}, {"type": "node", "id": 3873641340, "lat": 50.8518962, "lon": 4.365742, "tags": {"amenity": "restaurant", "contact:mobile": "+32 483 51 08 23", "cuisine": "african", "name": "Chari Vari", "opening_hours": "Mo-Fr 00:00-02:00,11:30-23:59; Sa-Su 00:00-02:00,14:00-23:59"}}, {"type": "node", "id": 3873671159, "lat": 50.8488511, "lon": 4.3653101, "tags": {"amenity": "restaurant", "contact:facebook": "https://www.facebook.com/Chandigarh.Brussels/", "contact:instagram": "https://www.instagram.com/chandigarh_brussels/", "contact:phone": "+32 2 308 30 05", "contact:website": "https://www.chandigarh.be", "cuisine": "indian", "diet:vegan": "yes", "diet:vegetarian": "only", "facility:ayurveda": "yes", "name": "Chandigarh", "note": "they cook according to ayurvedic principles. If you find a better way to tag this, please modify", "opening_hours": "Mo,Tu off; We-Fr 18:30-22:30; Sa 11:00-14:30,18:30-22:30; Su 11:00-15:00", "outdoor_seating": "yes"}}, {"type": "node", "id": 3873685249, "lat": 50.8485695, "lon": 4.364783, "tags": {"amenity": "restaurant", "contact:facebook": "https://www.facebook.com/Barakat.Kacem.Restaurant", "contact:mobile": "+32 489 18 60 81", "contact:phone": "+32 2 830 43 18", "cuisine": "italian", "diet:halal": "yes", "diet:vegetarian": "yes", "name": "Baraka't"}}, {"type": "node", "id": 3874925140, "lat": 50.8490085, "lon": 4.3651381, "tags": {"amenity": "restaurant", "check_date": "2024-04-22", "check_date:opening_hours": "2024-04-22", "name": "Bar Brussels Tapas", "opening_hours:signed": "no"}}, {"type": "node", "id": 3874925141, "lat": 50.8490385, "lon": 4.3651954, "tags": {"amenity": "restaurant", "check_date": "2023-06-30", "check_date:opening_hours": "2024-04-22", "cuisine": "regional", "name": "Brussels Stoemp", "opening_hours:signed": "no"}}, {"type": "node", "id": 3874947573, "lat": 50.8481849, "lon": 4.3641192, "tags": {"air_conditioning": "yes", "amenity": "restaurant", "contact:facebook": "https://www.facebook.com/IndianRestaurantBrussels/", "contact:mobile": "+32 498 53 65 64", "contact:website": "https://shahitandor.be/", "cuisine": "indian", "delivery": "yes", "diet:vegan": "yes", "diet:vegetarian": "yes", "name": "Shahi Tandor", "opening_hours": "Mo-Fr 12:00-14:30, 18:00-22:30; Sa-Su 18:00-22:30", "outdoor_seating": "yes", "reservation": "yes", "takeaway": "yes"}}, {"type": "node", "id": 3918196703, "lat": 50.8462309, "lon": 4.3529062, "tags": {"amenity": "restaurant", "contact:email": "info@caveduroy.com", "contact:fax": "+32 2 732 63 75", "contact:phone": "+32 2 502 14 11", "contact:website": "http://www.caveduroy.com/", "cuisine": "belgian;mussels", "indoor_seating": "yes", "name": "Cave du Roy", "outdoor_seating": "no", "wheelchair": "no"}}, {"type": "node", "id": 3984753218, "lat": 50.8334979, "lon": 4.3452329, "tags": {"amenity": "restaurant", "contact:phone": "+32 2 539 44 54", "contact:website": "https://le-bistro.be/", "cuisine": "regional", "name": "Le Bistro", "outdoor_seating": "yes"}}, {"type": "node", "id": 3991415854, "lat": 50.8397104, "lon": 4.3680492, "tags": {"amenity": "restaurant", "contact:phone": "+32 2 506 91 11", "contact:website": "https://www.thonhotels.com/fr/hotels/belgique/bruxelles/stanhope-hotel/brighton-restaurant/", "name": "Brighton Restaurant", "opening_hours": "Mo-Fr 07:00-10:00, 12:00-14:00, 19:00-22:00; Sa, Su 07:30-12:00", "outdoor_seating": "yes"}}, {"type": "node", "id": 4069920584, "lat": 50.8532196, "lon": 4.3513785, "tags": {"amenity": "restaurant", "contact:mobile": "+32 470 040 933", "contact:website": "https://habesha-restaurant.be/", "cuisine": "ethiopian", "diet:vegetarian": "yes", "name": "Habesha", "opening_hours": "Tu-Fr 18:00-23:00; Sa-Su 12:00-23:00"}}, {"type": "node", "id": 4117650193, "lat": 50.8440386, "lon": 4.3850059, "tags": {"amenity": "restaurant", "cuisine": "italian", "name": "Costa d'Amalfi", "opening_hours": "Mo-Fr 12:00-14:30,18:30-21:30; Sa 19:00-22:00"}}, {"type": "node", "id": 4119705289, "lat": 50.8442457, "lon": 4.3451125, "tags": {"amenity": "restaurant", "name": "Tataki", "shop": "vacant"}}, {"type": "node", "id": 4148858472, "lat": 50.8645468, "lon": 4.3523858, "tags": {"amenity": "restaurant", "contact:email": "info@boma-restaurant.be", "contact:facebook": "https://www.facebook.com/restaurantboma", "contact:mobile": "+32 494 54 00 00", "contact:website": "https://boma-restaurant.be/", "diet:halal": "yes", "name": "Boma", "opening_hours": "18:00-24:00", "outdoor_seating": "yes"}}, {"type": "node", "id": 4154776793, "lat": 50.8461234, "lon": 4.3478062, "tags": {"amenity": "restaurant", "check_date:opening_hours": "2025-05-22", "contact:website": "https://ginette-au-secours.business.site/", "entrance:kerb:height": "0", "entrance:step_count": "0", "entrance:width": "1", "name": "Ginette au Secours", "opening_hours:signed": "no", "wheelchair:turning_circle": "yes"}}, {"type": "node", "id": 4200114214, "lat": 50.8530352, "lon": 4.3459621, "tags": {"amenity": "restaurant", "contact:email": "info@strofilia.be", "contact:phone": "+32 2 512 32 93", "contact:website": "https://www.strofilia.brussels", "cuisine": "greek", "name": "Strofilia", "opening_hours": "Mo-Fr 12:00-14:30,19:00-23:00;Sa 19:00-23:00; Su off"}}, {"type": "node", "id": 4245869257, "lat": 50.8451997, "lon": 4.389885, "tags": {"amenity": "restaurant", "diet:vegetarian": "yes", "name": "Punjabi Village"}}, {"type": "node", "id": 4262247203, "lat": 50.8394933, "lon": 4.3717484, "tags": {"amenity": "restaurant", "contact:website": "https://pokehouse.be", "cuisine": "hawaiian", "entrance:kerb:height": "0.11", "entrance:step_count": "1", "entrance:width": "0.92", "name": "Pok\u00e9 House", "takeaway": "yes", "toilets:access": "customers"}}, {"type": "node", "id": 4262247205, "lat": 50.8394642, "lon": 4.3718878, "tags": {"amenity": "restaurant", "cuisine": "mediterranean", "indoor_seating": "yes", "name": "Tourane", "outdoor_seating": "yes"}}, {"type": "node", "id": 4262247206, "lat": 50.8394781, "lon": 4.3718212, "tags": {"amenity": "restaurant", "contact:phone": "+32 2 230 01 18", "contact:website": "https://restoportofino.be/", "cuisine": "italian", "entrance:kerb:height": "0.27", "entrance:step_count": "1", "entrance:width": "2", "indoor_seating": "yes", "name": "Porto Fino", "opening_hours": "Mo-Su 12:00-15:00,18:00-23:00", "outdoor_seating": "yes", "ramp:wheelchair": "yes", "toilets:access": "customers"}}, {"type": "node", "id": 4268177828, "lat": 50.8408162, "lon": 4.3730384, "tags": {"amenity": "restaurant", "name": "'t Lunch"}}, {"type": "node", "id": 4268177832, "lat": 50.8408538, "lon": 4.3730664, "tags": {"amenity": "restaurant", "contact:phone": "+32 2 230 47 47", "contact:website": "https://www.latableresto.be/", "description": "Restaurant - Sandwicherie", "name": "La Table", "opening_hours": "Mo-Fr 07:00-15:00", "wheelchair": "limited"}}, {"type": "node", "id": 4268177833, "lat": 50.840968, "lon": 4.3731195, "tags": {"amenity": "restaurant", "cuisine": "african", "entrance:kerb:height": "0.13", "entrance:step_count": "1", "entrance:width": "0.92", "name": "Africalicious", "toilets:access": "customers", "wheelchair:turning_circle": "yes"}}, {"type": "node", "id": 4268301803, "lat": 50.8407419, "lon": 4.36889, "tags": {"amenity": "restaurant", "name": "ASAP", "outdoor_seating": "sidewalk"}}, {"type": "node", "id": 4268301806, "lat": 50.8415868, "lon": 4.3707648, "tags": {"amenity": "restaurant", "contact:phone": "+32 2 230 81 88", "contact:website": "https://www.gustocultura.be/restaurant-italien/osteria-pizzeria/carina", "cuisine": "italian", "name": "Paninoteca Tavola Calda Carina", "opening_hours": "Mo-Fr 10:00-14:30", "wheelchair": "limited"}}, {"type": "node", "id": 4280560894, "lat": 50.8421317, "lon": 4.3428344, "tags": {"amenity": "restaurant", "name": "Jauhara"}}, {"type": "node", "id": 4299290516, "lat": 50.8522877, "lon": 4.3546167, "tags": {"amenity": "restaurant", "cuisine": "burger", "name": "Buffalo"}}, {"type": "node", "id": 4318137507, "lat": 50.8484951, "lon": 4.353492, "tags": {"amenity": "restaurant", "check_date": "2024-05-11", "contact:website": "https://cafegeorgette.be", "cuisine": "regional", "internet_access": "wlan", "internet_access:fee": "no", "name": "Caf\u00e9 Georgette", "reservation": "recommended", "smoking": "no", "takeaway": "no", "toilets": "yes"}}, {"type": "node", "id": 4318137514, "lat": 50.8488894, "lon": 4.3537709, "tags": {"amenity": "restaurant", "contact:phone": "+32 2 307 62 49", "contact:website": "https://ilgastronomico.be/", "cuisine": "italian", "name": "Il Gastronomico", "opening_hours": "Tu-Fr 12:00-14:00,19:00-22:00; Sa 19:00-22:00"}}, {"type": "node", "id": 4318137517, "lat": 50.8481456, "lon": 4.3525164, "tags": {"amenity": "restaurant", "contact:phone": "+32 2 808 25 20", "contact:website": "https://www.chez-kimchi.be/", "cuisine": "korean", "name": "Chez Kimchi"}}, {"type": "node", "id": 4318137519, "lat": 50.848185, "lon": 4.3528311, "tags": {"amenity": "restaurant", "cuisine": "african;fusion", "indoor_seating": "yes", "name": "Christo", "outdoor_seating": "pedestrian_zone"}}, {"type": "node", "id": 4318137522, "lat": 50.8482344, "lon": 4.3530195, "tags": {"amenity": "restaurant", "cuisine": "steak_house", "indoor_seating": "yes", "name": "House of Ribs 'n' Grill", "outdoor_seating": "pedestrian_zone"}}, {"type": "node", "id": 4318137530, "lat": 50.8483176, "lon": 4.3531942, "tags": {"amenity": "restaurant", "cuisine": "thai", "indoor_seating": "yes", "name": "Lotus vert", "outdoor_seating": "yes"}}, {"type": "node", "id": 4318137531, "lat": 50.8483452, "lon": 4.3532479, "tags": {"amenity": "restaurant", "check_date:opening_hours": "2022-09-04", "cuisine": "pizza", "indoor_seating": "yes", "name": "L\u2019Italiano", "opening_hours:signed": "no", "outdoor_seating": "yes"}}, {"type": "node", "id": 4318137537, "lat": 50.8485954, "lon": 4.3533377, "tags": {"amenity": "restaurant", "check_date:opening_hours": "2023-09-10", "cuisine": "asian", "indoor_seating": "yes", "name": "Wok Up", "opening_hours": "Mo-Su,PH 12:00-23:00", "outdoor_seating": "yes"}}, {"type": "node", "id": 4318617563, "lat": 50.8508153, "lon": 4.3475133, "tags": {"alt_name": "Ellis Gourmet Burger", "amenity": "restaurant", "contact:phone": "+32 2 514 23 14", "contact:website": "https://ellis.be/fr-be/", "cuisine": "burger", "diet:gluten_free": "yes", "diet:vegan": "yes", "diet:vegetarian": "yes", "internet_access": "wlan", "internet_access:fee": "no", "name": "Ellis Burger", "opening_hours": "Su-Th 11:30-22:00; Fr-Sa 11:30-22:30", "smoking": "outside", "takeaway": "yes", "wheelchair": "limited"}}, {"type": "node", "id": 4318622689, "lat": 50.8511827, "lon": 4.3490999, "tags": {"amenity": "restaurant", "check_date": "2025-06-26", "contact:phone": "+32 2 217 90 12", "contact:website": "https://www.pampas.be/pampas-rodizio-brussels-catherine-en", "cuisine": "brazilian", "diet:vegan": "no", "diet:vegetarian": "yes", "name": "Pampas Rodizio", "opening_hours": "Mo-Fr 18:00-22:30; Sa 17:30-22:30; Su 12:00-14:30,18:00-22:30"}}, {"type": "node", "id": 4323046262, "lat": 50.8485295, "lon": 4.3510027, "tags": {"alt_name": "peck 47", "amenity": "restaurant", "contact:facebook": "WoodpeckerFamilyBxl", "contact:phone": "+32 2 513 02 87", "cuisine": "sandwich", "diet:vegan": "yes", "diet:vegetarian": "yes", "indoor_seating": "yes", "name": "Woodpecker 47", "opening_hours": "Mo-Sa 09:00-22:00; Su 09:00-21:00", "opening_hours:signed": "no", "outdoor_seating": "yes", "toilets:wheelchair": "no", "website": "https://woodpecker.family/menu-wp47/", "wheelchair": "yes"}}, {"type": "node", "id": 4329701312, "lat": 50.8455437, "lon": 4.3776006, "tags": {"amenity": "restaurant", "contact:website": "https://www.greekit.be", "cuisine": "greek", "entrance:kerb:height": "0.3", "entrance:step_count": "2", "entrance:width": "0.7", "name": "Greekit", "opening_hours": "Mo-Fr 12:00-15:00,18:00-22:00; Sa-Su off", "toilets:wheelchair": "no", "wheelchair:turning_circle": "yes"}}, {"type": "node", "id": 4329813170, "lat": 50.8508308, "lon": 4.3475865, "tags": {"amenity": "restaurant", "contact:mobile": "+32 485727327", "contact:website": "https://www.beersgardenbrussels.com/home-en/", "cuisine": "french;local", "name": "The Beer's Garden", "opening_hours": "Mo-Su 11:00-23:30", "self_service": "no", "website:menu": "https://www.beersgardenbrussels.com/home-en/#carte", "wheelchair": "limited"}}, {"type": "node", "id": 4329813171, "lat": 50.8508596, "lon": 4.3477266, "tags": {"amenity": "restaurant", "contact:email": "psc@mammaroma.be", "contact:phone": "+32 2 644 93 33", "contact:website": "https://mammaroma.be/mamma-roma-sainte-catherine-le-nouveau-place-to-eat-de-la-capitale/", "cuisine": "pizza", "name": "Mamma Roma", "opening_hours": "Mo-Th,Su 12:00-22:00; Fr-Sa 12:00-23:00", "outdoor_seating": "yes", "wheelchair": "no"}}, {"type": "node", "id": 4329817770, "lat": 50.850926, "lon": 4.3479298, "tags": {"amenity": "restaurant", "contact:phone": "+32 2 512 97 59", "contact:website": "https://www.labellemaraichere.com/", "cuisine": "seasonal", "fixme": "survey neded for more specific opening hours", "name": "La Belle Mara\u00eech\u00e8re", "opening_hours": "We-Th off", "wheelchair": "no"}}, {"type": "node", "id": 4330861548, "lat": 50.8502459, "lon": 4.3490075, "tags": {"amenity": "restaurant", "contact:phone": "+32 2 770 62 78", "cuisine": "vietnamese", "name": "Pho 18", "opening_hours": "Mo,Tu,Th-Sa 12:00-14:10,18:30-21:15; We 18:30-21:15"}}, {"type": "node", "id": 4333132436, "lat": 50.8492065, "lon": 4.3517933, "tags": {"amenity": "restaurant", "check_date:opening_hours": "2025-10-27", "name": "Ciao Italia", "opening_hours:signed": "no", "panoramax": "94b13bcd-6795-42bb-8202-e67f9c5b4280", "panoramax:0": "c50c397e-39c4-48a5-afd8-dbe9929cb385"}}, {"type": "node", "id": 4333132440, "lat": 50.8494399, "lon": 4.3513178, "tags": {"amenity": "restaurant", "check_date:opening_hours": "2025-10-27", "cuisine": "chinese", "name": "Auntie Caf\u00e9", "opening_hours": "Mo-We,Fr-Su 12:00-22:00"}}, {"type": "node", "id": 4342814706, "lat": 50.8482992, "lon": 4.3643164, "tags": {"amenity": "restaurant", "brewery": "various", "contact:mobile": "+32 488 94 23 69", "cuisine": "pasta;roman", "diet:vegan": "no", "diet:vegetarian": "no", "name": "La Tana", "opening_hours": "Mo-Sa 12:00-21:00"}}, {"type": "node", "id": 4352415603, "lat": 50.8477543, "lon": 4.3518272, "tags": {"amenity": "restaurant", "contact:phone": "+32 2 515 05 45", "name": "La Capannina"}}, {"type": "node", "id": 4352415604, "lat": 50.8477138, "lon": 4.3517792, "tags": {"amenity": "restaurant", "bar": "no", "brewery": "various", "check_date": "2025-04-24", "contact:phone": "+32 2 540 22 40", "contact:website": "https://www.nompowrestaurant.com/", "cuisine": "asian", "diet:gluten_free": "yes", "diet:vegan": "yes", "diet:vegetarian": "yes", "indoor_seating": "yes", "level": "0", "name": "Nom Pow", "opening_hours": "Mo-Fr 12:00-22:00; Sa-Su 12:00-21:00", "outdoor_seating": "yes", "payment:cards": "no", "payment:cash": "yes", "payment:credit_cards": "no", "payment:debit_cards": "no", "takeaway": "yes", "toilets": "yes", "wheelchair": "limited"}}, {"type": "node", "id": 4352436897, "lat": 50.8459173, "lon": 4.3485094, "tags": {"amenity": "restaurant", "check_date": "2025-08-18", "contact:phone": "+32 2 502 00 76", "contact:website": "http://www.mammam.be/", "cuisine": "thai", "indoor_seating": "yes", "name": "Mam Mam", "opening_hours": "Mo-Sa 12:00-15:00, 18:00-23:00; Su 18:00-23:00", "outdoor_seating": "yes"}}, {"type": "node", "id": 4357795295, "lat": 50.8502047, "lon": 4.3492245, "tags": {"amenity": "restaurant", "contact:phone": "+32 2 514 36 88", "cuisine": "chinese", "name": "Beijingya", "opening_hours": "Mo-We 11:30-22:00; Th off; Fr-Su 11:30-22:00"}}, {"type": "node", "id": 4361625524, "lat": 50.8481427, "lon": 4.3511151, "tags": {"amenity": "restaurant", "check_date": "2025-11-02", "check_date:opening_hours": "2025-11-02", "cuisine": "waffle", "indoor_seating": "yes", "name": "Belgian Waffles", "opening_hours:signed": "no", "outdoor_seating": "pedestrian_zone"}}, {"type": "node", "id": 4361625526, "lat": 50.8482349, "lon": 4.3508924, "tags": {"amenity": "restaurant", "check_date": "2025-11-02", "check_date:opening_hours": "2025-11-02", "cuisine": "pizza", "name": "Valenza", "opening_hours:signed": "no"}}, {"type": "node", "id": 4361625529, "lat": 50.8484312, "lon": 4.3504184, "tags": {"amenity": "restaurant", "check_date:opening_hours": "2025-11-02", "description": "Grill room, scampi, pasta\u2026", "name": "Le Nil", "opening_hours:signed": "no"}}, {"type": "node", "id": 4361625530, "lat": 50.8484623, "lon": 4.3503433, "tags": {"amenity": "restaurant", "check_date:opening_hours": "2025-11-02", "name": "Al.Karam", "opening_hours:signed": "no"}}, {"type": "node", "id": 4370027740, "lat": 50.8508856, "lon": 4.3500541, "tags": {"amenity": "restaurant", "contact:phone": "+32 2 505 50 50", "name": "Foodsquare", "operator": "Accors Hotel"}}, {"type": "node", "id": 4370027741, "lat": 50.8511595, "lon": 4.3501479, "tags": {"amenity": "restaurant", "contact:email": "vismet@hotmail.com", "contact:phone": "+32 2 218 85 45", "contact:website": "https://levismet.be/", "cuisine": "seafood", "entrance:kerb:height": "0", "entrance:step_count": "0", "name": "Vismet", "opening_hours": "Mo off; Tu-Sa 12:00-14:00,19:00-22:00; Su off", "operator": "Tom Decroos", "toilets:wheelchair": "yes", "toilets:wheelchair:accessible_via": "ground floor", "wheelchair": "limited", "wheelchair:turning_circle": "yes"}}, {"type": "node", "id": 4370027742, "lat": 50.8511383, "lon": 4.3503053, "tags": {"amenity": "restaurant", "contact:phone": "+32 2 218 62 83", "cuisine": "regional", "name": "Resto 26", "opening_hours": "Mo-Sa 12:00-15:00,18:00-23:00; Su 18:00-23:00", "smoking": "separated", "wheelchair": "yes"}}, {"type": "node", "id": 4388784730, "lat": 50.8172663, "lon": 4.372183, "tags": {"amenity": "restaurant", "check_date:opening_hours": "2024-02-14", "cuisine": "french", "name": "La Villa in the Sky", "opening_hours:signed": "no"}}, {"type": "node", "id": 4388793401, "lat": 50.8431008, "lon": 4.3464106, "tags": {"amenity": "restaurant", "contact:mobile": "+32 455 10 47 34", "name": "Lise", "opening_hours": "Tu,Sa 19:00-22:00; We-Sa 12:00-14:00,19:00-22:00"}}, {"type": "node", "id": 4394618973, "lat": 50.8397421, "lon": 4.3939474, "tags": {"amenity": "restaurant", "check_date:opening_hours": "2025-10-30", "contact:email": "info@bagnole-brasserie.be", "contact:mobile": "+32 477 56 35 35", "contact:website": "https://bagnole-brasserie.be/", "name": "Bagnole Brasserie", "opening_hours": "Mo-Su 11:00-17:00", "wheelchair": "yes"}}, {"type": "node", "id": 4394827131, "lat": 50.8475364, "lon": 4.3503204, "tags": {"amenity": "restaurant", "check_date": "2025-06-26", "contact:email": "info@manhattns.com", "contact:facebook": "https://www.facebook.com/ManhattnsBurgers", "contact:instagram": "https://www.instagram.com/manhattns.burgers", "contact:website": "https://www.manhattns.com/location/boursebeurs", "cuisine": "burger", "description": "Flamme grilled burgers", "diet:vegetarian": "yes", "indoor_seating": "yes", "internet_access": "wlan", "internet_access:fee": "customers", "name": "Manhattn\u2019s Burgers", "opening_hours": "Mo-Su 11:30-22:30", "outdoor_seating": "yes", "payment:cash": "yes", "payment:mastercard": "yes", "payment:visa": "yes", "reservation": "no", "takeaway": "yes", "wheelchair": "no"}}, {"type": "node", "id": 4411440789, "lat": 50.8457351, "lon": 4.3530154, "tags": {"amenity": "restaurant", "cuisine": "asian", "name": "Xuji Oden"}}, {"type": "node", "id": 4413210229, "lat": 50.8476324, "lon": 4.3552231, "tags": {"amenity": "restaurant", "contact:phone": "+32 2 502 78 76", "cuisine": "chinese", "indoor_seating": "yes", "name": "La Chine", "opening_hours": "Mo-Fr 11:30-14:30", "outdoor_seating": "no"}}, {"type": "node", "id": 4413284005, "lat": 50.8480264, "lon": 4.3540605, "tags": {"amenity": "restaurant", "cuisine": "regional", "name": "Le Bourgeois"}}, {"type": "node", "id": 4413284009, "lat": 50.8478959, "lon": 4.3538481, "tags": {"amenity": "restaurant", "name": "Le Petit Bedon"}}, {"type": "node", "id": 4413284010, "lat": 50.8477347, "lon": 4.3548385, "tags": {"air_conditioning": "yes", "amenity": "restaurant", "brewery": "yes", "changing_table": "no", "changing_table:adult": "no", "check_date": "2025-04-18", "contact:phone": "+32 2 511 79 10", "contact:website": "https://lemarmiton.be/", "cuisine": "regional", "level": "0", "name": "Le Marmiton", "opening_hours": "Mo-Fr 12:00-15:00, 18:00-23:30; Sa-Su 12:00-23:30", "outdoor_seating": "yes", "payment:cash": "yes", "payment:mastercard": "yes", "payment:visa": "yes", "reservation": "yes", "smoking": "outside", "wheelchair": "limited", "wheelchair:turning_circle": "no"}}, {"type": "node", "id": 4413284011, "lat": 50.8479375, "lon": 4.3539288, "tags": {"amenity": "restaurant", "name": "Le Calalou"}}, {"type": "node", "id": 4413284013, "lat": 50.847978, "lon": 4.3539838, "tags": {"amenity": "restaurant", "check_date:opening_hours": "2023-04-01", "name": "Richard", "opening_hours:signed": "no"}}, {"type": "node", "id": 4413284014, "lat": 50.84783, "lon": 4.3544784, "tags": {"amenity": "restaurant", "cuisine": "seafood", "name": "Le Vieux Bruxelles"}}, {"type": "node", "id": 4413284015, "lat": 50.847828, "lon": 4.3537387, "tags": {"amenity": "restaurant", "name": "Royal Safir"}}, {"type": "node", "id": 4413284016, "lat": 50.8478741, "lon": 4.354354, "tags": {"amenity": "restaurant", "cuisine": "fish", "name:signed": "no"}}, {"type": "node", "id": 4413284023, "lat": 50.847952, "lon": 4.3542039, "tags": {"amenity": "restaurant", "cuisine": "regional", "name": "Le compositeur"}}, {"type": "node", "id": 4413284025, "lat": 50.8479919, "lon": 4.3541271, "tags": {"amenity": "restaurant", "cuisine": "regional", "name": "Jeanneke"}}, {"type": "node", "id": 4413342786, "lat": 50.8476663, "lon": 4.3527284, "tags": {"amenity": "restaurant", "check_date:opening_hours": "2023-04-01", "indoor_seating": "yes", "name": "Eight & Three", "opening_hours:signed": "no", "outdoor_seating": "sidewalk", "wheelchair": "no"}}, {"type": "node", "id": 4413342803, "lat": 50.847545, "lon": 4.3528971, "tags": {"amenity": "restaurant", "cuisine": "pizza", "name": "Napoli", "opening_hours": "Mo-Su,PH 11:30-23:00"}}, {"type": "node", "id": 4413342804, "lat": 50.847927, "lon": 4.3536074, "tags": {"amenity": "restaurant", "name": "La Belg'\u00c9poque"}}, {"type": "node", "id": 4413365657, "lat": 50.8481497, "lon": 4.3628372, "tags": {"amenity": "restaurant", "changing_table": "no", "changing_table:adult": "no", "cuisine": "regional", "diet:vegetarian": "yes", "indoor_seating": "yes", "level": "0", "name": "Brasserie de la Presse", "opening_hours": "Mo-Fr 12:00-22:00", "outdoor_seating": "no", "toilets:wheelchair": "yes", "toilets:wheelchair:accessible_via": "GROUND_FLOOR", "toilets:wheelchair:grab_rails": "no", "wheelchair": "yes", "wheelchair:turning_circle": "no"}}, {"type": "node", "id": 4413385316, "lat": 50.8487477, "lon": 4.3527166, "tags": {"amenity": "restaurant", "cuisine": "international", "description": "Meat, pizza, seafood, pasta and more", "name": "Les M\u00e9moires de Gretry"}}, {"type": "node", "id": 4413385325, "lat": 50.8485636, "lon": 4.3530543, "tags": {"amenity": "restaurant", "check_date:opening_hours": "2024-04-29", "cuisine": "pizza", "name": "La Luna di Venezia", "opening_hours:signed": "no"}}, {"type": "node", "id": 4413385346, "lat": 50.8485977, "lon": 4.3529917, "tags": {"amenity": "restaurant", "check_date:opening_hours": "2024-04-29", "cuisine": "italian", "name": "Sole d'Italia", "opening_hours:signed": "no", "wheelchair": "limited"}}, {"type": "node", "id": 4413669627, "lat": 50.8475968, "lon": 4.3566373, "tags": {"amenity": "restaurant", "check_date": "2024-04-16", "indoor_seating": "yes", "name": "L'arte della Pizza", "outdoor_seating": "yes"}}, {"type": "node", "id": 4413734368, "lat": 50.8462578, "lon": 4.3529695, "tags": {"amenity": "restaurant", "contact:phone": "+32 2 513 73 44", "contact:website": "https://www.restaurant-het-kelderke.be", "cuisine": "regional", "name": "'T Kelderke", "opening_hours": "Su-Th 12:00-23:00; Fr,Sa 12:00-00:00", "wheelchair": "no"}}, {"type": "node", "id": 4413803702, "lat": 50.8471747, "lon": 4.3524112, "tags": {"amenity": "restaurant", "changing_table": "no", "check_date": "2024-01-04", "cuisine": "greek", "entrance:kerb:height": "0", "entrance:ramp": "no", "entrance:step_count": "0", "entrance:width": "0.81", "name": "El Greco", "opening_hours": "Tu-Su 11:30-23:30", "toilets:wheelchair": "no", "wheelchair": "yes", "wheelchair:turning_circle": "no"}}, {"type": "node", "id": 4413853509, "lat": 50.8475822, "lon": 4.3502093, "tags": {"amenity": "restaurant", "check_date": "2025-06-26", "contact:email": "info@umamido.be", "contact:phone": "+32 2 540 21 47", "contact:website": "https://www.umamido.be/locations-pages/umamido-beurs", "cuisine": "japanese", "diet:vegetarian": "yes", "full_name": "Umamido Bourse - Umamido Beurs", "indoor_seating": "yes", "name": "Umamido", "opening_hours": "Mo-Su 12:00-14:30,17:30-21:30", "outdoor_seating": "pedestrian_zone", "wheelchair": "no"}}, {"type": "node", "id": 4413902489, "lat": 50.8465954, "lon": 4.3484679, "tags": {"amenity": "restaurant", "check_date": "2025-07-26", "check_date:currency:XBT": "2025-07-26", "contact:facebook": "thaiburi.brussels", "contact:instagram": "thaiburi.brussels", "contact:mobile": "+32 485 04 96 41", "contact:website": "https://thaiburi.eu/", "cuisine": "thai", "currency:XBT": "yes", "name": "Thaiburi", "opening_hours": "Tu-Su 18:00-21:30", "payment:cash": "yes", "payment:credit_cards": "yes", "payment:lightning": "yes", "payment:lightning_contactless": "yes", "payment:onchain": "no", "wheelchair": "no"}}, {"type": "node", "id": 4413902504, "lat": 50.8467708, "lon": 4.3486161, "tags": {"amenity": "restaurant", "cuisine": "sushi", "name": "Sushi Bourse"}}, {"type": "node", "id": 4413933705, "lat": 50.8469359, "lon": 4.3509854, "tags": {"amenity": "restaurant", "check_date": "2025-06-26", "name": "The Music Village"}}, {"type": "node", "id": 4413933712, "lat": 50.8460119, "lon": 4.3513055, "tags": {"amenity": "restaurant", "name": "Ristorante Bocconi"}}, {"type": "node", "id": 4413933721, "lat": 50.8470798, "lon": 4.351979, "tags": {"amenity": "restaurant", "check_date": "2024-10-17", "check_date:diet:vegan": "2024-10-17", "check_date:diet:vegetarian": "2024-10-17", "check_date:opening_hours": "2024-07-10", "diet:vegan": "no", "diet:vegetarian": "yes", "indoor_seating": "yes", "internet_access": "wlan", "name": "La Brouette", "opening_hours:signed": "no", "outdoor_seating": "yes", "wheelchair": "no"}}, {"type": "node", "id": 4413952466, "lat": 50.8458765, "lon": 4.3526631, "tags": {"amenity": "restaurant", "changing_table": "no", "changing_table:adult": "no", "diet:vegan": "no", "diet:vegetarian": "no", "entrance:kerb:height": "0.31", "entrance:step_count": "2", "entrance:width": "0.73", "indoor_seating": "yes", "name": "Fresh Noodles", "outdoor_seating": "yes", "ramp:wheelchair": "no", "wheelchair:turning_circle": "no"}}, {"type": "node", "id": 4413952469, "lat": 50.8455798, "lon": 4.3524706, "tags": {"amenity": "restaurant", "contact:mobile": "+32 468 06 46 76", "cuisine": "persian", "name": "Persia", "opening_hours": "Mo off; Tu-Su 12:00-22:30"}}, {"type": "node", "id": 4413952474, "lat": 50.8458948, "lon": 4.3525122, "tags": {"amenity": "restaurant", "contact:mobile": "+32 456 63 86 92", "cuisine": "regional;seafood", "level": "0", "name": "Oc\u00e9an 11", "opening_hours": "Mo-Su 12:00-22:30", "payment:mastercard": "yes", "payment:visa": "yes"}}, {"type": "node", "id": 4413952478, "lat": 50.8457712, "lon": 4.3525948, "tags": {"amenity": "restaurant", "contact:phone": "+32 2 672 44 25", "contact:website": "https://culsec-bistro.business.site/", "cuisine": "lebanese;syrian", "delivery": "yes", "full_name": "Cul Sec Food & Wine Bistro", "name": "Baladi", "opening_hours": "We-Fr 12:00-15:00,18:00-22:00; Sa 12:00-22:30; Su 12:00-22:00", "takeaway": "yes"}}, {"type": "node", "id": 4413952484, "lat": 50.8451413, "lon": 4.3525616, "tags": {"amenity": "restaurant", "name": "M & Mme Falfoul"}}, {"type": "node", "id": 4413952486, "lat": 50.8458185, "lon": 4.3526255, "tags": {"amenity": "restaurant", "check_date:opening_hours": "2025-03-24", "contact:phone": "+32 2 513 68 88", "cuisine": "regional", "name": "Brasserie de la Ville", "opening_hours": "Mo-Sa 12:00-15:00,18:00-23:00"}}, {"type": "node", "id": 4413960398, "lat": 50.8461041, "lon": 4.3526765, "tags": {"amenity": "restaurant", "cuisine": "meatballs", "name": "Ballekes"}}, {"type": "node", "id": 4413963186, "lat": 50.8454618, "lon": 4.3534047, "tags": {"amenity": "restaurant", "changing_table": "no", "changing_table:adult": "no", "check_date": "2024-03-07", "contact:email": "info@gabbiani.be", "contact:phone": "+32 2 512 65 44", "contact:website": "https://www.gabbiani.be/", "cuisine": "italian", "diet:vegan": "no", "diet:vegetarian": "no", "entrance:kerb:height": "0.32", "entrance:step_count": "3", "entrance:width": "0.82", "indoor_seating": "yes", "name": "Gabbiani Reali", "outdoor_seating": "yes", "ramp:wheelchair": "no", "wheelchair:turning_circle": "no"}}, {"type": "node", "id": 4413963188, "lat": 50.8457691, "lon": 4.3529581, "tags": {"amenity": "restaurant", "entrance:kerb:height": "0.54", "entrance:step_count": "3", "indoor_seating": "yes", "name": "Santorini", "outdoor_seating": "yes", "toilets:wheelchair": "yes", "toilets:wheelchair:accessible_via": "ground floor", "wheelchair:turning_circle": "yes"}}, {"type": "node", "id": 4413967687, "lat": 50.8453475, "lon": 4.3533217, "tags": {"air_conditioning": "no", "amenity": "restaurant", "contact:facebook": "https://www.facebook.com/Yummy-bowl-497920727320236/", "contact:mobile": "+32 495 35 69 05", "cuisine": "salad", "diet:vegan": "yes", "diet:vegetarian": "only", "indoor_seating": "yes", "internet_access": "wlan", "internet_access:free": "no", "name": "Yummy bowl", "opening_hours": "Mo-Fr 10:30-15:00; Sa-Su 10:30-17:00", "outdoor_seating": "yes"}}, {"type": "node", "id": 4413967688, "lat": 50.8450922, "lon": 4.3530881, "tags": {"amenity": "restaurant", "changing_table": "no", "changing_table:adult": "no", "contact:email": "feuxdebengale1@gmail.com", "contact:phone": "+32 2 513 51 63", "cuisine": "indian", "diet:halal": "yes", "entrance:kerb:height": "0.34", "entrance:ramp": "no", "entrance:step_count": "3", "entrance:width": "0.82", "indoor_seating": "yes", "name": "Feux de Bengale", "opening_hours": "Mo-Sa 12:00-14:30,18:00-23:30; Su 12:00-14:30", "outdoor_seating": "yes", "wheelchair:turning_circle": "no"}}, {"type": "node", "id": 4416858289, "lat": 50.8438624, "lon": 4.3520311, "tags": {"amenity": "restaurant", "contact:phone": "+32 2 511 05 86", "contact:website": "https://www.latabledemus.be", "indoor_seating": "yes", "name": "La Table de Mus", "opening_hours": "Mo-Tu 12:00-16:00, 19:00-00:00;Th-Sa 12:00-16:00, 19:00-00:00", "outdoor_seating": "yes", "panoramax": "43499792-2ec4-42ca-b1c2-f55d56f9896a"}}, {"type": "node", "id": 4418284332, "lat": 50.8454841, "lon": 4.3482899, "tags": {"amenity": "restaurant", "check_date": "2025-08-18", "name": "La Caneva"}}, {"type": "node", "id": 4418284333, "lat": 50.8455697, "lon": 4.3484429, "tags": {"amenity": "restaurant", "check_date": "2023-08-26", "name": "La Cantina Cubana"}}, {"type": "node", "id": 4418284334, "lat": 50.8488803, "lon": 4.352815, "tags": {"amenity": "restaurant", "cuisine": "italian", "name": "La Corte Gastronomica", "toilets": "yes", "toilets:access": "public", "toilets:description": "Le r\u00e9seau des toilettes accueillantes - Netwerk gastvrije toiletten", "toilets:fee": "no"}}, {"type": "node", "id": 4418284335, "lat": 50.8478896, "lon": 4.3546673, "tags": {"amenity": "restaurant", "check_date": "2025-02-01", "check_date:opening_hours": "2025-02-01", "cuisine": "seafood", "name": "Lobster House", "opening_hours:signed": "no"}}, {"type": "node", "id": 4418284337, "lat": 50.8502884, "lon": 4.3539528, "tags": {"amenity": "restaurant", "changing_table": "no", "changing_table:adult": "no", "diet:vegan": "no", "diet:vegetarian": "no", "entrance:kerb:height": "0.03", "entrance:step_count": "1", "entrance:width": "0.88", "name": "La Lunette", "ramp:wheelchair": "no", "toilets:access": "yes", "toilets:wheelchair": "no", "wheelchair:description": "toilets upstairs not accessible", "wheelchair:turning_circle": "yes"}}, {"type": "node", "id": 4418284339, "lat": 50.8479353, "lon": 4.3544565, "tags": {"amenity": "restaurant", "name": "Le Moulin"}}, {"type": "node", "id": 4418284347, "lat": 50.8486808, "lon": 4.3531809, "tags": {"amenity": "restaurant", "name": "L\u2019Homme au chapeau"}}, {"type": "node", "id": 4418284355, "lat": 50.8457964, "lon": 4.3495394, "tags": {"amenity": "restaurant", "contact:facebook": "resto.lelotusbleu", "contact:phone": "+32 2 502 62 99", "contact:website": "https://lotusbleu.biz/", "cuisine": "vietnamese", "name": "Le Lotus Bleu"}}, {"type": "node", "id": 4418284378, "lat": 50.8489072, "lon": 4.3527656, "tags": {"amenity": "restaurant", "cuisine": "pizza", "name": "Altra corte", "toilets:wheelchair": "no", "wheelchair:turning_circle": "yes"}}, {"type": "node", "id": 4418285523, "lat": 50.8486735, "lon": 4.3547553, "tags": {"amenity": "restaurant", "check:date": "2025-08-12", "check_date:opening_hours": "2024-07-22", "cuisine": "portuguese", "name": "Bifanas", "opening_hours:signed": "no"}}, {"type": "node", "id": 4418285528, "lat": 50.8480431, "lon": 4.354305, "tags": {"amenity": "restaurant", "cuisine": "regional", "name": "Le coin de l'\u00e9cailler", "website": "https://lecoindelecailler.be/"}}, {"type": "node", "id": 4418285530, "lat": 50.8512154, "lon": 4.3531979, "tags": {"amenity": "restaurant", "check_date": "2024-10-11", "contact:phone": "+32 2 219 12 19", "contact:website": "https://brussels-grill.be/en/locations/8199549308828123137", "name": "Brussels Grill", "opening_hours": "Mo-Su 11:30-22:30"}}, {"type": "node", "id": 4418285609, "lat": 50.8487742, "lon": 4.3548563, "tags": {"amenity": "restaurant", "check_date:opening_hours": "2024-05-25", "cuisine": "asian;barbecue", "name": "Lao Nai", "opening_hours:signed": "no"}}, {"type": "node", "id": 4418285613, "lat": 50.8488021, "lon": 4.3529585, "tags": {"alt_name": "Bao Go", "amenity": "restaurant", "contact:email": "info@baogo.be", "contact:phone": "+32 2 203 07 33", "contact:website": "https://www.baogo.be/", "cuisine": "asian", "delivery": "yes", "name": "Baogo", "opening_hours": "Mo-Su 12:00-23:00", "operator": "Six Nations"}}, {"type": "node", "id": 4418285626, "lat": 50.8488496, "lon": 4.3528713, "tags": {"amenity": "restaurant", "cuisine": "italian", "name": "L'Altro Mondo"}}, {"type": "node", "id": 4418285691, "lat": 50.8487572, "lon": 4.3530409, "tags": {"alt_name": "Nuits Saint-Georges", "amenity": "restaurant", "cuisine": "regional", "name": "Nuits St. Georges"}}, {"type": "node", "id": 4418285711, "lat": 50.8484345, "lon": 4.3547263, "tags": {"amenity": "restaurant", "contact:phone": "+32 2 833 37 37", "contact:website": "https://predecheznous.be", "name": "Pr\u00e9 de chez nous", "opening_hours": "Tu-Sa 12:00-14:30,19:00-21:30", "organic": "only", "payment:cash": "yes", "payment:maestro": "yes", "payment:mastercard": "yes", "payment:visa": "yes"}}, {"type": "node", "id": 4418285721, "lat": 50.8481865, "lon": 4.3544615, "tags": {"amenity": "restaurant", "check_date": "2023-01-21", "contact:website": "https://www.bouillonbruxelles.com/", "name": "Bouillon", "start_date": "2023-01"}}, {"type": "node", "id": 4419601178, "lat": 50.8420881, "lon": 4.3523744, "tags": {"alt_name": "Chez Hatem", "amenity": "restaurant", "check_date": "2025-06-24", "indoor_seating": "yes", "name": "Le Strof", "outdoor_seating": "yes", "wheelchair": "limited"}}, {"type": "node", "id": 4420655354, "lat": 50.8393509, "lon": 4.3551192, "tags": {"amenity": "restaurant", "indoor_seating": "yes", "name": "Les Petits Oignons", "opening_hours": "Mo-Th 12:00-14:30, 19:00-22:30;Fr-Sa 12:00-14:00, 19:00-23:00;Su 12:00-14:30, 19:00-22:30", "outdoor_seating": "yes", "website": "https://restaurant-petits-oignons-bruxelles.be/"}}, {"type": "node", "id": 4430436892, "lat": 50.8417833, "lon": 4.3521693, "tags": {"amenity": "restaurant", "check_date": "2025-06-24", "contact:email": "vluxurycercle@gmail.com", "contact:phone": "+32 2 503 83 66", "cuisine": "pizza", "indoor_seating": "yes", "internet_access": "wlan", "name": "La Dolce Mia", "opening_hours": "Tu-Sa 11:30-15:00,18:00-22:00; Su 12:00-18:00", "outdoor_seating": "yes"}}, {"type": "node", "id": 4440441860, "lat": 50.8471505, "lon": 4.3524518, "tags": {"amenity": "restaurant", "changing_table": "yes", "check_date": "2024-01-04", "entrance:kerb:height": "0.01", "entrance:ramp": "no", "entrance:step_count": "1", "entrance:width": "0.68", "indoor_seating": "yes", "name": "Le Paon - De Pauw", "name:fr": "Le Paon", "name:nl": "De Pauw", "outdoor_seating": "terrace", "toilets:wheelchair": "no", "wheelchair": "no", "wheelchair:turning_circle": "yes"}}, {"type": "node", "id": 4461505043, "lat": 50.8493718, "lon": 4.3497989, "tags": {"amenity": "restaurant", "contact:phone": "+32 2 732 37 27", "contact:website": "https://alangolo.be/", "cuisine": "italian;pizza", "indoor_seating": "yes", "name": "A l'Angolo", "opening_hours": "12:00-23:00; Fr,Sa 12:00-00:00", "outdoor_seating": "yes", "wheelchair": "yes"}}, {"type": "node", "id": 4461505045, "lat": 50.8492946, "lon": 4.3499849, "tags": {"amenity": "restaurant", "check_date": "2026-01-25", "contact:mobile": "+32 486 33 37 77", "contact:website": "https://greeknribs.be/", "cuisine": "greek", "name": "Greek N' Ribs", "opening_hours": "11:00-23:00", "takeaway": "yes"}}, {"type": "node", "id": 4467114405, "lat": 50.8497463, "lon": 4.3506406, "tags": {"amenity": "restaurant", "check_date:opening_hours": "2026-01-05", "contact:mobile": "+32 474 26 17 48;+32 474 69 73 92", "cuisine": "romanian", "name": "Restauration roumaine", "opening_hours": "Mo 11:00-23:00; We-Su 11:00-23:00", "opening_hours:signed": "no"}}, {"type": "node", "id": 4467114406, "lat": 50.8498487, "lon": 4.3503966, "tags": {"amenity": "restaurant", "check_date:opening_hours": "2026-01-05", "cuisine": "romanian", "name": "Rustic", "opening_hours:signed": "no"}}, {"type": "node", "id": 4470364633, "lat": 50.8499076, "lon": 4.3509754, "tags": {"amenity": "restaurant", "check_date:opening_hours": "2026-01-05", "cuisine": "japanese", "indoor_seating": "yes", "name": "Takumi", "note": "Gyojasang (Korean) and Takumi (Japanese) restaurants are different but share the same place", "opening_hours:signed": "no", "outdoor_seating": "no", "wheelchair": "yes"}}, {"type": "node", "id": 4485215791, "lat": 50.8419664, "lon": 4.3527334, "tags": {"amenity": "restaurant", "indoor_seating": "yes", "name": "Todt's Caf\u00e9", "opening_hours": "Th-Tu 11:30-22:00", "outdoor_seating": "yes", "wheelchair": "no"}}, {"type": "node", "id": 4485233393, "lat": 50.8511335, "lon": 4.3644492, "tags": {"amenity": "restaurant", "contact:website": "http://www.comptoirroyalbrasserie.com", "cuisine": "regional", "name": "Comptoir Royal", "opening_hours": "Mo-Th 08:00-22:30; Fr 08:00-06:00; Sa 12:00-06:00; Su 12:00-22:30"}}, {"type": "node", "id": 4497099013, "lat": 50.8479169, "lon": 4.3545414, "tags": {"amenity": "restaurant", "contact:mobile": "+32 456 22 13 91", "diet:vegetarian": "only", "name": "Frondes", "opening_hours": "Tu-Fr 18:30-22:30"}}, {"type": "node", "id": 4553094203, "lat": 50.8448146, "lon": 4.3552976, "tags": {"amenity": "restaurant", "contact:email": "mezzeway@gmail.com", "contact:mobile": "+ 32 486 30 3374", "contact:website": "https://mezzeway.com", "craft": "caterer", "cuisine": "lebanese", "description": "Traiteur Syro Libanais", "name": "Mezzeway", "opening_hours": "Mo-Th 11:00-20:00; Fr-Su 11:00-22:00"}}, {"type": "node", "id": 4560141946, "lat": 50.8492227, "lon": 4.3491687, "tags": {"amenity": "restaurant", "check_date": "2025-03-28", "contact:phone": "+32 2 513 16 88", "cuisine": "chinese", "name": "Au Bon Bol", "opening_hours": "Mo-Fr 18:00-23:00; Sa-Su 12:00-23:00", "website": "https://bonbol.be/en", "wheelchair": "no"}}, {"type": "node", "id": 4564340236, "lat": 50.8443539, "lon": 4.3840114, "tags": {"amenity": "restaurant", "contact:email": "schuman@lebotaniste.eu", "contact:facebook": "https://www.facebook.com/Le-Botaniste-Schuman-285120478973780/", "contact:phone": "+32 2 646 44 47", "contact:website": "https://www.lebotaniste.eu/", "description": "Plant-based Organic Food & Wine Bar", "diet:gluten_free": "only", "diet:vegan": "only", "diet:vegetarian": "only", "level": "0", "name": "Le Botaniste", "opening_hours": "Mo-Fr 08:30-21:30; Sa-Su 11:30-21:30", "organic": "only", "takeaway": "yes", "toilets": "yes", "wheelchair": "no"}}, {"type": "node", "id": 4564340242, "lat": 50.8444586, "lon": 4.3848628, "tags": {"amenity": "restaurant", "contact:email": "purevegindia.brussels@gmail.com", "contact:phone": "+32 2 375 45 21", "cuisine": "indian;buffet", "diet:vegan": "yes", "diet:vegetarian": "yes", "name": "Pure Veg India", "opening_hours": "Mo-Th,Sa-Su 12:00-15:00,18:00-21:00; Fr 12:00-15:00,18:00-22:00"}}, {"type": "node", "id": 4564340244, "lat": 50.8442666, "lon": 4.3843764, "tags": {"amenity": "restaurant", "contact:email": "restaurant@kamea.be", "contact:mobile": "+32 468 30 56 46;+32 484 18 01 24", "contact:website": "https://kamea.be/", "full_name": "Kamea Restaurant Cocktails & Lounge", "name": "Kamea", "opening_hours": "Mo,Su off; Tu-Sa 18:00-02:00", "opening_hours:kitchen": "Tu-Sa 18:30-22:30"}}, {"type": "node", "id": 4564340245, "lat": 50.8443052, "lon": 4.3844744, "tags": {"amenity": "restaurant", "cuisine": "pizza", "name": "Il Gallo Nero"}}, {"type": "node", "id": 4564340246, "lat": 50.8444119, "lon": 4.3841849, "tags": {"amenity": "restaurant", "check_date": "2025-06-22", "check_date:diet:vegetarian": "2025-06-22", "check_date:opening_hours": "2024-05-25", "cuisine": "lebanese", "diet:vegetarian": "yes", "name": "L'Or du Liban", "opening_hours:signed": "no"}}, {"type": "node", "id": 4564340248, "lat": 50.8442297, "lon": 4.3842827, "tags": {"amenity": "restaurant", "contact:phone": "+32 2 736 57 73", "contact:website": "https://labrace1973.be/", "cuisine": "pizza;italian", "diet:vegetarian": "yes", "name": "La Brace", "start_date": "1973"}}, {"type": "node", "id": 4586731290, "lat": 50.8507288, "lon": 4.3534519, "tags": {"amenity": "restaurant", "contact:phone": "+32 3 513 10 63", "contact:website": "https://www.makifornia.be/", "cuisine": "sushi", "elevator:door:width": "1.4", "entrance:kerb:height": "0.07", "entrance:step_count": "1", "entrance:width": "1", "name": "Makifornia", "opening_hours": "Mo-Fr 12:30-23:00; Sa,Su 11:30-23:00", "takeaway": "yes", "toilets:access": "customers", "toilets:wheelchair": "yes", "toilets:wheelchair:accessible_via": "lift_accessible"}}, {"type": "node", "id": 4595939791, "lat": 50.8480874, "lon": 4.3527879, "tags": {"amenity": "restaurant", "cuisine": "ramen", "name": "Buga Ramen"}}, {"type": "node", "id": 4604984812, "lat": 50.8543105, "lon": 4.3607507, "tags": {"amenity": "restaurant", "cuisine": "italian", "name": "Il Convivio"}}, {"type": "node", "id": 4609529007, "lat": 50.8471751, "lon": 4.3536976, "tags": {"amenity": "restaurant", "check_date": "2024-01-04", "name": "Royal Indian taste", "outdoor_seating": "yes", "wheelchair": "no"}},