{"version": 0.6, "generator": "Overpass API 0.7.62.10 2d4cfc48", "osm3s": {"timestamp_osm_base": "2026-02-02T17:52:00Z", "copyright": "The data included in this document is from www.openstreetmap.org. The data is made available under ODbL."}, "elements": [{"type": "node", "id": 712712784, "lat": 50.8378784, "lon": 4.3861047, "tags": {"amenity": "cafe", "name": "Salon de th\u00e9", "opening_hours:signed": "no"}}, {"type": "node", "id": 766847790, "lat": 50.8380195, "lon": 4.3819817, "tags": {"amenity": "cafe", "name": "Muski Comics Cafe", "opening_hours": "Mo-Fr 08:00-18:30; Sa-Su 09:00-18:30"}}, {"type": "node", "id": 5211692523, "lat": 50.837514, "lon": 4.3817585, "tags": {"amenity": "cafe", "check_date:opening_hours": "2025-04-14", "contact:instagram": "https://www.instagram.com/ana_attentobrussels", "cuisine": "coffee_shop", "internet_access": "wlan", "name": "Oats Day Long", "old_name": "Ana Attento", "opening_hours": "Mo-Fr 07:30-17:00; Sa,Su,PH 08:30-17:00", "website": "https://www.oatsdaylong.com/", "wheelchair": "yes"}}, {"type": "node", "id": 5396681921, "lat": 50.8389824, "lon": 4.3822983, "tags": {"amenity": "cafe", "contact:instagram": "bouche.coffee", "internet_access": "wlan", "name": "Bouche", "old_name": "Friends Corner", "wheelchair": "no"}}, {"type": "node", "id": 12398187701, "lat": 50.8363914, "lon": 4.3819555, "tags": {"amenity": "cafe", "contact:instagram": "https://www.instagram.com/Urkunina.Coffee", "contact:website": "https://urkunina.coffee", "cuisine": "cake;coffee_shop", "name": "Urkunina Specialty Roasters", "opening_hours": "Mo-Sa 09:00-15:00"}}, {"type": "node", "id": 13444996789, "lat": 50.8361352, "lon": 4.3810716, "tags": {"amenity": "cafe", "check_date": "2026-02-02", "cuisine": "coffee_shop", "name": "MIR Concept Store", "opening_hours": "Mo-Fr 08:00-19:00; Sa 09:00-19:00; Su 10:00-18:00"}}]}