{"version": 0.6, "generator": "Overpass API 0.7.62.10 2d4cfc48", "osm3s": {"timestamp_osm_base": "2026-02-02T16:12:54Z", "copyright": "The data included in this document is from www.openstreetmap.org. The data is made available under ODbL."}, "elements": [{"type": "node", "id": 2538882051, "lat": 50.8508583, "lon": 4.3367761}, {"type": "node", "id": 2538882052, "lat": 50.8508638, "lon": 4.3367708}, {"type": "node", "id": 2538882055, "lat": 50.8510576, "lon": 4.3373128}, {"type": "node", "id": 2538882056, "lat": 50.8510767, "lon": 4.3369047}, {"type": "node", "id": 2538882058, "lat": 50.851115, "lon": 4.3372018}, {"type": "node", "id": 2538882062, "lat": 50.8511766, "lon": 4.3371752}, {"type": "node", "id": 3018257527, "lat": 50.8547624, "lon": 4.2955259, "tags": {"amenity": "kindergarten"}}, {"type": "node", "id": 4237630989, "lat": 50.85319, "lon": 4.3254137, "tags": {"amenity": "kindergarten", "name": "Het Molentje"}}, {"type": "node", "id": 10977282676, "lat": 50.8579979, "lon": 4.3448963, "tags": {"amenity": "childcare", "contact:website": "https://www.olina.be/", "name": "Les Moulins d'Olina", "preschool": "yes"}}, {"type": "node", "id": 11264966776, "lat": 50.8584101, "lon": 4.3187267, "tags": {"amenity": "childcare", "contact:email": "crechesaintcharles@gmail.com", "contact:phone": "+32 2 410 61 18", "contact:website": "https://crechesaintcharles.be/", "name": "Cr\u00e8che Saint-Charles"}}, {"type": "node", "id": 13050064631, "lat": 50.8511752, "lon": 4.3371715}, {"type": "way", "id": 246925463, "nodes": [2538882056, 13050064631, 2538882062, 2538882058, 2538882055, 2538882051, 2538882052, 2538882056], "tags": {"addr:housenumber": "42", "addr:street": "Rue Fernand Brunfaut - Fernand Brunfautstraat", "amenity": "kindergarten", "building": "yes", "contact:email": "west@elmer.be", "contact:website": "https://www.elmer.be", "name": "Elmer West", "ref:UrbIS": "8154894"}}]}