{"version": 0.6, "generator": "Overpass API 0.7.62.10 2d4cfc48", "osm3s": {"timestamp_osm_base": "2026-02-03T11:12:01Z", "copyright": "The data included in this document is from www.openstreetmap.org. The data is made available under ODbL."}, "elements": [{"type": "node", "id": 2882378617, "lat": 50.8788061, "lon": 4.4036771, "tags": {"name": "Fonson", "public_transport": "stop_position", "railway": "tram_stop", "tram": "yes"}}, {"type": "node", "id": 2882407588, "lat": 50.8800045, "lon": 4.4071389, "tags": {"name": "Van Cutsem", "public_transport": "stop_position", "railway": "tram_stop", "tram": "yes"}}, {"type": "node", "id": 4788242144, "lat": 50.8769418, "lon": 4.4008324, "tags": {"name": "Paix - Vrede", "name:fr": "Paix", "name:nl": "Vrede", "public_transport": "stop_position", "railway": "tram_stop", "tram": "yes"}}, {"type": "node", "id": 4788242152, "lat": 50.8769163, "lon": 4.4008725, "tags": {"name": "Paix - Vrede", "name:fr": "Paix", "name:nl": "Vrede", "public_transport": "stop_position", "railway": "tram_stop", "tram": "yes"}}, {"type": "node", "id": 4985390370, "lat": 50.8801592, "lon": 4.4074933, "tags": {"name": "Van Cutsem", "public_transport": "stop_position", "railway": "tram_stop", "tram": "yes"}}, {"type": "node", "id": 4985408158, "lat": 50.8790532, "lon": 4.4038845, "tags": {"name": "Fonson", "public_transport": "stop_position", "railway": "tram_stop", "tram": "yes"}}, {"type": "node", "id": 4985435248, "lat": 50.8758387, "lon": 4.392476, "tags": {"name": "Tilleul - Linde", "name:fr": "Tilleul", "name:nl": "Linde", "public_transport": "stop_position", "railway": "tram_stop", "tram": "yes"}}, {"type": "node", "id": 4985435257, "lat": 50.8759181, "lon": 4.3928382, "tags": {"name": "Tilleul - Linde", "name:fr": "Tilleul", "name:nl": "Linde", "public_transport": "stop_position", "railway": "tram_stop", "tram": "yes"}}]}