{"version": 0.6, "generator": "Overpass API 0.7.62.10 2d4cfc48", "osm3s": {"timestamp_osm_base": "2026-02-03T08:47:41Z", "copyright": "The data included in this document is from www.openstreetmap.org. The data is made available under ODbL."}, "elements": [{"type": "node", "id": 4646072991, "lat": 50.8328937, "lon": 4.3296027, "tags": {"amenity": "restaurant", "contact:phone": "+32 2 520 77 85", "cuisine": "pizza;italian", "name": "I Panciuti"}}, {"type": "node", "id": 11347050264, "lat": 50.8367904, "lon": 4.3355443, "tags": {"amenity": "restaurant", "changing_table": "no", "changing_table:adult": "no", "check_date": "2025-03-17", "check_date:opening_hours": "2024-03-16", "cuisine": "sushi", "diet:vegan": "no", "diet:vegetarian": "no", "entrance:step_count": "0", "entrance:width": "2", "indoor_seating": "yes", "level": "0", "name": "SushiShop", "opening_hours:signed": "no", "outdoor_seating": "no", "wheelchair": "yes", "wheelchair:turning_circle": "yes"}}, {"type": "node", "id": 11956003781, "lat": 50.8368353, "lon": 4.3358053, "tags": {"air_conditioning": "yes", "amenity": "restaurant", "cuisine": "hawaiian;poke_bowl", "entrance:kerb:height": "0", "entrance:step_count": "0", "entrance:width": "1.1", "indoor_seating": "yes", "name": "Pokawa", "opening_hours": "Mo-Fr 07:00-21:00; Sa,Su 09:00-21:00", "outdoor_seating": "no", "wheelchair": "yes"}}, {"type": "node", "id": 12196596409, "lat": 50.8384325, "lon": 4.3387797, "tags": {"amenity": "restaurant", "cuisine": "portuguese", "name": "Oh! Fadista"}}, {"type": "node", "id": 13316386839, "lat": 50.8361162, "lon": 4.3343066, "tags": {"amenity": "restaurant", "contact:email": "1fmhorta@aramark.be", "contact:website": "https://www.aramark.be/", "cuisine": "canteen", "diet:vegetarian": "yes", "level": "1", "name": "Aramark", "opening_hours": "Mo-Fr 11:30-14:00"}}]}