{"version": 0.6, "generator": "Overpass API 0.7.62.10 2d4cfc48", "osm3s": {"timestamp_osm_base": "2026-02-02T15:56:43Z", "copyright": "The data included in this document is from www.openstreetmap.org. The data is made available under ODbL."}, "elements": [{"type": "node", "id": 1267855219, "lat": 50.8436468, "lon": 4.4355272, "tags": {"amenity": "bar", "name": "Bistro Op-Weule", "opening_hours": "Tu-Fr 11:00-23:00; Su 11:00-18:00"}}, {"type": "node", "id": 7914342185, "lat": 50.844785, "lon": 4.4173332, "tags": {"amenity": "bar", "name": "La Cuve \u00e0 bi\u00e8re"}}, {"type": "node", "id": 8674222790, "lat": 50.849857, "lon": 4.4531423, "tags": {"amenity": "bar", "brewery": "yes;various", "contact:phone": "+32 2 762 64 59", "level": "1", "name": "Ad Hoc"}}, {"type": "node", "id": 10751270700, "lat": 50.8444408, "lon": 4.4154076, "tags": {"amenity": "bar", "indoor_seating": "yes", "name": "Le Bar Jo", "outdoor_seating": "yes"}}, {"type": "node", "id": 12152274404, "lat": 50.8443415, "lon": 4.4208695, "tags": {"amenity": "bar", "check_date": "2024-03-01", "name": "Bistro D'Ailleurs", "outdoor_seating": "yes"}}, {"type": "node", "id": 12230103536, "lat": 50.8410768, "lon": 4.4347083, "tags": {"amenity": "bar", "check_date": "2024-07-11", "name": "Zanzibar"}}, {"type": "node", "id": 12230103537, "lat": 50.8411029, "lon": 4.4346467, "tags": {"amenity": "bar", "check_date": "2024-07-11", "name": "Mood", "opening_hours": "We,Th 19:00-02:00, Fr 19:00-03:00, Sa 21:00-03:00"}}]}