{"version": 0.6, "generator": "Overpass API 0.7.62.10 2d4cfc48", "osm3s": {"timestamp_osm_base": "2026-02-02T16:03:45Z", "copyright": "The data included in this document is from www.openstreetmap.org. The data is made available under ODbL."}, "elements": [{"type": "node", "id": 518678928, "lat": 50.8318842, "lon": 4.3445572, "tags": {"amenity": "cafe", "contact:email": "info@nomad-community.be", "contact:website": "https://www.nomad-community.be/", "internet_access": "wlan", "name": "Nomad Community", "opening_hours": "Mo-Fr 09:00-18:00; Sa 10:00-18:00"}}, {"type": "node", "id": 826830627, "lat": 50.8333229, "lon": 4.3564716, "tags": {"amenity": "cafe", "check_date": "2025-04-27", "name": "Arion Caf\u00e9"}}, {"type": "node", "id": 1242137440, "lat": 50.8337948, "lon": 4.3552048, "tags": {"amenity": "cafe", "check_date": "2023-01-08", "contact:phone": "+32 2 356 31 26", "contact:website": "https://lloydcoffee.com/en/shops/", "cuisine": "coffee_shop", "indoor_seating": "yes", "internet_access": "yes", "internet_access:fee": "customers", "internet_access:ssid": "Lloyd.guests", "name": "Lloyd Coffee Eatery", "opening_hours": "Mo-Fr 08:00-20:00; Sa,Su 09:00-20:00", "outdoor_seating": "yes", "payment:cash": "no", "payment:mastercard": "yes", "payment:visa": "yes", "service:electricity": "no", "short_name": "Lloyd Louise", "wheelchair": "yes"}}, {"type": "node", "id": 2322014482, "lat": 50.8225721, "lon": 4.3538971, "tags": {"amenity": "cafe", "check_date": "2024-07-18", "diet:vegetarian": "yes", "internet_access": "wlan", "internet_access:fee": "no", "name": "L'Atelier", "outdoor_seating": "yes", "smoking": "no"}}, {"type": "node", "id": 2545323185, "lat": 50.8277433, "lon": 4.3372885, "tags": {"amenity": "cafe", "contact:website": "https://www.crixcafe.be/", "live_music": "yes", "name": "Crix"}}, {"type": "node", "id": 2667340254, "lat": 50.8253385, "lon": 4.3534806, "tags": {"amenity": "cafe", "contact:website": "https://www.la-belladone.com/", "name": "La Belladone", "opening_hours": "Tu 18:00-24:00; We-Sa 11:00-01:00; Su 11:00-18:00", "wikidata": "Q119558424"}}, {"type": "node", "id": 3128417991, "lat": 50.8267703, "lon": 4.3548132, "tags": {"amenity": "cafe", "contact:website": "https://hntrlnd.be", "cuisine": "breakfast;tea", "diet:gluten_free": "yes", "diet:vegan": "yes", "diet:vegetarian": "yes", "indoor_seating": "yes", "name": "Hinterland", "opening_hours": "Mo-Tu,Th-Fr 08:00-16:00; Sa-Su 09:00-17:00; We off", "outdoor_seating": "no", "wheelchair": "limited"}}, {"type": "node", "id": 4005545291, "lat": 50.8269365, "lon": 4.357736, "tags": {"alt_name": "Pozcaf\u00e9", "amenity": "cafe", "contact:facebook": "Pozbrussels", "contact:website": "https://pozbrussels.be", "cuisine": "coffee_shop", "internet_access": "wlan", "name": "Poz\" Caf\u00e9", "opening_hours": "Mo-Fr 07:00-19:00; Sa 08:00-19:00; Su 10:00-19:00", "wheelchair": "yes"}}, {"type": "node", "id": 4413558465, "lat": 50.8257302, "lon": 4.3476655, "tags": {"amenity": "cafe", "check_date": "2025-08-08", "contact:facebook": "https://www.facebook.com/Kitchenette.saintgilles", "cuisine": "sandwich", "indoor_seating": "yes", "internet_access": "yes", "name": "Kitchenette", "opening_hours": "Mo-Sa 07:30-16:00", "outdoor_seating": "sidewalk", "smoking": "no"}}, {"type": "node", "id": 4417866142, "lat": 50.8360948, "lon": 4.3374623, "tags": {"amenity": "cafe", "changing_table": "no", "changing_table:adult": "no", "check_date": "2025-02-06", "check_date:opening_hours": "2025-02-06", "cuisine": "smoothie", "entrance:step_count": "0", "entrance:width": "2", "indoor_seating": "yes", "level": "0", "name": "Cafe Muffin", "opening_hours": "Mo-Su 05:30-19:30", "outdoor_seating": "no", "wheelchair": "yes", "wheelchair:turning_circle": "yes"}}, {"type": "node", "id": 4426245879, "lat": 50.826385, "lon": 4.3449447, "tags": {"amenity": "cafe", "check_date": "2025-10-08", "name": "Invictus"}}, {"type": "node", "id": 4642149791, "lat": 50.8330677, "lon": 4.3301564, "tags": {"amenity": "cafe", "cuisine": "african", "name": "Maryland cafe"}}, {"type": "node", "id": 4661305026, "lat": 50.8287256, "lon": 4.3386787, "tags": {"amenity": "cafe", "check_date": "2024-09-21", "contact:website": "https://chechette.be/", "internet_access": "wlan", "internet_access:fee": "customers", "name": "La vieille Ch\u00e9chette", "opening_hours": "Mo 13:00-20:00; Tu,Th 09:00-20:00; We 10:00-18:00; Fr-Sa 10:00-23:00; Su off", "operator:type": "cooperative", "outdoor_seating": "yes", "payment:cash": "yes", "payment:credit_cards": "yes", "payment:debit_cards": "yes", "wheelchair": "limited"}}, {"type": "node", "id": 4769365969, "lat": 50.8376787, "lon": 4.3491062, "tags": {"amenity": "cafe", "cuisine": "belgian", "name": "L'arr\u00eat 48", "outdoor_seating": "yes"}}, {"type": "node", "id": 4845316946, "lat": 50.8355287, "lon": 4.35537, "tags": {"amenity": "cafe", "brand": "Starbucks", "brand:wikidata": "Q37158", "brand:wikipedia": "en:Starbucks", "cuisine": "coffee_shop", "diet:vegan": "yes", "diet:vegetarian": "yes", "layer": "-1", "level": "-1", "location": "underground", "name": "Starbucks", "official_name": "Starbucks Coffee", "opening_hours": "Mo-Fr 06:30-18:00; Sa 10:30-17:30", "takeaway": "yes"}}, {"type": "node", "id": 4873995895, "lat": 50.8370959, "lon": 4.3367589, "tags": {"amenity": "cafe", "brand": "Starbucks", "brand:wikidata": "Q37158", "brand:wikipedia": "en:Starbucks", "cuisine": "coffee_shop", "layer": "-2", "level": "-2", "location": "underground", "name": "Starbucks", "official_name": "Starbucks Coffee", "operator": "Starbucks", "takeaway": "yes"}}, {"type": "node", "id": 4973897088, "lat": 50.8372787, "lon": 4.3405709, "tags": {"amenity": "cafe", "name": "Caf\u00e9 Midi"}}, {"type": "node", "id": 5691531519, "lat": 50.8324138, "lon": 4.3454356, "tags": {"amenity": "cafe", "check_date": "2025-08-12", "name": "Bj caf\u00e9"}}, {"type": "node", "id": 5801705140, "lat": 50.8260905, "lon": 4.3545959, "tags": {"amenity": "cafe", "check_date:opening_hours": "2024-07-08", "contact:email": "kiliane@jackiecoffee.com", "contact:facebook": "https://www.facebook.com/JackieCoffeeBxl/", "contact:mobile": "+32 477 98 66 63", "internet_access": "wlan", "internet_access:fee": "no", "name": "Jackie", "opening_hours:signed": "no", "outdoor_seating": "yes", "start_date": "2021-10", "was:name": "Parlor Coffee"}}, {"type": "node", "id": 6060218218, "lat": 50.835663, "lon": 4.3558671, "tags": {"amenity": "cafe", "check_date": "2025-10-31", "check_date:opening_hours": "2025-10-31", "name": "Sukoza", "opening_hours:signed": "no"}}, {"type": "node", "id": 6137720604, "lat": 50.8352345, "lon": 4.3381677, "tags": {"amenity": "cafe", "changing_table": "no", "changing_table:adult": "no", "check_date": "2026-02-01", "comment": "geen toegankelijk toilet", "diet:vegetarian": "no", "entrance:kerb:height": "0.02", "entrance:step_count": "1", "entrance:width": "0.86", "indoor_seating": "yes", "name": "Sas Caf\u00e9", "outdoor_seating": "yes", "ramp:wheelchair": "no", "wheelchair": "limited", "wheelchair:turning_circle": "no"}}, {"type": "node", "id": 6218551539, "lat": 50.8274013, "lon": 4.3553676, "tags": {"amenity": "cafe", "name": "Caf\u00e9 Janson"}}, {"type": "node", "id": 6289589458, "lat": 50.8360113, "lon": 4.3332344, "tags": {"access": "customers", "amenity": "cafe", "check_date": "2024-04-21", "indoor_seating": "yes", "level": "0", "location": "indoor", "name": "Eurostar Lounge", "opening_hours": "Mo-Fr 06:00-21:15; Sa 07:00-20:50; Su 08:00-21:50", "operator": "Thalys", "outdoor_seating": "no"}}, {"type": "node", "id": 6462645653, "lat": 50.8350675, "lon": 4.3468167, "tags": {"amenity": "cafe", "email": "lepianocktail.bruxelles@gmail.com", "name": "Pianocktail", "outdoor_seating": "no"}}, {"type": "node", "id": 6499579497, "lat": 50.8282373, "lon": 4.3326815, "tags": {"amenity": "cafe", "contact:website": "https://honestbrussels.com/", "indoor_seating": "yes", "name": "Honest", "outdoor_seating": "yes"}}, {"type": "node", "id": 6815948717, "lat": 50.8302055, "lon": 4.3443745, "tags": {"amenity": "cafe", "check_date": "2025-02-12", "indoor_seating": "yes", "name": "La Bierco", "outdoor_seating": "yes"}}, {"type": "node", "id": 6815951938, "lat": 50.8307417, "lon": 4.345505, "tags": {"amenity": "cafe", "check_date": "2025-08-05", "indoor_seating": "yes", "name": "Flora", "outdoor_seating": "yes", "website": "https://cafeflora.be"}}, {"type": "node", "id": 7171191695, "lat": 50.8366847, "lon": 4.335722, "tags": {"amenity": "cafe", "changing_table": "no", "changing_table:adult": "no", "check_date": "2025-03-17", "check_date:opening_hours": "2024-03-16", "cuisine": "sandwich", "diet:vegetarian": "yes", "drinking_water": "yes", "entrance:step_count": "0", "entrance:width": "1.4", "highchair": "yes", "indoor_seating": "yes", "internet_access": "no", "level": "0", "name": "Pret \u00e0 Manger", "opening_hours:signed": "no", "outdoor_seating": "no", "payment:contactless": "yes", "payment:credit_cards": "yes", "payment:debit_cards": "yes", "payment:mastercard": "yes", "payment:visa": "yes", "takeaway": "yes", "toilets": "no", "wheelchair": "yes", "wheelchair:turning_circle": "yes"}}, {"type": "node", "id": 7174881703, "lat": 50.8258257, "lon": 4.3545113, "tags": {"amenity": "cafe", "contact:instagram": "https://www.instagram.com/kookoo.cafee/", "indoor_seating": "yes", "name": "KooKoo", "outdoor_seating": "yes", "wheelchair": "no"}}, {"type": "node", "id": 7174918160, "lat": 50.831312, "lon": 4.3460366, "tags": {"amenity": "cafe", "contact:email": "robertetmarla@gmail.com", "contact:facebook": "https://www.facebook.com/pardonbrussels", "contact:instagram": "https://www.instagram.com/pardonbrussels", "contact:mobile": "+32 479 16 40 17", "contact:website": "https://www.pardonbrussels.com", "cuisine": "coffee_shop;waffle", "diet:vegan": "yes", "diet:vegetarian": "yes", "indoor_seating": "yes", "internet_access": "wlan", "name": "Pardon", "opening_hours": "Mo-Su 10:30-17:30; PH closed", "outdoor_seating": "no", "payment:cash": "yes", "payment:credit_cards": "yes", "payment:debit_cards": "yes", "payment:maestro": "yes", "takeaway": "yes"}}, {"type": "node", "id": 7195165369, "lat": 50.8236649, "lon": 4.3480345, "tags": {"amenity": "cafe", "contact:mobile": "+32 492 54 00 62", "contact:website": "https://www.thewildlab.be/", "description": "Vegetarian caf\u00e9 (brunch, smoothie, bowls, coffee)", "diet:vegan": "yes", "diet:vegetarian": "only", "name": "The Wild Lab", "opening_hours": "Tu-Fr 10:00-16:00; Sa, Su 9:30-16:00"}}, {"type": "node", "id": 7211188266, "lat": 50.8362517, "lon": 4.3450788, "tags": {"amenity": "cafe", "cuisine": "teahouse", "name": "Salon de Th\u00e8 Jasmin"}}, {"type": "node", "id": 7980571564, "lat": 50.8228975, "lon": 4.353184, "tags": {"amenity": "cafe", "check_date": "2025-03-28", "contact:instagram": "https://www.instagram.com/kami.brussels", "cuisine": "coffee_shop;lunch;organic", "name": "Kami", "opening_hours": "Tu-Fr 08:30-16:00; Sa-Su 10:00-17:00", "payment:cash": "yes", "payment:credit_cards": "yes", "payment:debit_cards": "yes"}}, {"type": "node", "id": 8860469748, "lat": 50.8225557, "lon": 4.3497732, "tags": {"amenity": "cafe", "contact:phone": "+32 2 343 18 48", "name": "Eat a nous", "opening_hours": "Tu 10:00-18:30; We,Th 09:30-18:30; Fr 09:00-15:00"}}, {"type": "node", "id": 8951744976, "lat": 50.8361193, "lon": 4.3377748, "tags": {"amenity": "cafe", "name": "Coffee Fellows"}}, {"type": "node", "id": 9238354199, "lat": 50.8231938, "lon": 4.3530519, "tags": {"amenity": "cafe", "contact:facebook": "https://www.facebook.com/Kaki.CakeBar/", "contact:phone": "+32 2 468 29 62", "cuisine": "coffee_shop;cake;asian;teahouse;dessert", "name": "Kaki Cake Bar", "opening_hours": "Tu-Fr 09:00-18:00; Sa,Su 10:00-18:00", "takeaway": "yes"}}, {"type": "node", "id": 9252535197, "lat": 50.8371556, "lon": 4.3453117, "tags": {"amenity": "cafe", "cuisine": "coffee_shop", "name": "Le Paon d'Or", "outdoor_seating": "yes", "toilets": "yes", "toilets:access": "public", "toilets:description": "Le r\u00e9seau des toilettes accueillantes - Netwerk gastvrije toiletten", "toilets:fee": "no"}}, {"type": "node", "id": 9587460840, "lat": 50.827383, "lon": 4.3400589, "tags": {"amenity": "cafe", "cuisine": "spanish", "name": "Olegario", "outdoor_seating": "yes"}}, {"type": "node", "id": 9587460842, "lat": 50.8272545, "lon": 4.3402372, "tags": {"amenity": "cafe", "indoor_seating": "yes", "name": "Porte d'Europe", "outdoor_seating": "yes"}}, {"type": "node", "id": 9654550699, "lat": 50.8245717, "lon": 4.3480983, "tags": {"amenity": "cafe", "check_date": "2025-08-08", "contact:email": "modanova@hotmail.fr", "contact:mobile": "+32 478 03 41 86", "contact:website": "https://modanova.be/", "name": "Moda Nova"}}, {"type": "node", "id": 9704907477, "lat": 50.8378355, "lon": 4.3453245, "tags": {"amenity": "cafe", "cuisine": "coffee_shop", "name": "Elixir Coffee", "opening_hours": "Mo-Fr 14:00-20:00; Sa 12:00-20:00; Su 11:00-19:00", "outdoor_seating": "yes"}}, {"type": "node", "id": 9764400259, "lat": 50.8342202, "lon": 4.3545362, "tags": {"amenity": "cafe", "check_date:opening_hours": "2025-10-31", "indoor_seating": "yes", "name": "Lounge Cafe", "opening_hours:signed": "no", "operator": "Shahrazad", "outdoor_seating": "yes"}}, {"type": "node", "id": 9896161202, "lat": 50.8288566, "lon": 4.3391082, "tags": {"amenity": "cafe", "name": "Cafe Bar Luis", "outdoor_seating": "yes"}}, {"type": "node", "id": 10079840715, "lat": 50.8370123, "lon": 4.3487929, "tags": {"amenity": "cafe", "check_date": "2025-04-27", "contact:instagram": "https://www.instagram.com/taylorscafebrussels/", "contact:website": "https://www.taylorscafebrussels.be", "diet:vegan": "only", "name": "Taylor's", "opening_hours": "Mo,We,Th,Fr 09:00-16:00; Sa,Su 10:00-18:00"}}, {"type": "node", "id": 10139555019, "lat": 50.823946, "lon": 4.3439293, "tags": {"amenity": "cafe", "name": "Caf\u00e9 Mercedes"}}, {"type": "node", "id": 10246337606, "lat": 50.8325851, "lon": 4.3427783, "tags": {"amenity": "cafe", "name": "Le passage"}}, {"type": "node", "id": 10607657861, "lat": 50.83034, "lon": 4.3559543, "tags": {"amenity": "cafe", "contact:website": "https://www.stellacoffeebar.be/", "description": "Cafe and dog", "diet:vegetarian": "yes", "name": "Stella", "opening_hours": "Mo-Fr 08:00-17:00; Sa 09:00-18:00; Su 09:00-17:00", "takeaway": "yes"}}, {"type": "node", "id": 10630190726, "lat": 50.8332421, "lon": 4.3400616, "tags": {"amenity": "cafe", "check_date": "2024-08-31", "name": "Caf\u00e9 Fontainas"}}, {"type": "node", "id": 10630190727, "lat": 50.8347516, "lon": 4.3389375, "tags": {"amenity": "cafe", "indoor_seating": "yes", "name": "Quartier G\u00e9n\u00e9ral Chez Fifi", "outdoor_seating": "yes"}}, {"type": "node", "id": 10633599645, "lat": 50.8255911, "lon": 4.3391606, "tags": {"amenity": "cafe", "name": "Le Sportif", "outdoor_seating": "yes"}}, {"type": "node", "id": 10633599829, "lat": 50.8254113, "lon": 4.3397816, "tags": {"amenity": "cafe", "name": "Doni M"}}, {"type": "node", "id": 10716446475, "lat": 50.8299146, "lon": 4.3376514, "tags": {"amenity": "cafe", "check_date:opening_hours": "2024-12-09", "contact:facebook": "https://www.facebook.com/profile.php?id=61566961078463", "contact:instagram": "https://www.instagram.com/fringales.epicerie/", "contact:website": "https://fringales.myportfolio.com/", "food": "yes", "name": "Fringales", "opening_hours": "Mo-Fr 09:00-19:00; Sa 10:00-17:00; Su 10:00-16:00", "organic": "yes", "shop": "convenience", "takeaway": "only"}}, {"type": "node", "id": 10748552604, "lat": 50.8255115, "lon": 4.3371343, "tags": {"amenity": "cafe", "contact:instagram": "https://www.instagram.com/marinabautier/", "contact:website": "https://bautier.com/blogs/news/cafe-bautier", "name": "Caf\u00e9 Bautier"}}, {"type": "node", "id": 10777960505, "lat": 50.8233983, "lon": 4.3537354, "tags": {"amenity": "cafe", "contact:instagram": "https://www.instagram.com/medartcafe", "cuisine": "coffee_shop", "indoor_seating": "yes", "name": "Med Art", "outdoor_seating": "no"}}, {"type": "node", "id": 10792703407, "lat": 50.8236365, "lon": 4.3538115, "tags": {"amenity": "cafe", "name": "Olive Restaurant"}}, {"type": "node", "id": 10859987530, "lat": 50.8393435, "lon": 4.3395922, "tags": {"amenity": "cafe", "name": "Le Terminus"}}, {"type": "node", "id": 10872164148, "lat": 50.8300441, "lon": 4.3390792, "tags": {"amenity": "cafe", "name": "Au Vieux Chemin"}}, {"type": "node", "id": 10872164149, "lat": 50.8308422, "lon": 4.3383215, "tags": {"amenity": "cafe", "entrance:kerb:height": "0.1", "entrance:step_count": "1", "entrance:width": "1.1", "indoor_seating": "yes", "name": "Caf\u00e9 Bethleem", "outdoor_seating": "yes", "toilets:access": "yes"}}, {"type": "node", "id": 10872164150, "lat": 50.8308619, "lon": 4.3384382, "tags": {"amenity": "cafe", "entrance:kerb:height": "0.15", "entrance:step_count": "1", "indoor_seating": "yes", "name": "Bylis Cafe", "outdoor_seating": "yes", "toilets:wheelchair": "no", "wheelchair:turning_circle": "yes"}}, {"type": "node", "id": 10872164152, "lat": 50.8309123, "lon": 4.3386656, "tags": {"amenity": "cafe", "check_date": "2023-10-03", "indoor_seating": "yes", "internet_access": "no", "name": "Caf\u00e9 R\u00e9gua", "outdoor_seating": "yes", "smoking": "outside"}}, {"type": "node", "id": 10872164153, "lat": 50.83089, "lon": 4.3385887, "tags": {"amenity": "cafe", "name": "Cafe Balux", "outdoor_seating": "yes"}}, {"type": "node", "id": 11346973052, "lat": 50.8365546, "lon": 4.3364378, "tags": {"amenity": "cafe", "brand": "Starbucks", "brand:wikidata": "Q37158", "check_date": "2025-06-17", "cuisine": "coffee_shop", "diet:vegetarian": "yes", "entrance:kerb:height": "0", "entrance:step_count": "0", "entrance:width": "1", "indoor_seating": "yes", "level": "0", "name": "Starbucks", "official_name": "Starbucks Coffee", "opening_hours": "Mo-Th 05:30-21:00; Fr,Sa 05:30-22:00; Su 06:00-21:30", "outdoor_seating": "no", "takeaway": "yes", "wheelchair": "yes", "wheelchair:turning_circle": "yes"}}, {"type": "node", "id": 11361423538, "lat": 50.8281569, "lon": 4.3318045, "tags": {"amenity": "cafe", "cuisine": "coffee_shop", "indoor_seating": "yes", "name": "Les d\u00e9jeuners de l'orient", "outdoor_seating": "yes"}}, {"type": "node", "id": 11563981259, "lat": 50.8315062, "lon": 4.3366542, "tags": {"amenity": "cafe", "cuisine": "gyros;greek", "name": "Kozani", "phone": "+32 2 850 04 22"}}, {"type": "node", "id": 11649060382, "lat": 50.8238317, "lon": 4.3433039, "tags": {"amenity": "cafe", "contact:facebook": "https://www.facebook.com/574866346279984", "contact:instagram": "https://instagram.com/alchimiste.cafe", "contact:phone": "+32 2 534 69 14", "contact:website": "https://alchimistecafe.be/", "cuisine": "coffee_shop;pancake;sandwich;cake", "diet:dairy_free": "yes", "diet:gluten_free": "yes", "diet:vegan": "only", "indoor_seating": "yes", "internet_access": "wlan", "internet_access:fee": "customers", "name": "L\u2019Alchimiste", "opening_hours": "Mo-Fr 07:30-15:00; Sa-Su 10:00-15:00", "outdoor_seating": "yes", "smoking": "outside"}}, {"type": "node", "id": 11811587921, "lat": 50.8364478, "lon": 4.3359901, "tags": {"amenity": "cafe", "changing_table": "no", "changing_table:adult": "no", "check_date": "2025-10-19", "cuisine": "waffle", "diet:vegetarian": "yes", "drink:coffee": "yes", "drink:hot_chocolate": "yes", "drink:soda": "retail", "entrance:step_count": "0", "entrance:width": "3", "indoor_seating": "no", "level": "0", "name": "Chez Albert", "opening_hours": "07:00-20:00", "outdoor_seating": "no", "payment:cash": "no", "payment:credit_cards": "yes", "payment:debit_cards": "yes", "takeaway": "only", "website": "https://www.chezalbert.be/", "wheelchair": "yes", "wheelchair:turning_circle": "yes"}}, {"type": "node", "id": 11811588847, "lat": 50.836859, "lon": 4.3343528, "tags": {"amenity": "cafe", "indoor_seating": "yes", "name": "Le comptoir des salades", "opening_hours": "Mo-Fr 11:00-20:00", "outdoor_seating": "yes"}}, {"type": "node", "id": 11947838392, "lat": 50.8362438, "lon": 4.3343267, "tags": {"amenity": "cafe", "changing_table": "no", "changing_table:adult": "no", "check_date:opening_hours": "2024-06-09", "entrance:step_count": "0", "entrance:width": "1.2", "level": "0", "name": "Java", "opening_hours:signed": "no", "wheelchair:turning_circle": "yes"}}, {"type": "node", "id": 11952285848, "lat": 50.8360012, "lon": 4.3372003, "tags": {"amenity": "cafe", "indoor_seating": "no", "level": "0", "name": "Java", "outdoor_seating": "no", "takeaway": "only"}}, {"type": "node", "id": 12074173218, "lat": 50.8258006, "lon": 4.3467342, "tags": {"amenity": "cafe", "contact:website": "https://cafelapompe.be/", "indoor_seating": "yes", "name": "Caf\u00e9 La Pompe", "opening_hours": "Mo-Su,PH 08:00-01:00; Su 08:00-01:00; Fr,Sa 08:00-02:00", "outdoor_seating": "yes"}}, {"type": "node", "id": 12100286259, "lat": 50.836588, "lon": 4.3340006, "tags": {"amenity": "cafe", "indoor_seating": "yes", "name": "Taverne Horta", "outdoor_seating": "yes"}}, {"type": "node", "id": 12222861503, "lat": 50.8310344, "lon": 4.3561678, "tags": {"amenity": "cafe", "name": "Stella Coffee Bar", "website": "https://stellacoffeebar.wixsite.com/stellacoffeebar"}}, {"type": "node", "id": 12335442556, "lat": 50.8386939, "lon": 4.3416099, "tags": {"amenity": "cafe", "check_date": "2024-04-05", "name": "Cobra Jaune"}}, {"type": "node", "id": 12335442557, "lat": 50.838627, "lon": 4.3416247, "tags": {"amenity": "cafe", "check_date": "2024-04-05", "name": "Iberia"}}, {"type": "node", "id": 12568071404, "lat": 50.82709, "lon": 4.3558317, "tags": {"amenity": "cafe", "contact:website": "https://lenewchattouille.be", "name": "Le New Chattouille", "opening_hours": "Th-Fr 17:00-21:00; Sa-Su 13:00-20:00", "start_date": "2014", "theme": "cat"}}, {"type": "node", "id": 12581469272, "lat": 50.8237375, "lon": 4.3429621, "tags": {"amenity": "cafe", "indoor_seating": "yes", "name": "El Loco", "outdoor_seating": "yes"}}, {"type": "node", "id": 12581484289, "lat": 50.8241242, "lon": 4.3431015, "tags": {"amenity": "cafe", "indoor_seating": "yes", "name": "Amarantino", "outdoor_seating": "yes"}}, {"type": "node", "id": 12581487012, "lat": 50.8235381, "lon": 4.3428568, "tags": {"amenity": "cafe", "indoor_seating": "yes", "name": "Le Time", "outdoor_seating": "yes"}}, {"type": "node", "id": 12740755712, "lat": 50.8251383, "lon": 4.3487829, "tags": {"amenity": "cafe", "indoor_seating": "yes", "outdoor_seating": "yes"}}, {"type": "node", "id": 12754332818, "lat": 50.8376218, "lon": 4.3458336, "tags": {"amenity": "cafe", "bar": "yes", "check_date": "2025-04-14", "diet:vegetarian": "yes", "indoor_seating": "yes", "name": "Muche Bistrot", "outdoor_seating": "sidewalk", "payment:credit_cards": "yes", "payment:debit_cards": "yes"}}, {"type": "node", "id": 13007376925, "lat": 50.8346806, "lon": 4.3458107, "tags": {"air_conditioning": "no", "amenity": "cafe", "bar": "yes", "changing_table": "no", "check_date": "2025-07-17", "check_date:diet:gluten_free": "2025-07-17", "check_date:diet:vegetarian": "2025-07-17", "cuisine": "pasta;bistro;local", "delivery": "no", "diet:gluten_free": "no", "diet:omnivore": "yes", "diet:vegetarian": "no", "drive_through": "no", "highchair": "no", "internet_access": "no", "name": "Le Ketje", "organic": "no", "outdoor_seating": "yes", "payment:cash": "yes", "payment:credit_cards": "yes", "payment:debit_cards": "yes", "smoking": "no", "takeaway": "no", "toilets": "yes", "toilets:menstrual_products": "no", "toilets:wheelchair": "yes", "wheelchair": "limited"}}, {"type": "node", "id": 13135241448, "lat": 50.8260106, "lon": 4.3468549, "tags": {"amenity": "cafe", "contact:instagram": "https://www.instagram.com/solti.bxl", "contact:website": "https://solti.be", "cuisine": "coffee_shop", "name": "Solti"}}, {"type": "node", "id": 13159406392, "lat": 50.8254807, "lon": 4.3480441, "tags": {"amenity": "cafe", "cuisine": "coffee_shop", "indoor_seating": "yes", "name": "Mauvais \u00c9l\u00e8ve", "outdoor_seating": "sidewalk"}}, {"type": "node", "id": 13236025238, "lat": 50.8370766, "lon": 4.3403652, "tags": {"amenity": "cafe", "check_date": "2025-10-16", "name": "Caf\u00e9 de l'Argonne"}}]}