{"version": 0.6, "generator": "Overpass API 0.7.62.10 2d4cfc48", "osm3s": {"timestamp_osm_base": "2026-02-02T18:08:24Z", "copyright": "The data included in this document is from www.openstreetmap.org. The data is made available under ODbL."}, "elements": [{"type": "node", "id": 2344179033, "lat": 50.8510014, "lon": 4.4508453, "tags": {"amenity": "pub", "name": "The Manhattan caf\u00e9", "toilets:wheelchair": "no", "wheelchair": "yes", "wheelchair:description": "WC downstairs"}}, {"type": "node", "id": 8494412224, "lat": 50.8509593, "lon": 4.4514793, "tags": {"amenity": "pub", "check_date:opening_hours": "2025-10-29", "name": "Point Bar", "opening_hours:signed": "no"}}, {"type": "node", "id": 8665200659, "lat": 50.850211, "lon": 4.4535702, "tags": {"amenity": "pub", "brewery": "yes;various", "level": "0", "live_music": "yes", "name": "Courant d'Air", "operator": "Kap Courant d'Air"}}, {"type": "node", "id": 8674222790, "lat": 50.849857, "lon": 4.4531423, "tags": {"amenity": "bar", "brewery": "yes;various", "contact:phone": "+32 2 762 64 59", "level": "1", "name": "Ad Hoc"}}, {"type": "node", "id": 8675702412, "lat": 50.8504779, "lon": 4.453393, "tags": {"alt_name": "Royal Cercle M\u00e9dical Saint-Luc", "amenity": "nightclub", "contact:website": "https://www.cerclememe.be/accueil", "fraternity:network": "Cercles \u00e9tudiants de l'UCLouvain", "level": "0;1", "name": "Cercle M\u00e9m\u00e9", "short_name": "M\u00e9m\u00e9", "social_centre": "fraternity", "wikipedia": "fr:Cercles \u00e9tudiants de l'UCLouvain"}}, {"type": "node", "id": 8675702413, "lat": 50.8506541, "lon": 4.4528368, "tags": {"amenity": "nightclub", "fraternity:network": "Cercles \u00e9tudiants de l'UCLouvain", "level": "-1", "name": "Cercle Pharma", "short_name": "Pharma", "social_centre": "fraternity", "wikipedia": "fr:Cercles \u00e9tudiants de l'UCLouvain"}}, {"type": "node", "id": 8692882105, "lat": 50.8505506, "lon": 4.4527922, "tags": {"amenity": "nightclub", "fraternity:network": "Cercles \u00e9tudiants de l'UCLouvain", "level": "-1", "name": "Cercle Spix", "short_name": "Spix", "social_centre": "fraternity", "wikipedia": "fr:Cercles \u00e9tudiants de l'UCLouvain"}}]}