{"version": 0.6, "generator": "Overpass API 0.7.62.10 2d4cfc48", "osm3s": {"timestamp_osm_base": "2026-02-10T16:15:45Z", "copyright": "The data included in this document is from www.openstreetmap.org. The data is made available under ODbL."}, "elements": [{"type": "node", "id": 2391421081, "lat": 50.8167381, "lon": 4.3376026}, {"type": "node", "id": 2391421083, "lat": 50.8167406, "lon": 4.3377297}, {"type": "node", "id": 2391421097, "lat": 50.8167467, "lon": 4.3375851}, {"type": "node", "id": 2391421113, "lat": 50.816755, "lon": 4.3375681}, {"type": "node", "id": 2391421183, "lat": 50.8168163, "lon": 4.3375344}, {"type": "node", "id": 2391421197, "lat": 50.8168353, "lon": 4.3377259}, {"type": "node", "id": 2391421216, "lat": 50.8168674, "lon": 4.337501}, {"type": "node", "id": 2391421255, "lat": 50.8168934, "lon": 4.3377229}, {"type": "node", "id": 2391421282, "lat": 50.816914, "lon": 4.3376446}, {"type": "node", "id": 2391421311, "lat": 50.816939, "lon": 4.3377208}, {"type": "node", "id": 4039260132, "lat": 50.8212014, "lon": 4.3415672}, {"type": "node", "id": 4039260133, "lat": 50.8212609, "lon": 4.3415689}, {"type": "node", "id": 4039315154, "lat": 50.8214031, "lon": 4.3415701}, {"type": "node", "id": 7471491564, "lat": 50.8162151, "lon": 4.3373264, "tags": {"amenity": "restaurant", "contact:facebook": "100063671225415", "contact:instagram": "cosicome_pizzeria", "contact:phone": "+32 2 345 48 09", "contact:website": "https://www.cosicome.be/", "cuisine": "pizza", "diet:vegetarian": "yes", "indoor_seating": "yes", "name": "Cosi Com'\u00e8", "opening_hours": "Mo-Fr 12:00-15:00,18:00-23:00; Sa,Su 18:00-23:00", "outdoor_seating": "yes"}}, {"type": "node", "id": 8079107297, "lat": 50.821367, "lon": 4.3418795}, {"type": "node", "id": 8079107298, "lat": 50.8212058, "lon": 4.3418115}, {"type": "node", "id": 8079107299, "lat": 50.8212329, "lon": 4.3416559}, {"type": "node", "id": 8079107304, "lat": 50.8213924, "lon": 4.3417239}, {"type": "node", "id": 9971232691, "lat": 50.8212683, "lon": 4.3418378, "tags": {"access": "private", "addr:housenumber": "131", "addr:street": "Avenue Besme - Besmelaan", "description": "Staff entrance", "entrance": "service", "ref:UrbIS": "157560191"}}, {"type": "node", "id": 10314034409, "lat": 50.8158042, "lon": 4.3371329, "tags": {"amenity": "restaurant", "contact:email": "mangiavinoaltitude100@gmail.com", "contact:facebook": "MangiavinoAltitude100", "contact:instagram": "mangiavino_bxl", "contact:mobile": "+32 475 90 78 08", "contact:website": "https://www.mangiavino.be", "cuisine": "italian", "name": "Mangiavino", "opening_hours": "We-Su 17:00-22:00"}}, {"type": "node", "id": 11012632350, "lat": 50.8212255, "lon": 4.3416351, "tags": {"entrance": "yes"}}, {"type": "node", "id": 12213682132, "lat": 50.8160635, "lon": 4.3377579, "tags": {"amenity": "restaurant", "contact:facebook": "https://www.facebook.com/lombric.bxl", "cuisine": "french;diner;bistro", "diet:local": "yes", "diet:meat": "yes", "diet:organic": "yes", "diet:vegetarian": "yes", "name": "Lombric"}}, {"type": "node", "id": 12213682133, "lat": 50.8158601, "lon": 4.3370671, "tags": {"amenity": "restaurant", "check_date": "2024-10-04", "contact:website": "https://www.picpoul.be/", "cuisine": "french;bistro;diner;brunch", "diet:healthy": "yes", "diet:local": "yes", "diet:meat": "yes", "diet:vegetarian": "yes", "name": "Picpoul"}}, {"type": "way", "id": 835068428, "nodes": [2391421083, 2391421197, 2391421255, 2391421311, 2391421282, 2391421216, 2391421183, 2391421113, 2391421097, 2391421081, 2391421083], "tags": {"amenity": "restaurant", "contact:phone": "+32 2 343 38 09", "contact:website": "https://schievelavaboforest.be/", "cuisine": "regional", "diet:vegetarian": "no", "indoor_seating": "yes", "internet_access": "wlan", "internet_access:fee": "customers", "name": "Schievelavabo", "opening_hours": "Mo,Tu 12:00-22:45; We 12:00-22:45; Th,Fr 12:00-23:00; Sa 18:30-23:00; Su 18:00-22:00", "outdoor_seating": "yes", "payment:cash": "yes", "payment:maestro": "yes", "payment:mastercard": "yes", "payment:meal_voucher": "yes", "payment:visa": "yes", "takeaway": "yes"}}, {"type": "way", "id": 1185551586, "nodes": [4039315154, 8079107304, 8079107297, 9971232691, 8079107298, 8079107299, 11012632350, 4039260132, 4039260133, 4039315154], "tags": {"amenity": "restaurant", "check_date": "2025-10-29", "contact:email": "info@thejoyrestaurant.be", "contact:instagram": "joy.brussels", "contact:phone": "+32 2 216 19 52", "contact:website": "https://thejoy.be/", "indoor_seating": "yes", "name": "Joy", "opening_hours": "Mo off; Tu 18:00-22:00; We,Th 12:00-22:00; Fr 12:00-23:00; Sa 11:00-23:00; Su 11:00-16:00", "outdoor_seating": "yes"}}]}