{"version": 0.6, "generator": "Overpass API 0.7.62.10 2d4cfc48", "osm3s": {"timestamp_osm_base": "2026-02-02T21:36:00Z", "copyright": "The data included in this document is from www.openstreetmap.org. The data is made available under ODbL."}, "elements": [{"type": "node", "id": 6266237277, "lat": 50.8407556, "lon": 4.3371301, "tags": {"amenity": "pub", "brewery": "Ermitage", "contact:facebook": "https://www.facebook.com/ermitagenanobrasserie/", "contact:phone": "+32 2 520 51 11", "contact:website": "https://ermitagenanobrasserie.be/", "food": "no", "internet_access": "wlan", "microbrewery": "yes", "name": "L'Ermitage Nanobrasserie", "opening_hours": "Fr,Sa 14:00-22:00"}}, {"type": "node", "id": 6528013885, "lat": 50.8389346, "lon": 4.334871, "tags": {"amenity": "bar", "name": "Bar Bizi-2"}}, {"type": "node", "id": 6528014086, "lat": 50.8391557, "lon": 4.3331519, "tags": {"amenity": "bar", "name": "The Twin\u2018s Bar"}}, {"type": "node", "id": 11947843434, "lat": 50.8368037, "lon": 4.335253, "tags": {"amenity": "pub", "changing_table": "no", "changing_table:adult": "no", "check_date": "2025-10-06", "check_date:opening_hours": "2024-06-09", "contact:email": "cafe.bogard@ssp-be.com", "contact:website": "https://www.cafebogard.be/", "diet:vegan": "no", "entrance:step_count": "0", "entrance:width": "1.5", "food": "yes", "indoor_seating": "yes", "level": "0", "name": "Caf\u00e9 Bogard", "opening_hours:signed": "no", "outdoor_seating": "no", "payment:cards": "yes", "reservation": "yes", "toilets": "yes", "toilets:access": "customers", "wheelchair:turning_circle": "yes"}}, {"type": "node", "id": 12255042343, "lat": 50.8393371, "lon": 4.3254532, "tags": {"amenity": "bar", "name": "Poney Express"}}]}