{"version": 0.6, "generator": "Overpass API 0.7.62.10 2d4cfc48", "osm3s": {"timestamp_osm_base": "2026-02-02T16:07:44Z", "copyright": "The data included in this document is from www.openstreetmap.org. The data is made available under ODbL."}, "elements": [{"type": "node", "id": 144189025, "lat": 50.8211607, "lon": 4.3437603, "tags": {"location": "underground", "name": "Albert", "public_transport": "stop_position", "railway": "tram_stop", "tram": "yes"}}, {"type": "node", "id": 148801077, "lat": 50.8194382, "lon": 4.3367878, "tags": {"name": "Jupiter", "public_transport": "stop_position", "railway": "tram_stop", "tram": "yes"}}, {"type": "node", "id": 234693119, "lat": 50.8244211, "lon": 4.335998, "tags": {"name": "Rochefort", "public_transport": "stop_position", "railway": "tram_stop", "tram": "yes"}}, {"type": "node", "id": 234693191, "lat": 50.8207678, "lon": 4.3257891, "tags": {"name": "Union", "public_transport": "stop_position", "railway": "tram_stop", "tram": "yes"}}, {"type": "node", "id": 234693201, "lat": 50.8139956, "lon": 4.3249287, "tags": {"name": "Zaman-Forest National - Zaman-Vorst Nationaal", "name:fr": "Zaman-Forest National", "name:nl": "Zaman-Vorst Nationaal", "public_transport": "stop_position", "railway": "tram_stop", "tram": "yes"}}, {"type": "node", "id": 348188233, "lat": 50.8136202, "lon": 4.3248401, "tags": {"name": "Zaman-Forest National - Zaman-Vorst Nationaal", "name:fr": "Zaman-Forest National", "name:nl": "Zaman-Vorst Nationaal", "public_transport": "stop_position", "railway": "tram_stop", "tram": "yes"}}, {"type": "node", "id": 495260478, "lat": 50.8173842, "lon": 4.3253664, "tags": {"name": "Ch\u00e2taignes - Kastanjes", "name:fr": "Ch\u00e2taignes", "name:nl": "Kastanjes", "public_transport": "stop_position", "railway": "tram_stop", "tram": "yes"}}, {"type": "node", "id": 3115600088, "lat": 50.8026849, "lon": 4.315512, "tags": {"name": "Bempt", "public_transport": "stop_position", "railway": "tram_stop", "tram": "yes"}}, {"type": "node", "id": 3115600093, "lat": 50.8026055, "lon": 4.3156988, "tags": {"name": "Bempt", "public_transport": "stop_position", "railway": "tram_stop", "tram": "yes"}}, {"type": "node", "id": 3115600155, "lat": 50.8067356, "lon": 4.3145335, "tags": {"name": "Max Waller", "public_transport": "stop_position", "railway": "tram_stop", "tram": "yes"}}, {"type": "node", "id": 3115600167, "lat": 50.8068067, "lon": 4.3147052, "tags": {"name": "Max Waller", "public_transport": "stop_position", "railway": "tram_stop", "tram": "yes"}}, {"type": "node", "id": 3115600232, "lat": 50.8098559, "lon": 4.317586, "tags": {"name": "Saint-Denis - Sint-Denijs", "name:fr": "Saint-Denis", "name:nl": "Sint-Denijs", "public_transport": "stop_position", "railway": "tram_stop", "tram": "yes"}}, {"type": "node", "id": 3115600263, "lat": 50.8115634, "lon": 4.3187377, "tags": {"name": "Saint-Denis - Sint-Denijs", "name:fr": "Saint-Denis", "name:nl": "Sint-Denijs", "public_transport": "stop_position", "railway": "tram_stop", "tram": "yes"}}, {"type": "node", "id": 3115600342, "lat": 50.8129439, "lon": 4.3227046, "tags": {"name": "Monaco", "public_transport": "stop_position", "railway": "tram_stop", "tram": "yes"}}, {"type": "node", "id": 3115600437, "lat": 50.8170101, "lon": 4.3252302, "tags": {"name": "Ch\u00e2taignes - Kastanjes", "name:fr": "Ch\u00e2taignes", "name:nl": "Kastanjes", "public_transport": "stop_position", "railway": "tram_stop", "tram": "yes"}}, {"type": "node", "id": 3115600526, "lat": 50.8235812, "lon": 4.3260768, "tags": {"name": "Wiels", "public_transport": "stop_position", "railway": "tram_stop", "tram": "yes"}}, {"type": "node", "id": 3115600755, "lat": 50.8242342, "lon": 4.3299696, "tags": {"name": "Berthelot", "public_transport": "stop_position", "railway": "tram_stop", "tram": "yes"}}, {"type": "node", "id": 3115600813, "lat": 50.8243508, "lon": 4.3354974, "tags": {"name": "Rochefort", "public_transport": "stop_position", "railway": "tram_stop", "tram": "yes"}}, {"type": "node", "id": 3124858966, "lat": 50.8165449, "lon": 4.3497824, "tags": {"name": "Moli\u00e8re", "public_transport": "stop_position", "railway": "tram_stop", "tram": "yes"}}, {"type": "node", "id": 3139105672, "lat": 50.8144487, "lon": 4.3474532, "tags": {"name": "Vanderkindere", "public_transport": "stop_position", "railway": "tram_stop", "tram": "yes"}}, {"type": "node", "id": 3139105684, "lat": 50.8176661, "lon": 4.3461712, "tags": {"name": "Berkendael - Berkendaal", "name:fr": "Berkendael", "name:nl": "Berkendaal", "public_transport": "stop_position", "railway": "tram_stop", "tram": "yes"}}, {"type": "node", "id": 3139105695, "lat": 50.8180756, "lon": 4.3460512, "tags": {"name": "Berkendael - Berkendaal", "name:fr": "Berkendael", "name:nl": "Berkendaal", "public_transport": "stop_position", "railway": "tram_stop", "tram": "yes"}}, {"type": "node", "id": 3141592622, "lat": 50.8241835, "lon": 4.3274464, "tags": {"name": "Wiels", "public_transport": "stop_position", "railway": "tram_stop", "tram": "yes"}}, {"type": "node", "id": 3141593461, "lat": 50.824881, "lon": 4.326311, "tags": {"name": "Wiels", "public_transport": "stop_position", "railway": "tram_stop", "tram": "yes"}}, {"type": "node", "id": 3141593501, "lat": 50.8269205, "lon": 4.3271562, "tags": {"name": "Orban", "public_transport": "stop_position", "railway": "tram_stop", "tram": "yes"}}, {"type": "node", "id": 3141593509, "lat": 50.8272678, "lon": 4.3274751, "tags": {"name": "Orban", "public_transport": "stop_position", "railway": "tram_stop", "tram": "yes"}}, {"type": "node", "id": 3141593561, "lat": 50.8289255, "lon": 4.3292491, "tags": {"name": "Imprimerie - Drukkerij", "name:fr": "Imprimerie", "name:nl": "Drukkerij", "public_transport": "stop_position", "railway": "tram_stop", "tram": "yes"}}, {"type": "node", "id": 3267600523, "lat": 50.8196048, "lon": 4.3371403, "tags": {"name": "Jupiter", "public_transport": "stop_position", "railway": "tram_stop", "tram": "yes"}}, {"type": "node", "id": 4688960473, "lat": 50.8169283, "lon": 4.3371392, "tags": {"name": "Altitude Cent - Hoogte Honderd", "name:fr": "Altitude Cent", "name:nl": "Hoogte Honderd", "public_transport": "stop_position", "railway": "tram_stop", "tram": "yes"}}, {"type": "node", "id": 4688960513, "lat": 50.8165577, "lon": 4.3361947, "tags": {"name": "Altitude Cent - Hoogte Honderd", "name:fr": "Altitude Cent", "name:nl": "Hoogte Honderd", "public_transport": "stop_position", "railway": "tram_stop", "tram": "yes"}}, {"type": "node", "id": 4963924934, "lat": 50.8189703, "lon": 4.3513187, "tags": {"name": "Darwin", "public_transport": "stop_position", "railway": "tram_stop", "tram": "yes"}}, {"type": "node", "id": 4963924935, "lat": 50.8181419, "lon": 4.3507513, "tags": {"name": "Darwin", "public_transport": "stop_position", "railway": "tram_stop", "tram": "yes"}}, {"type": "node", "id": 5137643590, "lat": 50.8253137, "lon": 4.3386392, "tags": {"name": "Combaz", "public_transport": "stop_position", "railway": "tram_stop", "tram": "yes"}}, {"type": "node", "id": 5137679011, "lat": 50.8242203, "lon": 4.3311245, "tags": {"name": "Berthelot", "public_transport": "stop_position", "railway": "tram_stop", "tram": "yes"}}, {"type": "node", "id": 5176414952, "lat": 50.8128927, "lon": 4.3229008, "tags": {"name": "Monaco", "public_transport": "stop_position", "railway": "tram_stop", "tram": "yes"}}, {"type": "node", "id": 5178432929, "lat": 50.8194893, "lon": 4.3255412, "tags": {"name": "Union", "public_transport": "stop_position", "railway": "tram_stop", "tram": "yes"}}, {"type": "node", "id": 11101734503, "lat": 50.8210091, "lon": 4.3414645, "tags": {"name": "Albert", "public_transport": "stop_position", "railway": "tram_stop", "tram": "yes"}}, {"type": "node", "id": 11101734504, "lat": 50.8208348, "lon": 4.3408782, "tags": {"name": "Albert", "public_transport": "stop_position", "railway": "tram_stop", "tram": "yes"}}]}