{"version": 0.6, "generator": "Overpass API 0.7.62.10 2d4cfc48", "osm3s": {"timestamp_osm_base": "2026-02-02T21:36:00Z", "copyright": "The data included in this document is from www.openstreetmap.org. The data is made available under ODbL."}, "elements": [{"type": "node", "id": 4638171790, "lat": 50.8381279, "lon": 4.3316277, "tags": {"amenity": "cafe", "name": "Colorado"}}, {"type": "node", "id": 4873995895, "lat": 50.8370959, "lon": 4.3367589, "tags": {"amenity": "cafe", "brand": "Starbucks", "brand:wikidata": "Q37158", "brand:wikipedia": "en:Starbucks", "cuisine": "coffee_shop", "layer": "-2", "level": "-2", "location": "underground", "name": "Starbucks", "official_name": "Starbucks Coffee", "operator": "Starbucks", "takeaway": "yes"}}, {"type": "node", "id": 6289589458, "lat": 50.8360113, "lon": 4.3332344, "tags": {"access": "customers", "amenity": "cafe", "check_date": "2024-04-21", "indoor_seating": "yes", "level": "0", "location": "indoor", "name": "Eurostar Lounge", "opening_hours": "Mo-Fr 06:00-21:15; Sa 07:00-20:50; Su 08:00-21:50", "operator": "Thalys", "outdoor_seating": "no"}}, {"type": "node", "id": 6528014085, "lat": 50.8391512, "lon": 4.3339321, "tags": {"amenity": "cafe", "name": "Caf\u00e9 Chaplin"}}, {"type": "node", "id": 7171191695, "lat": 50.8366847, "lon": 4.335722, "tags": {"amenity": "cafe", "changing_table": "no", "changing_table:adult": "no", "check_date": "2025-03-17", "check_date:opening_hours": "2024-03-16", "cuisine": "sandwich", "diet:vegetarian": "yes", "drinking_water": "yes", "entrance:step_count": "0", "entrance:width": "1.4", "highchair": "yes", "indoor_seating": "yes", "internet_access": "no", "level": "0", "name": "Pret \u00e0 Manger", "opening_hours:signed": "no", "outdoor_seating": "no", "payment:contactless": "yes", "payment:credit_cards": "yes", "payment:debit_cards": "yes", "payment:mastercard": "yes", "payment:visa": "yes", "takeaway": "yes", "toilets": "no", "wheelchair": "yes", "wheelchair:turning_circle": "yes"}}, {"type": "node", "id": 10859987530, "lat": 50.8393435, "lon": 4.3395922, "tags": {"amenity": "cafe", "name": "Le Terminus"}}, {"type": "node", "id": 11811588847, "lat": 50.836859, "lon": 4.3343528, "tags": {"amenity": "cafe", "indoor_seating": "yes", "name": "Le comptoir des salades", "opening_hours": "Mo-Fr 11:00-20:00", "outdoor_seating": "yes"}}, {"type": "node", "id": 11947838392, "lat": 50.8362438, "lon": 4.3343267, "tags": {"amenity": "cafe", "changing_table": "no", "changing_table:adult": "no", "check_date:opening_hours": "2024-06-09", "entrance:step_count": "0", "entrance:width": "1.2", "level": "0", "name": "Java", "opening_hours:signed": "no", "wheelchair:turning_circle": "yes"}}, {"type": "node", "id": 12100286259, "lat": 50.836588, "lon": 4.3340006, "tags": {"amenity": "cafe", "indoor_seating": "yes", "name": "Taverne Horta", "outdoor_seating": "yes"}}]}