{"version": 0.6, "generator": "Overpass API 0.7.62.10 2d4cfc48", "osm3s": {"timestamp_osm_base": "2026-02-02T19:04:45Z", "copyright": "The data included in this document is from www.openstreetmap.org. The data is made available under ODbL."}, "elements": [{"type": "node", "id": 615505015, "lat": 50.8246237, "lon": 4.3358874, "tags": {"amenity": "restaurant", "cuisine": "french", "name": "Le Belle-Vue"}}, {"type": "node", "id": 2556641178, "lat": 50.8240423, "lon": 4.3317057, "tags": {"amenity": "restaurant", "check_date": "2023-11-08", "contact:phone": "+32 2 344 46 78", "cuisine": "vietnamese", "indoor_seating": "yes", "name": "Le Lotus du Vi\u00eat-Nam", "opening_hours": "Mo-Fr 11:00-15:00, 17:30-22:30; Sa-Su 17:30-22:30", "outdoor_seating": "no"}}, {"type": "node", "id": 3059109802, "lat": 50.8286785, "lon": 4.3354806, "tags": {"amenity": "restaurant", "cuisine": "brazilian", "name": "Boteco's"}}, {"type": "node", "id": 6699394785, "lat": 50.8218127, "lon": 4.3224099, "tags": {"amenity": "restaurant", "name": "Le Mistral - Taverne"}}, {"type": "node", "id": 7623051687, "lat": 50.8238773, "lon": 4.3242947, "tags": {"amenity": "restaurant", "contact:phone": "+32 2 345 63 86", "contact:website": "https://www.lepontdeluttre.be/", "cuisine": "pizza", "indoor_seating": "yes", "name": "Le Pont De Luttre", "opening_hours": "Mo-Sa 09:00-14:30, 17:00-22:30", "outdoor_seating": "yes"}}, {"type": "node", "id": 7904429285, "lat": 50.8240943, "lon": 4.3324638, "tags": {"amenity": "restaurant", "contact:mobile": "+32 467 71 55 74", "contact:website": "https://lesommetdedamas.business.site/", "indoor_seating": "yes", "name": "Le Sommet de Damas / \u0645\u0637\u0639\u0645 \u0642\u0645\u0629 \u0627\u0644\u0634\u0627\u0645", "opening_hours": "Mo-Su 12:00-00:00", "outdoor_seating": "no"}}, {"type": "node", "id": 10633599821, "lat": 50.8248306, "lon": 4.3365481, "tags": {"amenity": "restaurant", "contact:facebook": "https://www.facebook.com/lesenfantsdupiree1190/", "cuisine": "greek", "name": "Les Enfants du Pir\u00e9e"}}, {"type": "node", "id": 10832257005, "lat": 50.8242836, "lon": 4.3241434, "tags": {"amenity": "restaurant", "contact:website": "https://foret-asbl.be/", "indoor_seating": "yes", "name": "FOR.E.T.", "opening_hours": "Tu-Fr 12:00-15:00", "outdoor_seating": "no", "survey:date": "2023-11-26"}}, {"type": "node", "id": 11358126570, "lat": 50.8243937, "lon": 4.3314273, "tags": {"amenity": "restaurant", "indoor_seating": "yes", "name": "StreetWok", "opening_hours": "Tu-Su 11:30-01:00", "outdoor_seating": "no"}}, {"type": "node", "id": 12075226751, "lat": 50.8304472, "lon": 4.3351442, "tags": {"amenity": "restaurant", "contact:website": "https://refoodgees.eu/", "name": "Refoodgees", "opening_hours": "Mo-We 10:30-18:00; Th-Fr 10:30-22:00"}}]}