{"version": 0.6, "generator": "Overpass API 0.7.62.10 2d4cfc48", "osm3s": {"timestamp_osm_base": "2026-02-02T18:08:24Z", "copyright": "The data included in this document is from www.openstreetmap.org. The data is made available under ODbL."}, "elements": [{"type": "node", "id": 1641938238, "lat": 50.8039996, "lon": 4.3720254, "tags": {"amenity": "restaurant", "contact:phone": "+32 2 374 57 67", "contact:website": "https://www.il-carpaccio.be", "cuisine": "italian", "description": "Restaurant Il Carpaccio", "name": "Il Carpaccio"}}, {"type": "node", "id": 3020178451, "lat": 50.8046087, "lon": 4.365155, "tags": {"amenity": "restaurant", "contact:phone": "+32 2 374 33 15", "contact:website": "https://www.lefouchantant.be/", "cuisine": "french", "internet_access": "no", "name": "Le fou chantant", "smoking": "no", "wheelchair": "no"}}, {"type": "node", "id": 10011853317, "lat": 50.8019886, "lon": 4.3737197, "tags": {"amenity": "restaurant", "name": "La Pomme de Pin"}}, {"type": "node", "id": 11685293316, "lat": 50.7948486, "lon": 4.3646519, "tags": {"amenity": "restaurant", "indoor_seating": "yes", "name": "Le refuge", "outdoor_seating": "yes"}}, {"type": "node", "id": 11685293317, "lat": 50.7948615, "lon": 4.3647399, "tags": {"amenity": "restaurant", "cuisine": "thai", "name": "Thai Smile"}}, {"type": "node", "id": 12640367641, "lat": 50.8048329, "lon": 4.3720292, "tags": {"amenity": "restaurant", "check_date:opening_hours": "2025-03-06", "contact:phone": "+32 2 374 04 88", "contact:website": "https://shillasushi.com/", "cuisine": "japanese;sushi", "delivery": "yes", "name": "Shilla Sushi", "opening_hours": "Mo-Su 11:00-15:00,17:30-22:30; We off", "takeaway": "yes", "toilets": "yes"}}]}