{"version": 0.6, "generator": "Overpass API 0.7.62.10 2d4cfc48", "osm3s": {"timestamp_osm_base": "2026-02-02T15:57:45Z", "copyright": "The data included in this document is from www.openstreetmap.org. The data is made available under ODbL."}, "elements": [{"type": "node", "id": 385164012, "lat": 50.835761, "lon": 4.4396293, "tags": {"amenity": "cafe", "mapillary": "583194050068895", "name": "Le Pigeon Rapide"}}, {"type": "node", "id": 1668690602, "lat": 50.8276746, "lon": 4.4062135, "tags": {"amenity": "cafe", "name": "Le Phileon", "opening_hours:signed": "no", "wheelchair": "no"}}, {"type": "node", "id": 1678273407, "lat": 50.8367655, "lon": 4.431853, "tags": {"amenity": "cafe", "contact:phone": "+32 2 762 02 20", "name": "Le Stanje"}}, {"type": "node", "id": 3663612053, "lat": 50.8407372, "lon": 4.4652277, "tags": {"amenity": "cafe", "brand": "Le Pain Quotidien", "brand:wikidata": "Q2046903", "brand:wikipedia": "en:Le Pain Quotidien", "check_date:opening_hours": "2025-10-28", "cuisine": "coffee_shop", "diet:vegan": "yes", "diet:vegetarian": "yes", "name": "Le Pain Quotidien", "opening_hours": "Mo-Th 07:30-18:00; Fr 07:30-19:00; Su,PH 08:00-19:00", "takeaway": "yes", "wheelchair": "limited"}}, {"type": "node", "id": 3698510332, "lat": 50.8412389, "lon": 4.4638512, "tags": {"amenity": "cafe", "check_date:opening_hours": "2025-10-28", "name": "D\u00e9lices de Mon Moulin", "opening_hours:signed": "no", "wheelchair": "yes"}}, {"type": "node", "id": 3712579037, "lat": 50.8414058, "lon": 4.4650476, "tags": {"amenity": "cafe", "check_date:opening_hours": "2025-10-28", "name": "Square cafe", "opening_hours:signed": "no"}}, {"type": "node", "id": 4421727194, "lat": 50.8377305, "lon": 4.4069253, "tags": {"amenity": "cafe", "brand": "Starbucks", "brand:wikidata": "Q37158", "brand:wikipedia": "en:Starbucks", "cuisine": "coffee_shop", "diet:vegan": "yes", "diet:vegetarian": "yes", "indoor": "yes", "internet_access": "wlan", "internet_access:fee": "no", "level": "-2", "location": "underground", "name": "Starbucks", "official_name": "Starbucks Coffee", "operator": "Starbucks", "outdoor_seating": "no", "takeaway": "yes"}}, {"type": "node", "id": 5154784542, "lat": 50.8406474, "lon": 4.4643227, "tags": {"amenity": "cafe", "check_date:opening_hours": "2025-10-28", "name": "Wooly", "opening_hours:signed": "no"}}, {"type": "node", "id": 5303427268, "lat": 50.8401781, "lon": 4.466266, "tags": {"amenity": "cafe", "name": "Rhubarb", "opening_hours": "Mo-Fr 08:00-18:00; Sa 10:00-17:00"}}, {"type": "node", "id": 5663581083, "lat": 50.8410157, "lon": 4.4623301, "tags": {"amenity": "cafe", "email": "info@aconfesse.com", "name": "A Confesse", "outdoor_seating": "yes", "smoking": "outside", "website": "http://aconfesse.com"}}, {"type": "node", "id": 5767631252, "lat": 50.8413762, "lon": 4.464784, "tags": {"amenity": "cafe", "check_date:opening_hours": "2025-10-28", "name": "Caf\u00e9 Cr\u00e8me", "opening_hours:signed": "no"}}, {"type": "node", "id": 5796875613, "lat": 50.8400752, "lon": 4.4651729, "tags": {"amenity": "cafe", "name": "Germaine", "opening_hours": "We-Sa 09:00-18:00; Su 10:00-17:30"}}, {"type": "node", "id": 6004767069, "lat": 50.841394, "lon": 4.4649827, "tags": {"amenity": "cafe", "check_date:opening_hours": "2025-10-28", "name": "Square", "opening_hours:signed": "no"}}, {"type": "node", "id": 6776509134, "lat": 50.8281659, "lon": 4.461516, "tags": {"amenity": "cafe", "check_date:opening_hours": "2024-05-01", "contact:phone": "+32 2 779 27 63", "name": "Le Sainte-Alix", "opening_hours": "Mo-Fr 10:00-19:00; Sa 10:00-17:00", "opening_hours:kitchen": "Mo-Sa 12:00-14:30", "outdoor_seating": "yes"}}, {"type": "node", "id": 6776509135, "lat": 50.8284608, "lon": 4.4621861, "tags": {"amenity": "cafe", "check_date:opening_hours": "2024-05-01", "contact:instagram": "https://www.instagram.com/numero.42", "cuisine": "sandwich;turkish", "name": "Au 42", "opening_hours": "Mo-Sa 09:00-14:00", "takeaway": "yes"}}, {"type": "node", "id": 12116746041, "lat": 50.8270448, "lon": 4.4332945, "tags": {"amenity": "cafe", "name": "La Buvette d'Henriette"}}]}