{"version": 0.6, "generator": "Overpass API 0.7.62.10 2d4cfc48", "osm3s": {"timestamp_osm_base": "2026-02-10T15:08:30Z", "copyright": "The data included in this document is from www.openstreetmap.org. The data is made available under ODbL."}, "elements": [{"type": "node", "id": 2506177425, "lat": 50.8539885, "lon": 4.3503308}, {"type": "node", "id": 2506177434, "lat": 50.8539992, "lon": 4.3503332}, {"type": "node", "id": 2506177439, "lat": 50.8540091, "lon": 4.3501003}, {"type": "node", "id": 2506177446, "lat": 50.8540192, "lon": 4.3501026}, {"type": "node", "id": 2506177547, "lat": 50.8541217, "lon": 4.3503589}, {"type": "node", "id": 2506177556, "lat": 50.8541322, "lon": 4.3503612}, {"type": "node", "id": 2506177565, "lat": 50.8541418, "lon": 4.3501275}, {"type": "node", "id": 2506177566, "lat": 50.854142, "lon": 4.3502431}, {"type": "node", "id": 2506177578, "lat": 50.8541515, "lon": 4.3501295}, {"type": "node", "id": 2509495859, "lat": 50.8515638, "lon": 4.3502904, "tags": {"amenity": "bar", "contact:facebook": "https://www.facebook.com/pages/category/Pub/Marcelle-debit-de-boissons--201972733892892/", "contact:mobile": "+32 499 60 70 24", "name": "Marcelle"}}, {"type": "node", "id": 2509496153, "lat": 50.8523942, "lon": 4.3526452, "tags": {"amenity": "bar", "name": "Tropical"}}, {"type": "node", "id": 2509496324, "lat": 50.8513624, "lon": 4.3488258}, {"type": "node", "id": 2509496365, "lat": 50.8514718, "lon": 4.3490892}, {"type": "node", "id": 2509496374, "lat": 50.8514882, "lon": 4.349128}, {"type": "node", "id": 2509496376, "lat": 50.8514914, "lon": 4.348734}, {"type": "node", "id": 2509496380, "lat": 50.8515043, "lon": 4.3491662}, {"type": "node", "id": 2509496392, "lat": 50.8515186, "lon": 4.3492002}, {"type": "node", "id": 2509496429, "lat": 50.8515682, "lon": 4.3491233}, {"type": "node", "id": 2509496433, "lat": 50.8515714, "lon": 4.3489599}, {"type": "node", "id": 2509496464, "lat": 50.8516193, "lon": 4.349046}, {"type": "node", "id": 3887369222, "lat": 50.853408, "lon": 4.3517124, "tags": {"amenity": "bar", "check_date": "2025-11-02", "name": "Le Cirque", "opening_hours": "24/7"}}, {"type": "node", "id": 4318626414, "lat": 50.8512807, "lon": 4.3489356, "tags": {"amenity": "bar", "name": "Le Ket de Bruxelles", "opening_hours:signed": "no"}}, {"type": "node", "id": 4329723943, "lat": 50.8515439, "lon": 4.3487543, "tags": {"amenity": "bar", "name": "Skylab", "opening_hours": "We,Th 15:00-21:00; Fr,Sa 15:00-24:00; Su 14:00-20:00", "opening_hours:signed": "no"}}, {"type": "node", "id": 4418632897, "lat": 50.8564732, "lon": 4.3523693, "tags": {"amenity": "pub", "name": "The Black Beard", "name:nl": "De Zwartbaard", "payment:cards": "no", "payment:cash": "yes"}}, {"type": "node", "id": 5838067554, "lat": 50.8539985, "lon": 4.3502172, "tags": {"barrier": "gate"}}, {"type": "node", "id": 10300158335, "lat": 50.8513719, "lon": 4.3488191, "tags": {"addr:housenumber": "5", "addr:street": "Quai au Bois \u00e0 Br\u00fbler - Brandhoutkaai", "entrance": "main", "ref:UrbIS": "8318091"}}, {"type": "node", "id": 10300158336, "lat": 50.8514339, "lon": 4.3487749, "tags": {"addr:housenumber": "7", "addr:street": "Quai au Bois \u00e0 Br\u00fbler - Brandhoutkaai", "entrance": "garage", "ref:UrbIS": "8318091"}}, {"type": "node", "id": 10870462702, "lat": 50.8559878, "lon": 4.3528069, "tags": {"amenity": "bar", "contact:phone": "+32 2 219 77 47", "contact:website": "https://flamingobrussel.be/", "cuisine": "coffee_shop", "indoor_seating": "yes", "internet_access": "wlan", "name": "Flamingo", "opening_hours": "Mo-We 08:00-00:00; Th-Fr 08:00-01:00; Sa 10:00-01:00; Su 10:00-23:00", "outdoor_seating": "yes", "payment:bancontact": "yes", "payment:cash": "yes", "payment:mastercard": "yes", "payment:payconiq": "yes", "payment:visa": "yes"}}, {"type": "node", "id": 11061483795, "lat": 50.851818, "lon": 4.3485655, "tags": {"amenity": "bar", "check_date": "2025-08-11", "name": "Made in Kat", "opening_hours": "Su-Tu 08:00-19:00; We-Sa 08:00-21:00"}}, {"type": "node", "id": 11137308166, "lat": 50.85611, "lon": 4.3545015, "tags": {"amenity": "pub", "name": "'t Genot"}}, {"type": "node", "id": 11274871909, "lat": 50.8541123, "lon": 4.3539837, "tags": {"amenity": "pub", "check_date": "2024-04-19", "fixme": "Outdoor display still visible but it looks like the place is permanently closed; to confirm on the next survey", "name": "City 54"}}, {"type": "node", "id": 11411988611, "lat": 50.8541231, "lon": 4.3498831, "tags": {"addr:unit": "E5;E6", "amenity": "pub", "contact:website": "https://nl.gansbeek.be/", "level": "1", "microbrewery": "yes", "name": "Gansbeek", "opening_hours": "\"by appointment\"", "operator:type": "cooperative", "panoramax": "efb6a8b4-2739-490b-b48e-ce8cde70e539"}}, {"type": "node", "id": 12206683844, "lat": 50.8517865, "lon": 4.350625, "tags": {"amenity": "bar", "contact:email": "eat@cafebeguin.be", "contact:facebook": "https://www.facebook.com/cafebeguinbxl", "contact:instagram": "https://www.instagram.com/cafebeguinbxl/", "contact:phone": "+32 2 217 76 22", "contact:website": "http://www.cafebeguin.be/", "cuisine": "african", "diet:vegan": "yes", "name": "Caf\u00e9 B\u00e9guin", "opening_hours": "Mo-Su 11:00-00:00", "outdoor_seating": "yes"}}, {"type": "way", "id": 243559866, "nodes": [2509496376, 2509496433, 2509496464, 2509496429, 2509496392, 2509496380, 2509496374, 2509496365, 2509496324, 10300158335, 10300158336, 2509496376], "tags": {"amenity": "nightclub", "contact:instagram": "madamemoustachebrussels", "contact:website": "https://www.madamemoustache.be/", "name": "Madame Moustache", "opening_hours": "Mo off; Tu-Sa 20:00-04:00; Su off", "smoking": "isolated", "wikidata": "Q42416762", "wikimedia_commons": "Category:Madame Moustache (Brussels)"}}, {"type": "way", "id": 1030779576, "nodes": [2506177446, 2506177565, 2506177578, 2506177566, 2506177556, 2506177547, 2506177434, 2506177425, 5838067554, 2506177439, 2506177446], "tags": {"amenity": "bar", "building:part": "yes", "contact:website": "https://www.grand-hospice.brussels/jardin/", "level": "1", "name": "Jardin Hospice", "outdoor_seating": "garden"}}]}