{"version": 0.6, "generator": "Overpass API 0.7.62.10 2d4cfc48", "osm3s": {"timestamp_osm_base": "2026-02-02T18:10:28Z", "copyright": "The data included in this document is from www.openstreetmap.org. The data is made available under ODbL."}, "elements": [{"type": "node", "id": 1140972418, "lat": 50.8474427, "lon": 4.463244, "tags": {"amenity": "school", "check_date": "2025-07-28", "name": "Basisschool De Zonnewijzer"}}, {"type": "node", "id": 1267881049, "lat": 50.843692, "lon": 4.4458977}, {"type": "node", "id": 1267881051, "lat": 50.8439333, "lon": 4.4472889}, {"type": "node", "id": 1267881053, "lat": 50.8439132, "lon": 4.4461409}, {"type": "node", "id": 1267881055, "lat": 50.8438341, "lon": 4.4463283}, {"type": "node", "id": 1267881064, "lat": 50.8438155, "lon": 4.4469318}, {"type": "node", "id": 1267881066, "lat": 50.8435153, "lon": 4.4476151}, {"type": "node", "id": 1267881070, "lat": 50.843184, "lon": 4.4463588}, {"type": "node", "id": 1267881073, "lat": 50.843284, "lon": 4.4463099}, {"type": "node", "id": 1267881075, "lat": 50.8432368, "lon": 4.445885}, {"type": "node", "id": 1267881076, "lat": 50.8435674, "lon": 4.4458134}, {"type": "node", "id": 1539771688, "lat": 50.8501385, "lon": 4.4432735}, {"type": "node", "id": 1781654018, "lat": 50.8498012, "lon": 4.4439084}, {"type": "node", "id": 1781654044, "lat": 50.8500689, "lon": 4.4433281}, {"type": "node", "id": 1781654051, "lat": 50.8499979, "lon": 4.4428683}, {"type": "node", "id": 1781654057, "lat": 50.8501091, "lon": 4.4424575}, {"type": "node", "id": 1781654075, "lat": 50.8506572, "lon": 4.4437004}, {"type": "node", "id": 1781654091, "lat": 50.8507328, "lon": 4.4434567}, {"type": "node", "id": 1781654095, "lat": 50.8509022, "lon": 4.4430437}, {"type": "node", "id": 2008266669, "lat": 50.8470996, "lon": 4.4514127}, {"type": "node", "id": 2008266670, "lat": 50.8473086, "lon": 4.4515534}, {"type": "node", "id": 2375046794, "lat": 50.8471411, "lon": 4.4514437}, {"type": "node", "id": 2375046800, "lat": 50.847181, "lon": 4.4514684}, {"type": "node", "id": 2375046807, "lat": 50.8473266, "lon": 4.4507112}, {"type": "node", "id": 2375046810, "lat": 50.8474858, "lon": 4.4507543}, {"type": "node", "id": 2375046811, "lat": 50.8474976, "lon": 4.4509389}, {"type": "node", "id": 7490325186, "lat": 50.8503196, "lon": 4.4444782}, {"type": "node", "id": 8493015840, "lat": 50.850332, "lon": 4.4434327}, {"type": "node", "id": 8493015844, "lat": 50.8503072, "lon": 4.4434123}, {"type": "node", "id": 8493015846, "lat": 50.8503804, "lon": 4.4431745}, {"type": "node", "id": 8493015847, "lat": 50.8504043, "lon": 4.4431937}, {"type": "node", "id": 8615828535, "lat": 50.8502518, "lon": 4.4491173, "tags": {"amenity": "school", "name": "L'\u00c9cole Escale", "note": "Originally tagged as amenity=social_facility but no information about why, and the website no longer exists \u2192 retagged as a normal school until it can be investigated further"}}, {"type": "node", "id": 8628214732, "lat": 50.8501068, "lon": 4.4526644, "tags": {"amenity": "school", "contact:email": "secretariat@chapelleauxchamps.be", "contact:phone": "+32 2 770 64 24", "contact:website": "http://www.chapelleauxchamps.be/", "name": "\u00c9cole Chapelle-aux-Champs"}}, {"type": "node", "id": 8632779549, "lat": 50.8475332, "lon": 4.4509348}, {"type": "node", "id": 8644279300, "lat": 50.8473262, "lon": 4.4515599}, {"type": "node", "id": 8644279301, "lat": 50.8473458, "lon": 4.4515616}, {"type": "node", "id": 8644279302, "lat": 50.8475683, "lon": 4.4515299}, {"type": "node", "id": 8730815163, "lat": 50.8493766, "lon": 4.4526399, "tags": {"amenity": "school", "contact:email": "bxl@uda-uclouvain.be", "contact:phone": "+32 2 764 46 96", "contact:website": "https://www.universitedesaines.be", "faculty": "education", "internet_access": "yes", "name": "Universit\u00e9 des A\u00een\u00e9s", "operator": "UCLouvain", "short_name": "UDA"}}, {"type": "node", "id": 12294965522, "lat": 50.8498717, "lon": 4.4444754, "tags": {"amenity": "school", "contact:phone": "+32 2 771 75 11", "contact:website": "https://ecoleintegree.be/", "name": "L'\u00e9cole int\u00e9gr\u00e9e \u2013 section maternelle et primaire", "school": "primary", "school:language": "fr"}}, {"type": "node", "id": 12294981225, "lat": 50.8445923, "lon": 4.4565653, "tags": {"amenity": "school", "contact:mobile": "+32 476 91 23 07", "contact:website": "https://www.irahm.be/entites/ecole-secondaire/", "name": "IRAHM \u2013 \u00c9cole secondaire", "operator": "IRAHM", "school": "secondary", "school:language": "fr", "school:special_needs": "only", "special_needs:physical_disability": "yes"}}, {"type": "node", "id": 12294986301, "lat": 50.8498332, "lon": 4.4445567, "tags": {"amenity": "school", "contact:phone": "+32 2 771 75 11", "contact:website": "https://ecoleintegree.be/", "name": "L'\u00e9cole int\u00e9gr\u00e9e \u2013 section secondaire type 7", "school": "secondary", "school:language": "fr"}}, {"type": "node", "id": 13149442452, "lat": 50.844428, "lon": 4.4565815, "tags": {"amenity": "school", "contact:website": "https://www.irahm.be/entites/ecole-fontamentale/", "name": "IRAHM \u2013 \u00c9cole fondamentale", "operator": "IRAHM", "school": "kindergarten;primary", "school:language": "fr", "school:special_needs": "only", "special_needs:physical_disability": "yes"}}, {"type": "way", "id": 111245160, "nodes": [1267881051, 1267881066, 1267881070, 1267881073, 1267881075, 1267881076, 1267881049, 1267881053, 1267881055, 1267881064, 1267881051], "tags": {"addr:housenumber": "9", "addr:street": "Rue Joseph Aernaut - Joseph Aernautstraat", "amenity": "school", "contact:website": "http://www.ecole-parc-malou.be/", "name": "\u00c9cole Parc Malou"}}, {"type": "way", "id": 166711231, "nodes": [1781654044, 1539771688, 8493015844, 8493015846, 1781654051, 1781654057, 1781654095, 1781654091, 8493015847, 8493015840, 1781654075, 7490325186, 1781654018, 1781654044], "tags": {"amenity": "school", "contact:website": "https://www.ecolesingelijn.be/", "name": "\u00c9cole Singelijn"}}, {"type": "way", "id": 190240674, "nodes": [2375046807, 2375046810, 2375046811, 8632779549, 8644279302, 8644279301, 8644279300, 2008266670, 2375046800, 2375046794, 2008266669, 2375046807], "tags": {"amenity": "school", "name": "Sint-Jozefsschool"}}]}