{"version": 0.6, "generator": "Overpass API 0.7.62.10 2d4cfc48", "osm3s": {"timestamp_osm_base": "2026-02-03T10:32:15Z", "copyright": "The data included in this document is from www.openstreetmap.org. The data is made available under ODbL."}, "elements": [{"type": "node", "id": 2192151658, "lat": 50.8360028, "lon": 4.2726902, "tags": {"amenity": "restaurant", "cuisine": "italian", "name": "La Capannina", "opening_hours": "Mo-Su,PH 12:00-15:00, We-Su,PH 18:00-23:00"}}, {"type": "node", "id": 5241018521, "lat": 50.8321696, "lon": 4.263672, "tags": {"amenity": "restaurant", "name": "In Den Appelboom"}}, {"type": "node", "id": 6177049561, "lat": 50.8321818, "lon": 4.2624486, "tags": {"amenity": "restaurant", "contact:phone": "+32 2 527 97 89", "contact:website": "https://www.appelthai.be/", "description": "Thai restaurant", "name": "Appel Tha\u00ef", "takeaway": "yes"}}, {"type": "node", "id": 6766987386, "lat": 50.8316929, "lon": 4.2609907, "tags": {"amenity": "restaurant", "check_date:opening_hours": "2026-01-18", "contact:phone": "+32 2 527 11 28", "contact:website": "http://www.restaurant-denotelaar.be", "cuisine": "regional", "name": "De notelaar", "opening_hours": "Th-Mo 12:00-22:00", "opening_hours:signed": "no"}}, {"type": "node", "id": 13077689322, "lat": 50.8350282, "lon": 4.2787605, "tags": {"amenity": "restaurant", "contact:facebook": "https://www.facebook.com/groups/8876693399053522/about", "name": "Aux Plaisirs Partag\u00e9s"}}]}