{"version": 0.6, "generator": "Overpass API 0.7.62.10 2d4cfc48", "osm3s": {"timestamp_osm_base": "2026-02-02T16:08:46Z", "copyright": "The data included in this document is from www.openstreetmap.org. The data is made available under ODbL."}, "elements": [{"type": "node", "id": 582518640, "lat": 50.8799736, "lon": 4.3840805, "tags": {"amenity": "cafe", "entrance:kerb:height": "26", "entrance:step_count": "2", "entrance:width": "96", "name": "London Bar"}}, {"type": "node", "id": 587756541, "lat": 50.8754692, "lon": 4.387085, "tags": {"amenity": "cafe", "name": "Le Bariga"}}, {"type": "node", "id": 766889457, "lat": 50.8575327, "lon": 4.3845223, "tags": {"amenity": "cafe", "name": "Rings"}}, {"type": "node", "id": 1276838110, "lat": 50.8773529, "lon": 4.3788115, "tags": {"amenity": "cafe", "entrance:kerb:height": "13", "entrance:step_count": "1", "entrance:width": "83", "name": "Taverne Spoorweg"}}, {"type": "node", "id": 1708684584, "lat": 50.8638553, "lon": 4.376172, "tags": {"amenity": "cafe", "changing_table": "yes", "contact:website": "https://www.cafewinok.be", "cuisine": "coffee_shop", "diet:halal": "no", "diet:vegan": "yes", "diet:vegetarian": "yes", "entrance:kerb:height": "0.25", "entrance:ramp": "yes", "entrance:step_count": "2", "entrance:width": "0.9", "historic:end_date": "2020", "indoor_seating": "yes", "internet_access": "wlan", "name": "Caf\u00e9 Winok", "opening_hours": "Mo-Fr 08:00-23:00; Sa-Su 09:30-23:00", "outdoor_seating": "yes", "payment:credit_cards": "yes", "payment:debit_cards": "yes", "start_date": "2021-07-02", "toilets:wheelchair": "yes", "toilets:wheelchair:accessible_via": "ground floor", "was:name": "L'esp\u00e9rance", "wheelchair": "yes"}}, {"type": "node", "id": 1708686203, "lat": 50.8639054, "lon": 4.3731344, "tags": {"amenity": "cafe", "contact:mobile": "+32 465 26 11 70", "name": "Questo 1898"}}, {"type": "node", "id": 2357298752, "lat": 50.8541012, "lon": 4.3883967, "tags": {"amenity": "cafe", "name": "L'Orchid\u00e9e", "outdoor_seating": "yes"}}, {"type": "node", "id": 2357318252, "lat": 50.8526543, "lon": 4.3951171, "tags": {"amenity": "cafe", "cuisine": "french;omelette;soup", "internet_access": "wlan", "internet_access:fee": "no", "internet_access:ssid": "telnet-77D215C", "name": "Le Cadre Noir", "outdoor_seating": "yes"}}, {"type": "node", "id": 2357424660, "lat": 50.8528807, "lon": 4.3882327, "tags": {"amenity": "cafe", "contact:facebook": "lepetitcancale", "contact:mobile": "+32 488 08 21 64", "name": "Le P'tit Cancale"}}, {"type": "node", "id": 2365489706, "lat": 50.850778, "lon": 4.39715, "tags": {"amenity": "cafe", "contact:website": "https://leopoldcafepresse.com/", "cuisine": "sandwich", "internet_access": "yes", "internet_access:ssid": "Leopold Cafe Presse", "name": "Leopold Caf\u00e9 Presse", "opening_hours": "Mo-Fr 08:30-18:00; Sa-Su 9:30-18:00", "toilets:wheelchair": "no", "wheelchair:turning_circle": "yes"}}, {"type": "node", "id": 2368837746, "lat": 50.8574013, "lon": 4.3731978, "tags": {"amenity": "cafe", "name": "Havilio\u01f5lu Cafe"}}, {"type": "node", "id": 2790463956, "lat": 50.8713371, "lon": 4.3750605, "tags": {"amenity": "cafe", "entrance:kerb:height": "19", "entrance:step_count": "1", "entrance:width": "80", "name": "Jeunesse bruxelloise"}}, {"type": "node", "id": 3864956701, "lat": 50.8625922, "lon": 4.3813247, "tags": {"amenity": "cafe", "contact:phone": "+32 2 245 82 46", "name": "C\u00f4t\u00e9 Gourmand", "opening_hours": "Mo-Su 07:00-19:00", "product": "coffee bread cakes"}}, {"type": "node", "id": 4555510890, "lat": 50.8664587, "lon": 4.3757676, "tags": {"amenity": "cafe", "name": "Vatan", "name:fr": "Vatan"}}, {"type": "node", "id": 4555541891, "lat": 50.8670938, "lon": 4.3759653, "tags": {"amenity": "cafe", "name": "Le petit prince"}}, {"type": "node", "id": 4593329090, "lat": 50.8661796, "lon": 4.3750754, "tags": {"amenity": "cafe", "name": "Le grand Majestic", "name:fr": "Le grand Majestic"}}, {"type": "node", "id": 4646571790, "lat": 50.858894, "lon": 4.3698707, "tags": {"amenity": "cafe", "name": "Royal Dogan"}}, {"type": "node", "id": 4646587689, "lat": 50.8588213, "lon": 4.3696242, "tags": {"amenity": "cafe", "name": "Caf\u00e9 Varna"}}, {"type": "node", "id": 4811341174, "lat": 50.8730982, "lon": 4.3905729, "tags": {"amenity": "cafe", "contact:mobile": "+32 484 50 87 87", "name": "Tchello Cafe & Bar", "outdoor_seating": "yes", "smoking": "dedicated"}}, {"type": "node", "id": 5134811756, "lat": 50.862937, "lon": 4.3763224, "tags": {"amenity": "cafe", "contact:facebook": "https://www.facebook.com/Lepoissonsansbicyclette/", "diet:vegan": "only", "name": "Le poisson sans bicyclette", "opening_hours": "We-Th 15:00-21:00; Fr-Sa 15:00-22:00", "outdoor_seating": "backyard"}}, {"type": "node", "id": 5692439920, "lat": 50.8599858, "lon": 4.360808, "tags": {"amenity": "cafe", "brand": "Starbucks", "brand:website": "https://www.starbucks.com/", "brand:wikidata": "Q37158", "cuisine": "coffee_shop", "indoor": "yes", "level": "1", "name": "Starbucks", "official_name": "Starbucks Coffee", "opening_hours": "Mo-Fr 06:30-18:30; Sa 08:30-17:30; Su 08:30-16:30", "smoking": "no", "takeaway": "yes", "wheelchair": "yes"}}, {"type": "node", "id": 7925665125, "lat": 50.8566783, "lon": 4.3895021, "tags": {"amenity": "cafe", "check_date": "2025-09-24", "contact:instagram": "https://www.instagram.com/arome1030/", "cuisine": "coffee_shop;bakery", "name": "Ar\u00f4me", "opening_hours": "Tu-Fr 07:00-18:00; Sa,Su 08:00-17:00", "outdoor_seating": "no"}}, {"type": "node", "id": 8723123142, "lat": 50.8597832, "lon": 4.3701425, "tags": {"amenity": "cafe", "check_date:opening_hours": "2024-06-04", "contact:email": "info@estaminet1030.be", "contact:website": "https://www.estaminet1030.be/", "cuisine": "cake;coffee_shop;sandwich", "diet:vegan": "yes", "diet:vegetarian": "yes", "name": "L'Estaminet 1030", "name:2014-2019": "L'Estaminet", "opening_hours": "Tu-Fr 10:00-22:00; Sa 12:00-19:00; Su 12:00-18:00", "operator": "Fleur & Sterre", "outdoor_seating": "yes", "start_date": "2021-05-01"}}, {"type": "node", "id": 8826970586, "lat": 50.8631361, "lon": 4.3600396, "tags": {"amenity": "cafe", "contact:email": "contact@ketcafe.be", "contact:phone": "+32 2 241 81 21", "contact:website": "https://www.ketcafe.be", "cuisine": "coffee_shop;sandwich;pastry", "drink:coffee": "yes", "drink:juice": "yes", "drink:tea": "yes", "name": "KET Caf\u00e9", "opening_hours": "Mo-Fr 08:00-16:00", "outdoor_seating": "yes"}}, {"type": "node", "id": 9170638173, "lat": 50.8667285, "lon": 4.3736224, "tags": {"amenity": "cafe", "capacity:seats": "51", "contact:email": "cafecolignon@gmail.com", "contact:facebook": "https://www.facebook.com/Cafe.Colignon/", "contact:instagram": "cafe.colignon", "contact:phone": "+32 2 424 19 13", "cuisine": "sandwich;soup;french;brunch;breakfast;cafe", "historic:end_date": "2021", "indoor_seating": "yes", "internet_access": "yes", "internet_access:ssid": "CAFE COLIGNON", "name": "Caf\u00e9 Colignon", "opening_hours": "Mo-Fr 08:00-17:00; Sa-Su 10:00-17:00", "outdoor_seating": "patio", "power_supply": "cee_7_5", "start_date": "2021-09", "was:name": "A la maison"}}, {"type": "node", "id": 9373789729, "lat": 50.8708371, "lon": 4.3753386, "tags": {"amenity": "cafe", "contact:email": "info@cafecolombia.be", "contact:mobile": "+32 487 22 93 31", "contact:phone": "+32 2 688 36 79", "contact:website": "https://www.cafecolombia.be", "cuisine": "coffee_shop", "name": "Cafe Colombia", "opening_hours": "Mo-Su 08:00-20:00", "panoramax": "9ea9ada0-7933-4a16-a876-6e083bd5e823", "shop": "coffee", "start_date": "2022-02-06"}}, {"type": "node", "id": 9384220141, "lat": 50.865742, "lon": 4.3777749, "tags": {"amenity": "cafe", "name": "Caf\u00e9 du parking"}}, {"type": "node", "id": 9384375778, "lat": 50.866537, "lon": 4.3779751, "tags": {"alt_name": "Golden Caf\u00e9", "amenity": "cafe", "name": "Op enne weg"}}, {"type": "node", "id": 9386311783, "lat": 50.8645744, "lon": 4.3786387, "tags": {"amenity": "cafe", "name": "N'kafe"}}, {"type": "node", "id": 9796522642, "lat": 50.8653356, "lon": 4.3680993, "tags": {"amenity": "cafe", "name": "Le Cerf Volant", "note": "coffee from https://www.costa-coffee.be", "outdoor_seating": "yes"}}, {"type": "node", "id": 9983244667, "lat": 50.8559226, "lon": 4.3945154, "tags": {"amenity": "cafe", "check_date": "2022-08-28", "name": "Caffe Questo 1898"}}, {"type": "node", "id": 9983346205, "lat": 50.8554074, "lon": 4.3994995, "tags": {"amenity": "cafe", "check_date": "2022-08-28", "name": "Caf\u00e9  Rimel"}}, {"type": "node", "id": 10657352572, "lat": 50.8589333, "lon": 4.36999, "tags": {"amenity": "cafe", "name": "Caf\u00e9 Bulgaria"}}, {"type": "node", "id": 10798678549, "lat": 50.8572834, "lon": 4.3694422, "tags": {"amenity": "cafe", "name": "Erdem Caf\u00e9"}}, {"type": "node", "id": 10875386837, "lat": 50.8473343, "lon": 4.3960524, "tags": {"amenity": "cafe", "contact:instagram": "https://www.instagram.com/kapacafe.be/", "contact:mobile": "+32 493 14 71 99", "diet:vegan": "yes", "diet:vegetarian": "yes", "name": "Kapa Caf\u00e9 Brussels", "opening_hours": "Mo-Su 07:00-19:00", "outdoor_seating": "no", "smoking": "no"}}, {"type": "node", "id": 11026048646, "lat": 50.8601327, "lon": 4.3614865, "tags": {"amenity": "cafe", "check_date": "2024-05-12", "cuisine": "coffee_shop", "diet:vegetarian": "yes", "indoor_seating": "yes", "level": "1", "name": "Ritazza", "opening_hours": "06:30-20:30", "outdoor_seating": "no", "smoking": "no", "wheelchair": "yes"}}, {"type": "node", "id": 11149280995, "lat": 50.8648166, "lon": 4.3667793, "tags": {"amenity": "cafe", "name": "Univers"}}, {"type": "node", "id": 11149287120, "lat": 50.8634924, "lon": 4.3670882, "tags": {"amenity": "cafe", "name": "Caf\u00e9 du Chef"}}, {"type": "node", "id": 11149290261, "lat": 50.8639609, "lon": 4.3661014, "tags": {"amenity": "cafe", "name": "Lili's Cr\u00eapes & Coffee", "short_name": "Lili's"}}, {"type": "node", "id": 11220109669, "lat": 50.8748172, "lon": 4.3799249, "tags": {"amenity": "cafe", "entrance:step_count": "0", "entrance:width": "60", "name": "Le Condor"}}, {"type": "node", "id": 11380419620, "lat": 50.8560289, "lon": 4.4018814, "tags": {"amenity": "cafe", "name": "L'Emir"}}, {"type": "node", "id": 11513913816, "lat": 50.8520625, "lon": 4.3859989, "tags": {"amenity": "cafe", "name": "La Pub"}}, {"type": "node", "id": 11513913833, "lat": 50.8521347, "lon": 4.3862891, "tags": {"amenity": "cafe", "name": "Chez Pepe"}}, {"type": "node", "id": 11884244471, "lat": 50.8670042, "lon": 4.3771591, "tags": {"amenity": "cafe", "cuisine": "teahouse", "name": "Te Xhoni"}}, {"type": "node", "id": 11918394479, "lat": 50.864512, "lon": 4.3592891, "tags": {"amenity": "cafe", "contact:website": "http://www.sel-miel.be/", "full_name": "Cr\u00eaperie Sel & Miel", "name": "Sel & Miel", "panoramax": "2d9529e8-5467-4ec8-ab54-e119a45adcbb"}}, {"type": "node", "id": 11976747609, "lat": 50.8717029, "lon": 4.3946596, "tags": {"amenity": "cafe", "name": "Le Beau lieu"}}, {"type": "node", "id": 12079111853, "lat": 50.8602607, "lon": 4.3625877, "tags": {"amenity": "cafe", "check_date": "2022-02-05", "name": "Caf\u00e9 Taxi Bar", "wheelchair": "no"}}, {"type": "node", "id": 12131325987, "lat": 50.8738659, "lon": 4.3840191, "tags": {"amenity": "cafe", "name": "Cafe Riga", "opening_hours": "Mo-Su 08:30-23:00", "outdoor_seating": "yes"}}, {"type": "node", "id": 12696963594, "lat": 50.8696866, "lon": 4.3809713, "tags": {"amenity": "cafe", "name": "Helmet", "outdoor_seating": "sidewalk"}}, {"type": "node", "id": 12770275334, "lat": 50.8773153, "lon": 4.3788633, "tags": {"amenity": "cafe"}}, {"type": "node", "id": 12770275335, "lat": 50.8772535, "lon": 4.3789483, "tags": {"amenity": "cafe", "name": "Le Cheval de Fer"}}, {"type": "node", "id": 12843842403, "lat": 50.8456743, "lon": 4.3977509, "tags": {"amenity": "cafe", "changing_table": "yes", "check_date": "2025-05-18", "contact:phone": "+32 2 455 53 68", "contact:website": "https://www.noje.be/", "diet:gluten_free": "yes", "diet:vegan": "only", "diet:vegetarian": "yes", "highchair": "yes", "internet_access": "wlan", "internet_access:fee": "customers", "name": "N\u00f6je", "opening_hours": "We-Fr 08:30-17:00; Sa 10:00-15:30; Su 10:00-15:00", "outdoor_seating": "yes", "payment:cash": "yes", "payment:credit_cards": "yes", "payment:debit_cards": "yes", "reservation": "yes", "toilets": "yes"}}, {"type": "node", "id": 12952074966, "lat": 50.864227, "lon": 4.3643991, "tags": {"amenity": "cafe", "name": "My Coffee"}}, {"type": "node", "id": 13238908188, "lat": 50.8519416, "lon": 4.4014747, "tags": {"amenity": "cafe", "contact:instagram": "https://instagram.com/the.silver.cafe", "contact:mobile": "+32 485 12 61 00", "cuisine": "sandwich", "delivery": "yes", "delivery:partner": "takeaway", "diet:vegetarian": "yes", "name": "The Silver Caf\u00e9", "opening_hours": "Mo-Fr 07:30-16:00", "reservation": "yes"}}]}