{"version": 0.6, "generator": "Overpass API 0.7.62.10 2d4cfc48", "osm3s": {"timestamp_osm_base": "2026-02-10T15:45:15Z", "copyright": "The data included in this document is from www.openstreetmap.org. The data is made available under ODbL."}, "elements": [{"type": "node", "id": 843728985, "lat": 50.8455038, "lon": 4.3475192, "tags": {"amenity": "bar", "contact:instagram": "https://www.instagram.com/cafefontainas", "contact:website": "http://www.lefontainas.be/Menu.html", "name": "Le Fontainas", "opening_hours": "Su-We 09:00-22:00, Th 09:00-24:00, Fr,Sa 10:00-01:00", "start_date": "2025-04-26"}}, {"type": "node", "id": 1356774871, "lat": 50.8428251, "lon": 4.3507789, "tags": {"amenity": "pub", "contact:email": "gerance.fleur@gmail.com", "contact:phone": "+32 2 512 19 46", "contact:website": "https://goudblommekeinpapier.be/", "indoor_seating": "yes", "name": "La Fleur en Papier Dor\u00e9 - Het Goudblommeke in Papier", "name:fr": "La Fleur en Papier Dor\u00e9", "name:nl": "Het Goudblommeke in Papier", "opening_hours": "Mo-Su 10:00-24:00", "outdoor_seating": "yes", "smoking": "no", "start_date": "1944-10-15", "wikidata": "Q2580013", "wikimedia_commons": "Category:Het Goudblommeke in Papier, Brussels", "wikipedia": "en:Het Goudblommeke in Papier"}}, {"type": "node", "id": 1727512121, "lat": 50.8431931, "lon": 4.3459001, "tags": {"amenity": "pub", "internet_access": "wlan", "internet_access:fee": "no", "name": "Ebrius artis", "outdoor_seating": "yes", "toilets": "yes", "toilets:access": "public", "toilets:description": "Le r\u00e9seau des toilettes accueillantes - Netwerk gastvrije toiletten", "toilets:fee": "no", "wifi": "free"}}, {"type": "node", "id": 1793368968, "lat": 50.8424162, "lon": 4.3457243, "tags": {"amenity": "pub", "contact:mobile": "+32 474 76 57 57", "indoor_seating": "yes", "name": "Cafe Bebo", "opening_hours": "Mo 08:00-24:00; Tu-Fr 00:00-01:00,08:00-24:00; Sa 00:00-01:00,10:00-24:00; Su 10:00-24:00", "outdoor_seating": "yes", "toilets": "yes", "toilets:wheelchair": "no", "wheelchair": "yes"}}, {"type": "node", "id": 2334512297, "lat": 50.8426667, "lon": 4.3510771, "tags": {"amenity": "bar", "brewery": "various", "contact:facebook": "https://www.facebook.com/la.porte.noire.bruxelles/", "contact:website": "https://www.laportenoire.be", "indoor_seating": "yes", "name": "La Porte Noire", "opening_hours": "Mo-Sa 17:00-03:00", "outdoor_seating": "no", "wheelchair": "no"}}, {"type": "node", "id": 4350103089, "lat": 50.8459685, "lon": 4.3485534, "tags": {"amenity": "bar", "dance:style": "salsa", "dance:teaching": "yes", "name": "Cartagena Salsa Bar"}}, {"type": "node", "id": 4361643030, "lat": 50.8454359, "lon": 4.3478051, "tags": {"amenity": "bar", "lgbtq": "primary", "name": "Castro"}}, {"type": "node", "id": 4418285543, "lat": 50.8455123, "lon": 4.3482276, "tags": {"amenity": "bar", "check_date": "2025-08-18", "name": "Chez Maman"}}, {"type": "node", "id": 4418285615, "lat": 50.8452629, "lon": 4.3472636, "tags": {"amenity": "bar", "name": "Smous"}}, {"type": "node", "id": 4418285621, "lat": 50.8452334, "lon": 4.3471494, "tags": {"amenity": "bar", "contact:facebook": "https://www.facebook.com/stammbarbxl/", "contact:mobile": "+32 471 80 14 39", "contact:twitter": "StammBarBxl", "contact:website": "https://stammbarbxl.com/", "lgbtq": "primary", "lgbtq:men": "only", "name": "Stamm-Bar"}}, {"type": "node", "id": 4659999496, "lat": 50.8451155, "lon": 4.3469216, "tags": {"amenity": "bar", "brewery": "Taras Boulba;Gueuze Cantillon;Band of Brothers;L'Amer des Moeder's;Valeir Extra;IV Saison;VI Wheat;Valeir Blond;Caulier Blonde;Witkap Stimulo;La Moederation;Jambe de Bois;Guldenberg;Troubadour Magma;Val-Dieu Triple;Caulier 28 Triple;Bi\u00e8re de Miel", "changing_table": "no", "check_date": "2026-02-01", "contact:phone": "+32 2 503 60 68", "contact:website": "https://moederlambic.com/bars", "indoor_seating": "yes", "name": "Moeder Lambic Fontainas", "opening_hours": "11:00-01:00", "outdoor_seating": "yes", "toilets": "yes", "toilets:menstrual_products": "no", "toilets:wheelchair": "no", "wheelchair": "limited"}}, {"type": "node", "id": 5404003166, "lat": 50.842356, "lon": 4.345618, "tags": {"amenity": "bar", "check_date:opening_hours": "2023-03-28", "indoor_seating": "yes", "name": "Santana", "opening_hours:signed": "no", "outdoor_seating": "yes"}}, {"type": "node", "id": 6230122280, "lat": 50.8425772, "lon": 4.3512455, "tags": {"amenity": "bar", "contact:facebook": "https://www.facebook.com/leseventyfive/", "name": "Le Seventy-Five"}}, {"type": "node", "id": 6750157885, "lat": 50.8449569, "lon": 4.3497263, "tags": {"amenity": "bar", "indoor_seating": "yes", "name": "Manneken Pis Caf\u00e9", "opening_hours": "Mo-Su 10:00-24:00", "outdoor_seating": "yes"}}, {"type": "node", "id": 7090557243, "lat": 50.8431772, "lon": 4.34652, "tags": {"amenity": "bar", "indoor_seating": "yes", "name": "Bogard's", "outdoor_seating": "yes"}}, {"type": "node", "id": 10741536319, "lat": 50.8452512, "lon": 4.3472183, "tags": {"amenity": "bar", "name": "BOA Karaoke Room"}}, {"type": "node", "id": 12294682540, "lat": 50.8431426, "lon": 4.3501339, "tags": {"amenity": "bar", "indoor_seating": "yes", "name": "Woodcutter", "opening_hours": "Mo 17:00-22:00; Tu-Th 14:30-22:00; Fr 14:30-23:00; Sa 10:45-23:00; Su 10:45-22:00", "outdoor_seating": "no", "wheelchair": "no"}}, {"type": "node", "id": 12629882873, "lat": 50.8442318, "lon": 4.3473835, "tags": {"amenity": "bar", "contact:mobile": "+32 472 02 11 74", "contact:website": "https://the8rooftop.be/", "description": "Rooftop cocktail bar with panoramic views of Brussels. located on the 8th floor of the Bedford Hotel.", "name": "The Eight Rooftop Cocktail Bar", "opening_hours": "Mo-We 16:30-00:00; Th-Sa 12:00-01:00; Su 12:00-00:00"}}, {"type": "node", "id": 13009338328, "lat": 50.8447793, "lon": 4.3500225, "tags": {"amenity": "pub", "brewery": "yes;various", "check_date": "2025-05-06", "contact:facebook": "poechenellekelder/", "contact:foursquare": "https://fr.foursquare.com/v/poechenellekelder/4bb730541344b713446e9e04", "contact:instagram": "https://www.instagram.com/poechenellekelder/", "contact:linkedin": "https://www.linkedin.com/company/poechenellekelder/about/", "contact:mapstr": "https://mapstr.com/place/X5ighuSGkgg", "contact:phone": "+32 2 511 92 62", "contact:tripadvisor": "https://www.tripadvisor.fr/Restaurant_Review-g188644-d3707111-Reviews-Poechenellekelder-Brussels.html", "contact:website": "https://www.poechenellekelder.be", "contact:yelp": "https://www.yelp.com/biz/le-poechenellekelder-bruxelles", "name": "Poechenellekelder", "opening_hours": "Mo off; Tu-Th,Su 11:00-01:00; Fr-Sa 11:00-02:00", "outdoor_seating": "yes", "payment:cash": "yes", "payment:contactless": "yes", "payment:credit_cards": "yes", "payment:debit_cards": "yes", "smoking": "no", "toilets": "yes", "website:menu": "https://poechenellekelder.be/en/menu/4778721957078106187", "wheelchair": "limited", "wikidata": "Q108170714", "wikimedia_commons": "Category:Poechenellekelder"}}]}