{"version": 0.6, "generator": "Overpass API 0.7.62.10 2d4cfc48", "osm3s": {"timestamp_osm_base": "2026-02-03T09:44:14Z", "copyright": "The data included in this document is from www.openstreetmap.org. The data is made available under ODbL."}, "elements": [{"type": "node", "id": 503158208, "lat": 50.8659486, "lon": 4.3388228, "tags": {"name": "Vanderstichelen", "public_transport": "stop_position", "railway": "tram_stop", "tram": "yes"}}, {"type": "node", "id": 2613006518, "lat": 50.8662094, "lon": 4.3384229, "tags": {"name": "Vanderstichelen", "public_transport": "stop_position", "railway": "tram_stop", "tram": "yes"}}, {"type": "node", "id": 2962344950, "lat": 50.8612088, "lon": 4.3383139, "tags": {"name": "Jubil\u00e9 - Jubelfeest", "name:fr": "Jubil\u00e9", "name:nl": "Jubelfeest", "public_transport": "stop_position", "railway": "tram_stop", "tram": "yes"}}, {"type": "node", "id": 2962344951, "lat": 50.8616616, "lon": 4.3382325, "tags": {"name": "Jubil\u00e9 - Jubelfeest", "name:fr": "Jubil\u00e9", "name:nl": "Jubelfeest", "public_transport": "stop_position", "railway": "tram_stop", "tram": "yes"}}, {"type": "node", "id": 3202278920, "lat": 50.8593584, "lon": 4.3444974, "tags": {"name": "Sainctelette", "public_transport": "stop_position", "railway": "tram_stop", "tram": "yes"}}, {"type": "node", "id": 4688891554, "lat": 50.8674612, "lon": 4.3360818, "tags": {"name": "Belgica", "public_transport": "stop_position", "railway": "tram_stop", "tram": "yes"}}, {"type": "node", "id": 4788761807, "lat": 50.8604284, "lon": 4.3404525, "tags": {"name": "Ribaucourt", "public_transport": "stop_position", "railway": "tram_stop", "tram": "yes"}}]}