{"version": 0.6, "generator": "Overpass API 0.7.62.10 2d4cfc48", "osm3s": {"timestamp_osm_base": "2026-02-02T16:40:30Z", "copyright": "The data included in this document is from www.openstreetmap.org. The data is made available under ODbL."}, "elements": [{"type": "node", "id": 10606640119, "lat": 50.8901421, "lon": 4.3774516, "tags": {"name": "Ancre - Anker", "name:fr": "Ancre", "name:nl": "Anker", "public_transport": "stop_position", "railway": "tram_stop", "tram": "yes"}}, {"type": "node", "id": 10606770063, "lat": 50.8964516, "lon": 4.3935318, "tags": {"name": "Chemin Vert - Groenweg", "name:fr": "Chemin Vert", "name:nl": "Groenweg", "public_transport": "stop_position", "railway": "tram_stop", "tram": "yes"}}, {"type": "node", "id": 12122666995, "lat": 50.8903428, "lon": 4.377723, "tags": {"name": "Ancre - Anker", "name:fr": "Ancre", "name:nl": "Anker", "public_transport": "stop_position", "railway": "tram_stop", "tram": "yes"}}, {"type": "node", "id": 12161927117, "lat": 50.8966505, "lon": 4.3940471, "tags": {"name": "Chemin Vert - Groenweg", "name:fr": "Chemin Vert", "name:nl": "Groenweg", "public_transport": "stop_position", "railway": "tram_stop", "tram": "yes"}}, {"type": "node", "id": 12164891677, "lat": 50.8988598, "lon": 4.3975595, "tags": {"name": "Nelson Mandela", "public_transport": "stop_position", "railway": "tram_stop", "tram": "yes"}}, {"type": "node", "id": 12164891678, "lat": 50.899074, "lon": 4.3980796, "tags": {"name": "Nelson Mandela", "public_transport": "stop_position", "railway": "tram_stop", "tram": "yes"}}, {"type": "node", "id": 12192560283, "lat": 50.8943324, "lon": 4.3828637, "tags": {"name": "Zavelput", "public_transport": "stop_position", "railway": "tram_stop", "tram": "yes"}}, {"type": "node", "id": 12192560284, "lat": 50.8939425, "lon": 4.3828539, "tags": {"name": "Zavelput", "public_transport": "stop_position", "railway": "tram_stop", "tram": "yes"}}, {"type": "node", "id": 12192560285, "lat": 50.8955234, "lon": 4.3891387, "tags": {"name": "Peter Benoit", "public_transport": "stop_position", "railway": "tram_stop", "tram": "yes"}}, {"type": "node", "id": 12192560286, "lat": 50.8951002, "lon": 4.3872505, "tags": {"name": "Peter Benoit", "public_transport": "stop_position", "railway": "tram_stop", "tram": "yes"}}]}