{"version": 0.6, "generator": "Overpass API 0.7.62.10 2d4cfc48", "osm3s": {"timestamp_osm_base": "2026-02-02T15:00:29Z", "copyright": "The data included in this document is from www.openstreetmap.org. The data is made available under ODbL."}, "elements": [{"type": "node", "id": 1651604372, "lat": 50.8411841, "lon": 4.4412383, "tags": {"amenity": "cafe", "name": "Like A Rainbow", "opening_hours": "Mo-Su 11:00-18:00"}}, {"type": "node", "id": 4494514069, "lat": 50.8518564, "lon": 4.45923, "tags": {"amenity": "cafe", "name": "Club House Mounier II", "opening_hours": "Mo-Sa 11:00-14:00,17:00-01:00; Su,PH off", "toilets:wheelchair": "no", "wheelchair": "yes"}}, {"type": "node", "id": 6329819464, "lat": 50.8504921, "lon": 4.4541835, "tags": {"amenity": "cafe", "name": "L'Atelier"}}, {"type": "node", "id": 6329819652, "lat": 50.8504382, "lon": 4.4538674, "tags": {"amenity": "cafe", "name": "Eat Club Sandwicherie"}}, {"type": "node", "id": 10908712476, "lat": 50.8461033, "lon": 4.4395482, "tags": {"amenity": "cafe", "contact:mobile": "+32 478 09 10 30", "contact:website": "https://slotwoluwe.com/", "name": "Slot", "opening_hours": "Tu-Su 09:00-18:00", "outdoor_seating": "yes"}}, {"type": "node", "id": 12789605330, "lat": 50.8436989, "lon": 4.4435787, "tags": {"amenity": "cafe"}}]}