{"version": 0.6, "generator": "Overpass API 0.7.62.10 2d4cfc48", "osm3s": {"timestamp_osm_base": "2026-02-03T09:37:59Z", "copyright": "The data included in this document is from www.openstreetmap.org. The data is made available under ODbL."}, "elements": [{"type": "node", "id": 488330252, "lat": 50.8499301, "lon": 4.379668, "tags": {"amenity": "restaurant", "contact:facebook": "https://m.facebook.com/people/CHEZ-FIRAS/100076249354461/", "cuisine": "syrian", "name": "Chez Firas", "was:name": "Le Mezze"}}, {"type": "node", "id": 2476764620, "lat": 50.8486819, "lon": 4.3696191, "tags": {"amenity": "restaurant", "contact:website": "https://www.banhmiexpress.be/", "cuisine": "vietnamese", "diet:vegan": "yes", "diet:vegetarian": "yes", "name": "Banh Mi Express", "opening_hours": "Mo-Fr 11:00-16:00"}}, {"type": "node", "id": 2477930450, "lat": 50.8485556, "lon": 4.3758319, "tags": {"amenity": "restaurant", "contact:website": "https://www.new-saigon-bangkok.be/", "name": "New Saigon Bangkok", "opening_hours": "Mo-Fr 11:30-14:30, 17:30-22:00; Sa-Su 17:30-22:00;PH open", "panoramax": "0ce2d627-c5fb-46ac-9d78-1bfee289cfe2", "takeaway": "yes"}}, {"type": "node", "id": 2477949062, "lat": 50.8501814, "lon": 4.3795788, "tags": {"amenity": "restaurant", "contact:phone": "+32 2 219 97 77", "contact:website": "http://www.restaurantindien.be", "cuisine": "indian", "name": "Star of India"}}, {"type": "node", "id": 2783946157, "lat": 50.8488048, "lon": 4.3696564, "tags": {"amenity": "restaurant", "contact:phone": "+32 2 223 22 12", "contact:website": "https://www.manola.be/resto/fr/2/manola-ii", "cuisine": "thai", "diet:vegan": "yes", "diet:vegetarian": "yes", "name": "Manola II", "opening_hours": "Mo-Fr 12:00-14:00", "operator": "Manola", "payment:cash": "yes", "payment:mastercard": "yes", "payment:visa": "yes", "takeaway": "yes"}}, {"type": "node", "id": 3863812078, "lat": 50.8505351, "lon": 4.3680484, "tags": {"amenity": "restaurant", "contact:website": "https://www.gus-brussels.be/", "cuisine": "italian", "name": "Brassonomie Gus", "opening_hours": "Mo off; Tu,Th,Fr 12:00-13:30; We 12:00-13:30,19:00-21:30; Sa, Su off", "short_name": "Gus", "wheelchair": "no"}}, {"type": "node", "id": 4895392733, "lat": 50.8472826, "lon": 4.3723718, "tags": {"alt_name": "les quatre jeudis", "amenity": "restaurant", "contact:phone": "+32 2 721 10 49", "contact:website": "https://les4jeudis.be/en", "diet:vegan": "only", "diet:vegetarian": "only", "name": "Les 4 Jeudis", "opening_hours": "Mo-Fr 12:00-14:15; Sa-Su off"}}, {"type": "node", "id": 6226046075, "lat": 50.8494156, "lon": 4.3737849, "tags": {"amenity": "restaurant", "check_date": "2023-07-15", "name": "Just Food", "opening_hours": "Mo-Fr 11:30-15:30; Sa-Su off"}}, {"type": "node", "id": 6226048071, "lat": 50.8494631, "lon": 4.3741117, "tags": {"amenity": "restaurant", "cuisine": "italian", "name": "La Mamma"}}, {"type": "node", "id": 6226084517, "lat": 50.8491039, "lon": 4.3739533, "tags": {"amenity": "restaurant", "cuisine": "greek", "name": "Omiros"}}, {"type": "node", "id": 6228101226, "lat": 50.8496391, "lon": 4.3757937, "tags": {"amenity": "restaurant", "name": "Snack Istanbul"}}, {"type": "node", "id": 6228231687, "lat": 50.8494678, "lon": 4.3740512, "tags": {"amenity": "restaurant", "contact:facebook": "https://www.facebook.com/lapiolapizza", "contact:instagram": "https://www.instagram.com/lapiolapizza/", "contact:phone": "+32 2 465 02 15", "contact:website": "https://www.lapiolapizza.com/", "cuisine": "italian_pizza", "name": "La Piola", "reservation": "yes", "takeaway": "yes"}}, {"type": "node", "id": 6228390240, "lat": 50.8491547, "lon": 4.3773121, "tags": {"amenity": "restaurant", "entrance:kerb:height": "0", "entrance:step_count": "0", "entrance:width": "0.92", "name": "Au c\u0153ur de SJTN"}}, {"type": "node", "id": 6247925909, "lat": 50.8494406, "lon": 4.3745002, "tags": {"amenity": "restaurant", "name": "Au P'tit creux"}}, {"type": "node", "id": 6247927775, "lat": 50.8495068, "lon": 4.3749384, "tags": {"amenity": "restaurant", "name": "Palais des D\u00e9lices"}}, {"type": "node", "id": 6247944622, "lat": 50.8495301, "lon": 4.3711879, "tags": {"amenity": "restaurant", "check_date": "2024-10-23", "check_date:diet:vegan": "2024-10-23", "check_date:diet:vegetarian": "2024-10-23", "contact:facebook": "https://www.facebook.com/GreenGoburger/", "contact:mobile": "+32 483 81 85 06", "diet:vegan": "no", "diet:vegetarian": "yes", "name": "Green'Go Burger", "opening_hours": "Mo-Th 11:30-14:30,18:00-22:00; Fr 11:30-14:30,18:00-23:00; Sa 18:00-23:00; Su 17:00-22:00", "website:menu": "https://drive.google.com/file/d/1c5KxbO1RFOwA7pGlm1_VfTbGZi8x9L_Z/view"}}, {"type": "node", "id": 6247954260, "lat": 50.8488045, "lon": 4.3687234, "tags": {"amenity": "restaurant", "contact:phone": "+32 2 502 60 02", "cuisine": "italian", "name": "Pomo", "wheelchair": "no"}}, {"type": "node", "id": 6761375585, "lat": 50.850485, "lon": 4.3718243, "tags": {"amenity": "restaurant", "contact:phone": "+32 2 223 03 55", "cuisine": "italian", "name": "Le Millenium", "opening_hours": "Mo-Fr 12:00-14:00, 18:30-21:30"}}, {"type": "node", "id": 7264616885, "lat": 50.8484265, "lon": 4.3760907, "tags": {"amenity": "restaurant", "cuisine": "moroccan", "diet:vegetarian": "yes", "name": "Le P'tit Chouia En +", "opening_hours:signed": "no", "panoramax": "3fcc46b1-5854-4a7a-b199-70fd877bcb74"}}, {"type": "node", "id": 10139555020, "lat": 50.8483019, "lon": 4.3739207, "tags": {"amenity": "restaurant", "diet:vegan": "no", "diet:vegetarian": "yes", "name": "La Sardegna", "website": "https://www.la-sardegna.be"}}, {"type": "node", "id": 10199671719, "lat": 50.8473335, "lon": 4.3730864, "tags": {"amenity": "restaurant", "contact:facebook": "https://www.facebook.com/people/Au-Chapati/100083685124935/", "contact:mobile": "+32 473 64 11 74", "cuisine": "indian", "entrance:kerb:height": "0.2", "entrance:step_count": "2", "entrance:width": "0.8", "name": "Au Chapati", "opening_hours": "Mo-Fr 11:30-15:00, 18:30-21:00"}}, {"type": "node", "id": 10605760179, "lat": 50.8509611, "lon": 4.3818241, "tags": {"amenity": "restaurant", "contact:mobile": "+32 487 61 79 45", "cuisine": "lebanese", "delivery": "yes", "internet_access": "no", "name": "Zaline", "opening_hours": "Tu-Su 12:00-15:00,18:00-23:00; Mo closed", "outdoor_seating": "no", "takeaway": "yes"}}, {"type": "node", "id": 10910969897, "lat": 50.853213, "lon": 4.3691765, "tags": {"amenity": "restaurant", "contact:email": "restaurant@amazone.be", "contact:website": "https://www.amazone.be/restaurant", "level": "1", "name": "Amazone", "opening_hours": "Mo-Fr 11:30-14:00"}}, {"type": "node", "id": 11625873144, "lat": 50.8484412, "lon": 4.3701327, "tags": {"amenity": "restaurant", "contact:website": "https://www.thewhite-restaurant.com/brussels", "name": "The White"}}, {"type": "node", "id": 12230018969, "lat": 50.8497904, "lon": 4.3780396, "tags": {"amenity": "restaurant", "contact:facebook": "https://www.facebook.com/p/Le-Royal-100076339113628/", "contact:mobile": "+32 491 14 16 18", "cuisine": "lebanese;syrian", "delivery": "yes", "name": "Le Royal", "takeaway": "yes"}}, {"type": "node", "id": 12557785633, "lat": 50.8510978, "lon": 4.3821855, "tags": {"amenity": "restaurant", "contact:phone": "+32 2 347 56 64", "contact:website": "https://spicyhouse.be/", "cuisine": "indian", "name": "Spicy House"}}, {"type": "node", "id": 12980432278, "lat": 50.8531021, "lon": 4.3733573, "tags": {"amenity": "restaurant", "name": "Le Roi des Grillades"}}, {"type": "node", "id": 13208546676, "lat": 50.8492278, "lon": 4.374389, "tags": {"amenity": "restaurant", "check_date": "2025-10-11", "contact:mobile": "+32 495 44 00 44", "cuisine": "lebanese", "name": "Ibn Syria", "payment:cash": "yes", "payment:mastercard": "yes", "payment:visa": "yes"}}, {"type": "node", "id": 13371806526, "lat": 50.8483079, "lon": 4.3741255, "tags": {"amenity": "restaurant", "cuisine": "indian", "diet:vegetarian": "yes", "name": "Rangla Punjab"}}]}