{"version": 0.6, "generator": "Overpass API 0.7.62.10 2d4cfc48", "osm3s": {"timestamp_osm_base": "2026-02-02T16:44:35Z", "copyright": "The data included in this document is from www.openstreetmap.org. The data is made available under ODbL."}, "elements": [{"type": "node", "id": 2482646702, "lat": 50.8576188, "lon": 4.359114, "tags": {"amenity": "restaurant", "contact:phone": "+32 2 201 26 31", "contact:website": "https://pommodoro.be/", "cuisine": "italian", "indoor_seating": "yes", "name": "Pommodoro", "opening_hours": "Mo-Fr 11:00-21:00; Sa-Su 17:30-21:00", "outdoor_seating": "no"}}, {"type": "node", "id": 2482646705, "lat": 50.8577552, "lon": 4.3591764, "tags": {"amenity": "restaurant", "contact:phone": "+32 2 203 24 30", "indoor_seating": "yes", "name": "Omega", "opening_hours": "Mo-Fr 10:00-22:00", "outdoor_seating": "no"}}, {"type": "node", "id": 2640980965, "lat": 50.8585827, "lon": 4.3545714, "tags": {"amenity": "restaurant", "cuisine": "meat;fries;salad", "description": "Restaurant", "name": "Haythem"}}, {"type": "node", "id": 2640980978, "lat": 50.8587885, "lon": 4.3547067, "tags": {"amenity": "restaurant", "contact:phone": "+32 2 465 19 51", "contact:website": "http://sawad.be/", "cuisine": "indian", "name": "Sawad", "opening_hours": "Mo-Fr 11:30-14:30,18:00-22:00; Sa 12:00-14:00,18:00-22:00", "panoramax": "b584eeb6-8fda-47b8-9d8e-27ef203bc6ae", "payment:cards": "yes", "payment:cash": "yes", "takeaway": "yes"}}, {"type": "node", "id": 2640981003, "lat": 50.8587399, "lon": 4.3548783, "tags": {"amenity": "restaurant", "contact:email": "info@osolemiobrussels.be", "contact:phone": "+32 2 223 72 78", "contact:website": "https://osolemiobrussels.be/", "cuisine": "italian", "name": "O'Sole Mio", "opening_hours": "Mo-Fr 11:30-15:00,18:00-22:00; Sa 11:30-22:00"}}, {"type": "node", "id": 2640981051, "lat": 50.8592106, "lon": 4.35494, "tags": {"amenity": "restaurant", "contact:phone": "+32 2 203 61 00", "contact:website": "https://pastafactorybxl.be/", "cuisine": "italian;pasta", "name": "Pasta Factory", "opening_hours": "Mo-Fr 11:30-14:45", "outdoor_seating": "yes"}}, {"type": "node", "id": 2678681439, "lat": 50.8646002, "lon": 4.3593271, "tags": {"amenity": "restaurant", "contact:instagram": "https://www.instagram.com/somaribel.food/", "cuisine": "syrian", "name": "Somaribel"}}, {"type": "node", "id": 5928502862, "lat": 50.8595736, "lon": 4.3547685, "tags": {"amenity": "restaurant", "contact:mobile": "+32 484 73 03 10", "contact:phone": "+32 2 308 95 87", "contact:website": "https://www.alpostogiusto.be", "cuisine": "italian", "name": "Al Posto Giusto", "opening_hours": "Mo-Fr 11:30-14:30"}}, {"type": "node", "id": 5928502863, "lat": 50.8594163, "lon": 4.3546658, "tags": {"amenity": "restaurant", "contact:email": "info@khaimook.com", "contact:phone": "+32 2 219 76 82", "contact:website": "https://khaimook.com/", "cuisine": "thai", "name": "Khaimook", "opening_hours": "Mo-Fr 11:00-14:30", "takeaway": "yes"}}, {"type": "node", "id": 6018151535, "lat": 50.8675013, "lon": 4.3586936, "tags": {"amenity": "restaurant", "contact:phone": "+32 2 201 15 91", "cuisine": "turkish;pizza", "name": "Kardelen Restaurant", "opening_hours": "Tu-Su 12:00-22:00", "payment:cash": "yes", "payment:credit_cards": "no", "takeaway": "yes"}}, {"type": "node", "id": 6308641425, "lat": 50.8586436, "lon": 4.3545312, "tags": {"amenity": "restaurant", "name": "Argana"}}, {"type": "node", "id": 6466371687, "lat": 50.8633866, "lon": 4.3664781, "tags": {"amenity": "restaurant", "cuisine": "grill;chicken;kebab;barbecue;turkish", "name": "Tekince kebab"}}, {"type": "node", "id": 7191746118, "lat": 50.862939, "lon": 4.3538606, "tags": {"amenity": "restaurant", "contact:phone": "+32 2 899 39 20", "contact:website": "https://www.ozawa.be/", "cuisine": "japanese", "name": "Ozawa", "opening_hours": "Mo-Th 11:30-14:30; Fr 11:30-21:30", "takeaway": "yes"}}, {"type": "node", "id": 9379535387, "lat": 50.8601063, "lon": 4.3550881, "tags": {"amenity": "restaurant", "check_date:opening_hours": "2025-06-24", "contact:email": "telejazz.resto@gmail.com", "contact:mobile": "+32 494 25 52 02", "cuisine": "west_african", "name": "Chez Diallo \u2013 T\u00e9l\u00e9 Jazz", "opening_hours:signed": "no", "toilets": "yes", "toilets:fee": "no"}}, {"type": "node", "id": 9519530320, "lat": 50.8557136, "lon": 4.3597694, "tags": {"amenity": "restaurant", "contact:website": "https://www.serrabrussels.be/", "name": "Serra"}}, {"type": "node", "id": 9872049875, "lat": 50.8601873, "lon": 4.3551299, "tags": {"amenity": "restaurant", "contact:mobile": "+32 493 29 30 31", "contact:website": "https://bowls.be/fr/bruxelles/", "cuisine": "poke", "name": "Bowls.be", "opening_hours": "Mo-Fr 11:00-16:00"}}, {"type": "node", "id": 10157087366, "lat": 50.8577712, "lon": 4.3539567, "tags": {"amenity": "restaurant", "contact:email": "Info@swagat.be", "contact:phone": "+32 2 229 00 54", "contact:website": "https://swagat.be/", "cuisine": "indian", "name": "Swagat"}}, {"type": "node", "id": 10870549148, "lat": 50.8569694, "lon": 4.3587943, "tags": {"amenity": "restaurant", "cuisine": "indian;bangladeshi", "name": "Gopal"}}, {"type": "node", "id": 11149291010, "lat": 50.8634664, "lon": 4.3664638, "tags": {"amenity": "restaurant", "name": "Tekince Cigk\u00f6fte"}}, {"type": "node", "id": 11407661641, "lat": 50.8568758, "lon": 4.3587743, "tags": {"amenity": "restaurant", "contact:email": "contact@hyderabadhouse.be", "contact:facebook": "https://www.facebook.com/hyderabadhousebelgium", "contact:instagram": "https://www.instagram.com/hyderabadhousebelgium/", "contact:mobile": "+32 470 99 26 52", "contact:website": "http://www.hyderabadhouse.be", "cuisine": "indian", "name": "Hyderabad House", "opening_hours": "Mo-Fr 12:00-14:30,17:30-22:00; Sa-Su 12:00-22:00", "payment:cash": "yes", "payment:contactless": "yes", "payment:credit_cards": "yes", "payment:debit_cards": "yes", "smoking": "no"}}, {"type": "node", "id": 11851139592, "lat": 50.8651502, "lon": 4.3590348, "tags": {"amenity": "restaurant", "contact:website": "https://www.presidentbrusselshotel.be/restaurant/", "cuisine": "mediterranean", "fixme": "actualised exact location", "name": "elissa"}}, {"type": "node", "id": 12503167872, "lat": 50.8569295, "lon": 4.353963, "tags": {"amenity": "restaurant", "contact:email": "contact@thechairman.be", "contact:facebook": "https://www.facebook.com/chairmanbrussels", "contact:instagram": "https://www.instagram.com/chairmanbrussels/", "contact:phone": "+32 2 274 13 30", "contact:website": "https://thechairman.be/", "name": "The Chairman", "opening_hours": "Mo-Th 12:00-14:30,18:00-22:00; Fr 12:00-14:30,18:00-23:00; Sa 18:00-23:00"}}, {"type": "node", "id": 12914855418, "lat": 50.8621535, "lon": 4.3576106, "tags": {"amenity": "restaurant", "bar": "yes", "contact:website": "https://www.standardhotels.com/brussels/properties/brussels", "level": "29", "name": "Lila29"}}, {"type": "node", "id": 13208787875, "lat": 50.8650276, "lon": 4.3659137, "tags": {"amenity": "restaurant", "name": "N\u00f9ba"}}, {"type": "node", "id": 13456436642, "lat": 50.8578373, "lon": 4.3539934, "tags": {"amenity": "restaurant", "contact:mobile": "+32 472 33 70 49", "contact:website": "https://www.ikigaisushi.be/", "cuisine": "sushi", "name": "Ikigai Sushi", "opening_hours": "Mo-Fr 11:30-14:00", "takeaway": "yes"}}]}