{"version": 0.6, "generator": "Overpass API 0.7.62.10 2d4cfc48", "osm3s": {"timestamp_osm_base": "2026-02-02T16:21:58Z", "copyright": "The data included in this document is from www.openstreetmap.org. The data is made available under ODbL."}, "elements": [{"type": "node", "id": 866333004, "lat": 50.8752174, "lon": 4.3296063, "tags": {"amenity": "restaurant", "contact:email": "stephanpeemans@gmail.com", "contact:facebook": "https://www.facebook.com/RestaurantPatagaf/", "contact:phone": "+32 2 426 90 93", "contact:website": "https://restaurant-patagaf-jette.be/", "cuisine": "french", "name": "Patagaf", "opening_hours": "Mo-Th 18:30-22:30; Fr-Sa 18:30-23:00", "wheelchair": "limited"}}, {"type": "node", "id": 867006854, "lat": 50.8717133, "lon": 4.3256707, "tags": {"amenity": "restaurant", "cuisine": "thai", "name": "Krob Kun", "opening_hours": "Tu-Su 19:00-22:30, Tu-Fr,Su 12:00-14:00", "wheelchair": "no"}}, {"type": "node", "id": 867597685, "lat": 50.8740206, "lon": 4.3231949, "tags": {"amenity": "restaurant", "capacity": "45", "contact:facebook": "https://www.facebook.com/pages/category/Italian-Restaurant/Ristorante-la-penisola-201742084045068/", "contact:phone": "+32 2 426 14 05", "cuisine": "italian", "name": "La Penisola", "opening_hours": "Tu-Su 12:00-15:00, 18:00-23:00", "outdoor_seating": "street", "takeaway": "yes"}}, {"type": "node", "id": 1210483195, "lat": 50.8893082, "lon": 4.3267613, "tags": {"amenity": "restaurant", "contact:facebook": "https://www.facebook.com/theplacetobeBe", "contact:phone": "+32 2 267 97 40", "name": "The Place to Be", "opening_hours": "Mo-Th 11:30-23:00; Fr 11:30-24:00; Sa 11:30-23:45; Su 11:30-22:00", "outdoor_seating": "yes", "takeaway": "yes"}}, {"type": "node", "id": 1221352577, "lat": 50.8691124, "lon": 4.3283387, "tags": {"amenity": "restaurant", "contact:facebook": "https://www.facebook.com/people/Acropolis-Grill-Bar-Jette/100089565793297/", "cuisine": "greek", "name": "Acropolis"}}, {"type": "node", "id": 1631184366, "lat": 50.8848174, "lon": 4.3303081, "tags": {"amenity": "restaurant", "contact:email": "lapiazza@hotmail.be", "contact:facebook": "https://www.facebook.com/lapiazzajette/", "contact:phone": "+32 2 479 43 32", "contact:website": "https://lapiazzajette.be/en", "cuisine": "italian", "delivery": "yes", "name": "La Piazza", "opening_hours": "Tu-Su 12:00-14:30,18:00-22:30; Sa 18:00-23:00", "outdoor_seating": "yes", "takeaway": "yes"}}, {"type": "node", "id": 1631184402, "lat": 50.8849058, "lon": 4.3307107, "tags": {"amenity": "restaurant", "contact:email": "castelainlinda@outlook.com", "contact:facebook": "https://www.facebook.com/lemoulinapoivrejette", "contact:phone": "+32 2 479 58 08", "cuisine": "french;belgian", "name": "Le Moulin \u00e0 Poivre", "takeaway": "yes"}}, {"type": "node", "id": 2323720718, "lat": 50.8728361, "lon": 4.3236816, "tags": {"amenity": "restaurant", "contact:phone": "+32 2 203 17 68", "name": "Peppermint Park", "opening_hours": "Mo-Su 09:00-22:30", "toilets:wheelchair": "no", "wheelchair": "limited"}}, {"type": "node", "id": 2324639470, "lat": 50.8730656, "lon": 4.3247473, "tags": {"amenity": "restaurant", "name": "Il Cappuccino", "wheelchair": "limited"}}, {"type": "node", "id": 2329200784, "lat": 50.8769681, "lon": 4.3266331, "tags": {"amenity": "restaurant", "contact:phone": "+32 2 427 41 58", "contact:website": "https://www.ninjarestaurant.be/", "cuisine": "japanese", "delivery": "yes", "name": "Ninja Restaurant"}}, {"type": "node", "id": 2329221572, "lat": 50.8771224, "lon": 4.3261201, "tags": {"amenity": "restaurant", "contact:phone": "+32 2 426 72 34", "contact:website": "https://lecentral-jette.be/", "cuisine": "bistro", "name": "Le Central", "opening_hours": "Su-Mo 12:00-15:00,18:00-23:00", "toilets:wheelchair": "no", "wheelchair": "limited"}}, {"type": "node", "id": 2332104466, "lat": 50.8849515, "lon": 4.3179665}, {"type": "node", "id": 2332104472, "lat": 50.8850019, "lon": 4.3178851}, {"type": "node", "id": 2332104479, "lat": 50.8850574, "lon": 4.3181288}, {"type": "node", "id": 2332104480, "lat": 50.8850583, "lon": 4.3177942}, {"type": "node", "id": 2332104481, "lat": 50.8850725, "lon": 4.3181488}, {"type": "node", "id": 2332104482, "lat": 50.8850775, "lon": 4.3179904}, {"type": "node", "id": 2332104484, "lat": 50.8850831, "lon": 4.3178107}, {"type": "node", "id": 2333704851, "lat": 50.8846032, "lon": 4.3011377}, {"type": "node", "id": 2333704852, "lat": 50.8846038, "lon": 4.3011296}, {"type": "node", "id": 2333704855, "lat": 50.8846047, "lon": 4.3011726}, {"type": "node", "id": 2333704856, "lat": 50.8846061, "lon": 4.3011068}, {"type": "node", "id": 2333704857, "lat": 50.8846062, "lon": 4.3009121}, {"type": "node", "id": 2333704858, "lat": 50.8846064, "lon": 4.3011019}, {"type": "node", "id": 2333704860, "lat": 50.8846065, "lon": 4.3010824}, {"type": "node", "id": 2333704862, "lat": 50.8846065, "lon": 4.3010889}, {"type": "node", "id": 2333704863, "lat": 50.8846067, "lon": 4.3011908}, {"type": "node", "id": 2333704864, "lat": 50.8846105, "lon": 4.3010013}, {"type": "node", "id": 2333704865, "lat": 50.8846119, "lon": 4.3012139}, {"type": "node", "id": 2333704866, "lat": 50.8846121, "lon": 4.3010214}, {"type": "node", "id": 2333704867, "lat": 50.8846131, "lon": 4.3010507}, {"type": "node", "id": 2333704868, "lat": 50.8846152, "lon": 4.3012363}, {"type": "node", "id": 2333704869, "lat": 50.8846159, "lon": 4.3010007}, {"type": "node", "id": 2333704871, "lat": 50.8846166, "lon": 4.3010091}, {"type": "node", "id": 2333704872, "lat": 50.8846196, "lon": 4.3010609}, {"type": "node", "id": 2333704873, "lat": 50.8846202, "lon": 4.3010809}, {"type": "node", "id": 2333704874, "lat": 50.8846278, "lon": 4.3012348}, {"type": "node", "id": 2333704875, "lat": 50.8846284, "lon": 4.3012471}, {"type": "node", "id": 2333704877, "lat": 50.8846364, "lon": 4.3012469}, {"type": "node", "id": 2333704879, "lat": 50.8846379, "lon": 4.3012779}, {"type": "node", "id": 2333704881, "lat": 50.884658, "lon": 4.3009072}, {"type": "node", "id": 2333704882, "lat": 50.8846583, "lon": 4.3009193}, {"type": "node", "id": 2333704884, "lat": 50.884684, "lon": 4.3009041}, {"type": "node", "id": 2333704885, "lat": 50.884684, "lon": 4.3009135}, {"type": "node", "id": 2333704889, "lat": 50.8846997, "lon": 4.3012368}, {"type": "node", "id": 2333704890, "lat": 50.8847013, "lon": 4.3012672}, {"type": "node", "id": 2333704891, "lat": 50.8847042, "lon": 4.3012112}, {"type": "node", "id": 2333704893, "lat": 50.8847056, "lon": 4.301236}, {"type": "node", "id": 2333704895, "lat": 50.8847149, "lon": 4.3008984}, {"type": "node", "id": 2333704897, "lat": 50.8847155, "lon": 4.3009101}, {"type": "node", "id": 2333704899, "lat": 50.8847252, "lon": 4.3009088}, {"type": "node", "id": 2333704901, "lat": 50.884726, "lon": 4.3009245}, {"type": "node", "id": 2333704903, "lat": 50.8847419, "lon": 4.3012061}, {"type": "node", "id": 2333704905, "lat": 50.8847542, "lon": 4.3010765}, {"type": "node", "id": 2333704907, "lat": 50.8847368, "lon": 4.3011107}, {"type": "node", "id": 2333704913, "lat": 50.8847468, "lon": 4.3009217}, {"type": "node", "id": 4220692989, "lat": 50.8729252, "lon": 4.3269783, "tags": {"amenity": "restaurant", "contact:email": "info@restaurantfrenchkiss.com", "contact:phone": "+32 2 425 22 93", "contact:website": "https://www.restaurantfrenchkiss.com/", "cuisine": "french", "name": "French Kiss", "opening_hours": "Tu-Su 12:00-14:30,18:30-22:00; Fr 12:00-14:30,18:30-22:30"}}, {"type": "node", "id": 4515079790, "lat": 50.8723253, "lon": 4.3241377, "tags": {"amenity": "restaurant", "contact:email": "info@wineinthecity.be", "contact:phone": "+32 2 420 09 20", "contact:website": "https://www.wineinthecity.be/", "name": "Wine in the City", "stars": "1", "wikidata": "Q86680204"}}, {"type": "node", "id": 4515087691, "lat": 50.8674968, "lon": 4.3266007, "tags": {"amenity": "restaurant", "name": "Chez Soje", "name:fr": "Chez Soje", "toilets:wheelchair": "no", "wheelchair": "limited"}}, {"type": "node", "id": 4607599756, "lat": 50.8795151, "lon": 4.3294136, "tags": {"amenity": "restaurant", "contact:email": "contact@yerevan-restaurant.be", "contact:website": "https://yerevan-restaurant.be/", "cuisine": "armenian", "name": "Yerevan"}}, {"type": "node", "id": 4607599758, "lat": 50.8797273, "lon": 4.3294881, "tags": {"amenity": "restaurant", "contact:phone": "+32 2 427 89 73", "cuisine": "chinese", "name": "Mei Wei Cheng", "takeaway": "yes"}}, {"type": "node", "id": 4607599761, "lat": 50.8801282, "lon": 4.3293867, "tags": {"amenity": "restaurant", "contact:email": "jette@schievelavabo.com", "contact:facebook": "https://www.facebook.com/schievelavabojette/", "contact:phone": "+32 2 311 81 49", "contact:website": "https://schievelavabo.com/restaurants/jette", "cuisine": "belgian", "delivery": "yes", "name": "Schievelavabo", "opening_hours": "12:00-14:00,18:30-23:00; Sa 18:30-23:00", "outdoor_seating": "yes", "takeaway": "yes", "wheelchair": "no"}}, {"type": "node", "id": 4607600370, "lat": 50.8768564, "lon": 4.328358, "tags": {"amenity": "restaurant", "contact:phone": "+32 2 427 88 85", "contact:website": "https://www.chez-yu-jin.be/", "cuisine": "chinese", "name": "Chez Yu Jin", "opening_hours": "Tu-Su 17:30-21:00", "takeaway": "yes"}}, {"type": "node", "id": 4607614930, "lat": 50.8764008, "lon": 4.3280373, "tags": {"amenity": "restaurant", "contact:facebook": "https://www.facebook.com/people/La-Conca-doro-jette/100063519492884/", "contact:phone": "+32 2 428 35 64", "contact:website": "https://www.concadoro.be", "cuisine": "italian", "delivery": "yes", "name": "La Conca d'Oro", "opening_hours": "Mo-Sa 12:00-14:30,18:30-23:00", "takeaway": "yes"}}, {"type": "node", "id": 4607673828, "lat": 50.8738363, "lon": 4.3260204, "tags": {"amenity": "restaurant", "contact:email": "zhiyongc58@gmail.com", "contact:mobile": "+32 484 91 40 47", "contact:phone": "+32 2 597 51 29", "contact:website": "https://www.sushi-tokyo.be/", "cuisine": "sushi", "name": "Sushi Tokyo", "opening_hours": "Mo 18:00-21:15; Tu-Fr 11:30-14:00,18:00-21:15; Sa,Su 18:00-21:30"}}, {"type": "node", "id": 4929638524, "lat": 50.8805847, "lon": 4.329749, "tags": {"amenity": "restaurant", "contact:facebook": "https://www.facebook.com/people/Tour-du-Monde/100059758875939/", "contact:phone": "+32 2 426 02 00", "contact:website": "https://tourdumondejette.be/", "cuisine": "international", "name": "Tour Du Monde", "opening_hours": "12:00-15:00,18:00-22:00; Tu off; Sa 18:00-22:00", "outdoor_seating": "yes", "wheelchair": "no"}}, {"type": "node", "id": 5212061897, "lat": 50.8762742, "lon": 4.3374355, "tags": {"amenity": "restaurant", "contact:facebook": "https://www.facebook.com/TaverneTerLinden", "contact:mobile": "+32 488 88 06 96", "contact:website": "https://taverneterlinde.ateliergrooteiland.be/", "email": "taverneterlinden@eatvzw.be", "name": "Taverne Ter Linden", "opening_hours": "Mo-We 10:00-17:00; Th,Fr 10:00-22:00", "operator": "EAT vzw"}}, {"type": "node", "id": 5813207425, "lat": 50.8725557, "lon": 4.3328404, "tags": {"amenity": "restaurant", "contact:phone": "+32 2 218 49 11", "contact:website": "https://www.pizzeriabella-jette.be/", "cuisine": "pizza", "delivery": "yes", "delivery:website": "https://www.pizzeriabella-jette.be/", "diet:vegan": "no", "diet:vegetarian": "yes", "name": "Pizzeria Bella", "opening_hours": "Tu-Su 12:00-23:00"}}, {"type": "node", "id": 6417809455, "lat": 50.8741092, "lon": 4.323016, "tags": {"amenity": "restaurant", "contact:instagram": "1090braceria", "contact:mobile": "+32 480 61 84 98", "contact:phone": "+32 2 449 59 96", "cuisine": "steak_house", "name": "Braceria 1090", "opening_hours": "Su, We-Th 18:30-23:00; Fr-Sa 18:30-23:30"}}, {"type": "node", "id": 6419337932, "lat": 50.8722888, "lon": 4.3256943, "tags": {"amenity": "restaurant", "check_date:opening_hours": "2023-04-09", "contact:mobile": "+32 469 16 85 33", "contact:website": "https://www.bruxellessteakhouse.com/", "name": "BXL Steakhouse", "opening_hours:signed": "no", "start_date": "2023-02-10", "was:name": "Bun's Restaurant"}}, {"type": "node", "id": 6447361856, "lat": 50.8732167, "lon": 4.3288273, "tags": {"amenity": "restaurant", "brand": "Pizza Hut", "brand:wikidata": "Q191615", "brand:wikipedia": "en:Pizza Hut", "cuisine": "pizza", "name": "Pizza Hut"}}, {"type": "node", "id": 6693949404, "lat": 50.8736512, "lon": 4.3341914, "tags": {"amenity": "restaurant", "contact:email": "ghassanw7@gmail.com", "contact:facebook": "https://www.facebook.com/people/Cristobald/100063463235776/", "contact:mobile": "+32 475 22 92 04", "contact:website": "http://www.cristobald.be/", "name": "Le Cristobald", "opening_hours": "Mo-Fr 11:00-15:00,19:00-23:00; Sa 11:00-15:00", "outdoor_seating": "yes", "wheelchair": "no"}}, {"type": "node", "id": 6702768752, "lat": 50.8679084, "lon": 4.3291906, "tags": {"amenity": "restaurant", "name": "Prestige", "outdoor_seating": "yes"}}, {"type": "node", "id": 8930892289, "lat": 50.8846068, "lon": 4.3009249}, {"type": "node", "id": 8930892305, "lat": 50.8847008, "lon": 4.3012573}, {"type": "node", "id": 8930892306, "lat": 50.884735, "lon": 4.3010787}, {"type": "node", "id": 9646081199, "lat": 50.8723852, "lon": 4.3243649, "tags": {"amenity": "restaurant", "contact:mobile": "+32 468 47 77 81", "name": "O'Tweat", "opening_hours": "Mo-Th 08:30-21:30; Fr 15:00-22:30; Sa 09:00-22:30; Su 09:00-21:00", "website:menu": "https://drive.google.com/file/d/1TDKPj8C0VoJHt9MDsuxwglQohxU0pahe/view"}}, {"type": "node", "id": 9646081211, "lat": 50.8736416, "lon": 4.3253478, "tags": {"amenity": "restaurant", "contact:email": "snack.castello@gmail.com", "contact:mobile": "+32 499 91 01 55", "contact:phone": "+32 2 681 15 49", "contact:website": "https://www.pizza-castello.be/", "cuisine": "pizza", "name": "Castello"}}, {"type": "node", "id": 9672086381, "lat": 50.8721095, "lon": 4.3260278, "tags": {"access": "no", "amenity": "restaurant", "name": "La Grande Terrasse", "opening_hours": "off \"Has been closed for months (info June 2025)\""}}, {"type": "node", "id": 9688363580, "lat": 50.8801378, "lon": 4.3288716, "tags": {"amenity": "restaurant", "contact:email": "barapaot@gmail.com", "contact:facebook": "https://www.facebook.com/Barapaot/", "contact:phone": "+32 2 219 29 96", "name": "Barapaot", "opening_hours": "We-Sa 18:00-23:00; Su 12:00-15:00,18:00-23:00"}}, {"type": "node", "id": 9688387838, "lat": 50.8801388, "lon": 4.3287706, "tags": {"amenity": "restaurant", "contact:facebook": "https://www.facebook.com/LeBreugel", "contact:phone": "+32 2 428 28 30", "contact:website": "https://www.lebreughel.be/", "name": "Le Breughel", "opening_hours": "Mo-Su 10:00-22:30", "outdoor_seating": "yes", "takeaway": "yes"}}, {"type": "node", "id": 9831397950, "lat": 50.88352, "lon": 4.3367283, "tags": {"amenity": "restaurant", "contact:mobile": "+32 486 65 45 14", "contact:phone": "+32 2 305 34 69", "contact:website": "https://pizzeriacasagrande.business.site/", "cuisine": "pizza", "delivery": "yes", "name": "Casa Grande", "opening_hours": "Mo 18:00-00:00; Tu-Th 12:00-15:00,18:00-00:00; Fr-Su 12:00-15:00,18:00-01:00", "takeaway": "yes"}}, {"type": "node", "id": 9889410313, "lat": 50.8721624, "lon": 4.3239783, "tags": {"amenity": "restaurant", "contact:email": "contact@happytherapy.vip", "contact:facebook": "https://www.facebook.com/happily.brussels/", "contact:mobile": "+32 497 79 58 08", "contact:website": "https://happily.brussels/", "diet:vegetarian": "only", "name": "Happily", "opening_hours": "Tu-Su 08:30-14:30"}}, {"type": "node", "id": 9935362184, "lat": 50.8717383, "lon": 4.3314778, "tags": {"amenity": "restaurant", "contact:facebook": "https://www.facebook.com/RestaurantTransilvaniaBrussel/", "contact:phone": "+32 2 427 94 21", "cuisine": "romanian", "description:ro": "Restaurant Romanesc din Jette-Brussels", "name": "Transilvania", "opening_hours": "Mo off; Tu-Su 12:00-22:00"}}, {"type": "node", "id": 10096370690, "lat": 50.8680802, "lon": 4.3357309, "tags": {"amenity": "restaurant", "cuisine": "pasta;pizza", "name": "P\u00e2t'zza"}}, {"type": "node", "id": 10198025692, "lat": 50.8805428, "lon": 4.3296882, "tags": {"amenity": "restaurant", "contact:facebook": "https://www.facebook.com/people/Les-petits-os/100057626702585/", "contact:phone": "+32 2 427 63 31", "contact:website": "https://www.lespetitsos.be", "name": "Les Petits Os", "opening_hours": "Mo-Sa 18:00-24:00; Su 12:00-15:00,18:00-24:00", "outdoor_seating": "yes", "takeaway": "yes"}}, {"type": "node", "id": 10199218257, "lat": 50.8800292, "lon": 4.3295829, "tags": {"amenity": "restaurant", "contact:phone": "+32 2 420 28 46", "contact:website": "https://www.delicepizzaetpasta.be/", "cuisine": "pizza;pasta;burger;panini", "delivery": "yes", "name": "Pizza D\u00e9lice", "takeaway": "yes"}}, {"type": "node", "id": 10199268960, "lat": 50.8799036, "lon": 4.3293227, "tags": {"amenity": "restaurant", "contact:email": "thecousins.bxl@gmail.com", "contact:facebook": "https://www.facebook.com/people/The-Cousins/100076442674852/", "contact:mobile": "+32 468 45 41 89", "contact:website": "https://www.thecousins-jette.be/", "cuisine": "turkish", "delivery": "yes", "name": "The Cousin's", "opening_hours": "10:00-22:00; Tu off", "takeaway": "yes"}}, {"type": "node", "id": 10236031702, "lat": 50.8759864, "lon": 4.3369362, "tags": {"amenity": "restaurant", "contact:email": "contact@pizzabento.be", "contact:facebook": "https://www.facebook.com/people/Pizza-Bento/100063722492718/", "contact:phone": "+32 2 426 00 02", "contact:website": "http://pizzabento.be/", "cuisine": "pizza", "delivery": "yes", "name": "Pizza Bento", "opening_hours": "Tu-Fr 12:00-14:00,18:00-22:30; Sa 18:00-22:30", "takeaway": "only"}}, {"type": "node", "id": 10688397427, "lat": 50.876539, "lon": 4.3335425, "tags": {"amenity": "restaurant", "contact:mobile": "+32 493 43 91 53", "contact:website": "https://pizza-like-pizza-restaurant.business.site/", "cuisine": "pizza", "name": "Pizza Like", "opening_hours": "Mo-Th,Sa 13:00-23:00; Fr,Su 15:00-23:00"}}, {"type": "node", "id": 10746733625, "lat": 50.8779074, "lon": 4.3235352, "tags": {"amenity": "restaurant", "contact:email": "ferme.wilg@gmail.com", "contact:facebook": "https://www.facebook.com/people/La-Ferme-du-Wilg/100067192062209/", "contact:phone": "+32 2 420 56 10", "contact:website": "https://la-ferme-du-wilg.business.site/", "name": "La Ferme du Wilg", "opening_hours": "Tu-Su 12:00-15:00,18:00-23:00", "outdoor_seating": "yes"}}, {"type": "node", "id": 11234246429, "lat": 50.8751216, "lon": 4.3338047, "tags": {"amenity": "restaurant", "cuisine": "asian", "name": "The Good Friend", "takeaway": "only"}}, {"type": "node", "id": 11280011728, "lat": 50.8728919, "lon": 4.3240219, "tags": {"amenity": "restaurant", "cuisine": "sushi", "name": "Sensei"}}, {"type": "node", "id": 11711143162, "lat": 50.8720619, "lon": 4.3240459, "tags": {"amenity": "restaurant", "contact:email": "info@ozashi.be", "contact:facebook": "https://www.facebook.com/people/Ozashibe/61551844501273/", "contact:mobile": "+32 470 80 05 71", "contact:website": "https://ozashi.be/", "name": "Ozashi Sushi Bar", "opening_hours": "Tu-Su 11:30-22:30; Fr,Sa 11:30-23:00"}}, {"type": "node", "id": 12039909134, "lat": 50.8736162, "lon": 4.3258704, "tags": {"amenity": "restaurant", "name": "Nour al Shaam"}}, {"type": "node", "id": 12051076905, "lat": 50.8764291, "lon": 4.3278089, "tags": {"amenity": "restaurant", "cuisine": "moroccan", "name": "Aux D\u00e9lices De Fes"}}, {"type": "node", "id": 12460923055, "lat": 50.8821839, "lon": 4.3159465, "tags": {"amenity": "restaurant", "contact:email": "info@hoshihoshi.be", "contact:facebook": "https://www.facebook.com/hoshihoshi.be/", "contact:phone": "+32 2 476 80 00", "contact:website": "https://www.hoshihoshi.be", "cuisine": "japanese", "name": "Hoshi Hoshi", "opening_hours": "11:30-15:00,17:30-22:30; Tu 17:30-22:30"}}, {"type": "node", "id": 12944830548, "lat": 50.8732944, "lon": 4.3232254, "tags": {"amenity": "restaurant", "contact:mobile": "+32 466 58 13 00", "cuisine": "syrian", "name": "Almas Alsham", "opening_hours": "Mo-Sa 12:00-00:00; Tu off; Su 12:00-23:00", "outdoor_seating": "yes"}}, {"type": "node", "id": 13246215870, "lat": 50.8732403, "lon": 4.3280286, "tags": {"amenity": "restaurant", "name": "Rawabi Al-Yemen", "origin": "yemeni"}}, {"type": "node", "id": 13517203435, "lat": 50.871846, "lon": 4.3245088, "tags": {"amenity": "restaurant", "cuisine": "indian", "name": "Jalebi"}}, {"type": "way", "id": 224544518, "nodes": [2333704857, 2333704881, 2333704882, 2333704885, 2333704884, 2333704895, 2333704897, 2333704899, 2333704901, 2333704913, 2333704905, 8930892306, 2333704907, 2333704903, 2333704891, 2333704893, 2333704889, 8930892305, 2333704890, 2333704879, 2333704877, 2333704875, 2333704874, 2333704868, 2333704865, 2333704863, 2333704855, 2333704851, 2333704852, 2333704856, 2333704858, 2333704862, 2333704860, 2333704873, 2333704872, 2333704867, 2333704866, 2333704871, 2333704869, 2333704864, 8930892289, 2333704857], "tags": {"addr:housenumber": "145", "addr:street": "Avenue du Laerbeek - Laarbeeklaan", "amenity": "restaurant", "building": "yes", "contact:email": "laerbeek@restauration-nouvelle.be", "contact:phone": "+32 2 478 08 88", "contact:website": "https://restauration-nouvelle.be/etablissement/chalet-du-laerbeek/", "name": "Chalet du Laerbeek", "opening_hours": "10:00-18:00", "outdoor_seating": "yes", "ref:UrbIS": "6036608", "wheelchair": "limited", "wikidata": "Q126288043", "wikimedia_commons": "Category:Chalet du Laerbeek"}}, {"type": "way", "id": 1055683349, "nodes": [2332104484, 2332104482, 2332104481, 2332104479, 2332104466, 2332104472, 2332104480, 2332104484], "tags": {"addr:housenumber": "145", "addr:street": "Chauss\u00e9e de Dieleghem - Dieleghemse Steenweg", "amenity": "restaurant", "contact:facebook": "https://www.facebook.com/herakles.jette/", "contact:phone": "+32 2 478 25 92", "contact:website": "https://www.restaurantherakles.be/", "contact:whatsapp": "+32 495 54 19 70", "cuisine": "greek", "name": "Herakles", "opening_hours": "Mo-Fr 12:00-14:00,17:30-23:00; Tu off; Sa,Su 12:00-23:00", "outdoor_seating": "yes", "takeaway": "yes", "wheelchair": "no"}}]}