{"version": 0.6, "generator": "Overpass API 0.7.62.10 2d4cfc48", "osm3s": {"timestamp_osm_base": "2026-02-02T17:46:00Z", "copyright": "The data included in this document is from www.openstreetmap.org. The data is made available under ODbL."}, "elements": [{"type": "node", "id": 712913905, "lat": 50.8223662, "lon": 4.3886139, "tags": {"amenity": "restaurant", "check_date": "2025-02-01", "name": "Le Quartier Latin"}}, {"type": "node", "id": 1631413162, "lat": 50.8188712, "lon": 4.3789652, "tags": {"alt_name": "Les Sept Saveurs", "amenity": "restaurant", "check_date:opening_hours": "2024-05-23", "indoor_seating": "yes", "name": "Les 7 Saveurs", "opening_hours:signed": "no", "outdoor_seating": "yes", "wheelchair": "no"}}, {"type": "node", "id": 1776158625, "lat": 50.8207458, "lon": 4.3767746, "tags": {"amenity": "restaurant", "check_date:opening_hours": "2024-05-23", "name": "Delicieux", "opening_hours": "Su-Fr 11:30-14:00, Mo-Su 17:00-22:30"}}, {"type": "node", "id": 2302371944, "lat": 50.823753, "lon": 4.3741641, "tags": {"amenity": "restaurant", "check_date:opening_hours": "2024-05-23", "name": "Canterbury", "opening_hours:signed": "no"}}, {"type": "node", "id": 2471872601, "lat": 50.8230655, "lon": 4.3814492, "tags": {"air_conditioning": "no", "amenity": "restaurant", "bar": "yes", "contact:phone": "+32 2 642 96 29", "contact:website": "https://www.emilebistro.be/", "cuisine": "belgian;breakfast;lunch;burger;regional;fish_and_chips;bistro", "diet:vegetarian": "yes", "name": "\u00c9mile Bistro", "opening_hours": "Mo-Fr 11:00-23:00, Sa 10:00-00:00, Su 09:00-22:00", "outdoor_seating": "sidewalk", "toilets": "yes", "toilets:access": "customers", "toilets:disposal": "flush", "toilets:fee": "no", "toilets:handwashing": "yes", "toilets:level": "-1", "toilets:paper_supplied": "yes", "toilets:wheelchair": "no", "wheelchair": "limited"}}, {"type": "node", "id": 3445558671, "lat": 50.8230682, "lon": 4.381087, "tags": {"amenity": "restaurant", "contact:phone": "+32 2 646 67 77", "contact:website": "https://www.ilclassico.be", "cuisine": "pizza;italian", "delivery": "no", "diet:vegetarian": "yes", "name": "Pizzeria il Classico", "opening_hours": "Mo-Fr 12:00-15:00, 18:00-23:00; Sa-Su 18:00-23:00", "outdoor_seating": "yes", "takeaway": "yes", "wheelchair": "no"}}, {"type": "node", "id": 4416006590, "lat": 50.8260412, "lon": 4.3756093, "tags": {"amenity": "restaurant", "check_date": "2024-04-21", "contact:mobile": "+32 471 84 65 31", "contact:website": "https://www.lacampagnola.be/", "cuisine": "pizza", "name": "Le Vieux Ch\u00eane", "opening_hours": "Mo-Fr 12:00-15:00,18:00-23:00; Sa 18:00-23:00; Su off"}}, {"type": "node", "id": 4881826304, "lat": 50.8200375, "lon": 4.3822105, "tags": {"amenity": "restaurant", "check_date:opening_hours": "2024-02-08", "contact:phone": "+32 2 648 85 80", "cuisine": "pizza", "delivery": "yes", "name": "Avanti", "opening_hours:signed": "no", "takeaway": "yes"}}, {"type": "node", "id": 5827349070, "lat": 50.820851, "lon": 4.3767899, "tags": {"amenity": "restaurant", "contact:email": "oishii.food.ixelles@gmail.com", "contact:phone": "+32 2 520 68 81", "contact:website": "https://www.oishii-food.be/", "cuisine": "japanese", "name": "Oishii Food", "opening_hours": "Tu-Fr 12:00-14:30,17:30-21:30; Sa,Su 17:30-21:30"}}, {"type": "node", "id": 6167058862, "lat": 50.8196282, "lon": 4.3824081, "tags": {"amenity": "restaurant", "check_date": "2023-12-16", "contact:phone": "+32 2 640 52 59", "contact:website": "https://www.pacifiquerestaurant.com/", "cuisine": "vietnamese", "diet:vegetarian": "yes", "name": "Pacifique", "opening_hours": "Th-Mo 12:00-14:30,18:00-22:30; We 18:00-22:30", "wheelchair": "no"}}, {"type": "node", "id": 6234407427, "lat": 50.8275155, "lon": 4.3815067, "tags": {"amenity": "restaurant", "contact:phone": "+32 2 203 00 14", "contact:website": "https://www.comptoir-rodin.be/", "indoor_seating": "yes", "name": "Comptoir Rodin", "opening_hours": "Tu-Fr 08:30-15:30; Sa, Su 10:30-13:00, 13:30-16:00", "outdoor_seating": "yes"}}, {"type": "node", "id": 6504827974, "lat": 50.8254386, "lon": 4.3756539, "tags": {"amenity": "restaurant", "contact:phone": "+32 2 342 09 75", "contact:website": "https://brutfood.be/", "name": "Brut", "opening_hours": "Th,Fr 12:00-14:30,19:30-22:00; Su 13:00-14:30"}}, {"type": "node", "id": 7729067780, "lat": 50.826402, "lon": 4.375624, "tags": {"amenity": "restaurant", "check_date": "2026-02-01", "name": "Arpaije", "opening_hours": "Tu-Fr 12:00-13:45"}}, {"type": "node", "id": 11834674554, "lat": 50.825508, "lon": 4.3758172, "tags": {"amenity": "restaurant", "check_date": "2024-04-21", "name": "Dyossa"}}, {"type": "node", "id": 12135994288, "lat": 50.8187173, "lon": 4.3794805, "tags": {"amenity": "restaurant", "contact:mobile": "+32 471 97 58 64", "cuisine": "syrian", "name": "Damascus House"}}]}