{"version": 0.6, "generator": "Overpass API 0.7.62.10 2d4cfc48", "osm3s": {"timestamp_osm_base": "2026-02-03T10:46:34Z", "copyright": "The data included in this document is from www.openstreetmap.org. The data is made available under ODbL."}, "elements": [{"type": "node", "id": 2962344714, "lat": 50.8346869, "lon": 4.3056388, "tags": {"name": "Saint-Guidon - Sint-Guido", "name:fr": "Saint-Guidon", "name:nl": "Sint-Guido", "public_transport": "stop_position", "railway": "tram_stop", "tram": "yes", "wikidata": "Q111821466"}}, {"type": "node", "id": 2962344715, "lat": 50.8347706, "lon": 4.3063632, "tags": {"name": "Saint-Guidon - Sint-Guido", "name:fr": "Saint-Guidon", "name:nl": "Sint-Guido", "public_transport": "stop_position", "railway": "tram_stop", "tram": "yes"}}, {"type": "node", "id": 4229124266, "lat": 50.8357316, "lon": 4.3122384, "tags": {"name": "R\u00e9sistance - Verzet", "name:fr": "R\u00e9sistance", "name:nl": "Verzet", "public_transport": "stop_position", "railway": "tram_stop", "tram": "yes"}}, {"type": "node", "id": 4229124267, "lat": 50.8356441, "lon": 4.311503, "tags": {"name": "R\u00e9sistance - Verzet", "name:fr": "R\u00e9sistance", "name:nl": "Verzet", "public_transport": "stop_position", "railway": "tram_stop", "tram": "yes"}}, {"type": "node", "id": 4229124269, "lat": 50.8361314, "lon": 4.3146813, "tags": {"name": "Douvres - Dover", "name:fr": "Douvres", "name:nl": "Dover", "public_transport": "stop_position", "railway": "tram_stop", "tram": "yes"}}, {"type": "node", "id": 4599849518, "lat": 50.8360629, "lon": 4.3140618, "tags": {"name": "Douvres - Dover", "name:fr": "Douvres", "name:nl": "Dover", "public_transport": "stop_position", "railway": "tram_stop", "tram": "yes"}}]}