{"version": 0.6, "generator": "Overpass API 0.7.62.10 2d4cfc48", "osm3s": {"timestamp_osm_base": "2026-02-02T16:04:46Z", "copyright": "The data included in this document is from www.openstreetmap.org. The data is made available under ODbL."}, "elements": [{"type": "node", "id": 245041091, "lat": 50.8303472, "lon": 4.3451147, "tags": {"name": "Parvis de Saint-Gilles - Sint-Gillisvoorplein", "name:fr": "Parvis de Saint-Gilles", "name:nl": "Sint-Gillisvoorplein", "opening_hours": "4:30-1:17", "railway": "subway_entrance", "ref": "1", "wheelchair": "yes"}}, {"type": "node", "id": 321456915, "lat": 50.8294147, "lon": 4.3470381, "tags": {"name": "Rue H\u00f4tel des Monnaies - Munthofstraat", "name:fr": "Rue H\u00f4tel des Monnaies", "name:nl": "Munthofstraat", "railway": "subway_entrance", "ref": "2", "wheelchair": "no"}}, {"type": "node", "id": 356618476, "lat": 50.8353079, "lon": 4.3552624, "tags": {"name": "Avenue Louise - Louizalaan", "name:fr": "Avenue Louise", "name:nl": "Louizalaan", "railway": "subway_entrance", "ref": "2", "wheelchair": "no"}}, {"type": "node", "id": 356618482, "lat": 50.8361092, "lon": 4.3551118, "tags": {"name": "Boulevard de Waterloo - Waterloolaan", "name:fr": "Boulevard de Waterloo", "name:nl": "Waterloolaan", "railway": "subway_entrance", "ref": "3", "wheelchair": "no"}}, {"type": "node", "id": 356618483, "lat": 50.8356445, "lon": 4.3549891, "tags": {"name": "Place Louise - Louizaplein", "name:fr": "Place Louise", "name:nl": "Louizaplein", "railway": "subway_entrance", "ref": "5", "wheelchair": "no"}}, {"type": "node", "id": 370486262, "lat": 50.8260659, "lon": 4.3458722, "tags": {"name": "Chauss\u00e9e de Waterloo - Waterloosesteenweg", "name:fr": "Chauss\u00e9e de Waterloo", "name:nl": "Waterloosesteenweg", "railway": "subway_entrance", "ref": "2", "wheelchair": "no"}}, {"type": "node", "id": 370486263, "lat": 50.8264059, "lon": 4.3463574, "tags": {"check_date:wheelchair": "2025-06-19", "name": "Chauss\u00e9e de Waterloo - Waterloosesteenweg", "name:fr": "Chauss\u00e9e de Waterloo", "name:nl": "Waterloosesteenweg", "railway": "subway_entrance", "ref": "1", "wheelchair": "no"}}, {"type": "node", "id": 1670198864, "lat": 50.8355735, "lon": 4.3556693, "tags": {"name": "Avenue Louise - Louizalaan", "name:fr": "Avenue Louise", "name:nl": "Louizalaan", "railway": "subway_entrance", "ref": "1", "wheelchair": "no"}}, {"type": "node", "id": 3139105873, "lat": 50.8325902, "lon": 4.3423048, "tags": {"name": "Chauss\u00e9e de Forest - Vorstse Steenweg", "name:fr": "Chauss\u00e9e de Forest", "name:nl": "Vorstse Steenweg", "railway": "subway_entrance", "ref": "3", "wheelchair": "no"}}, {"type": "node", "id": 3139105890, "lat": 50.8327428, "lon": 4.343567, "tags": {"name": "Avenue de la Porte de Hal - Hallepoortlaan", "name:fr": "Avenue de la Porte de Hal", "name:nl": "Hallepoortlaan", "railway": "subway_entrance", "ref": "4", "wheelchair": "no"}}, {"type": "node", "id": 3139106031, "lat": 50.8335013, "lon": 4.3428421, "tags": {"name": "Rue C\u00e9sar de Paepe - C\u00e9sar Depaepestraat", "name:fr": "Rue C\u00e9sar de Paepe", "name:nl": "C\u00e9sar Depaepestraat", "railway": "subway_entrance", "ref": "1"}}, {"type": "node", "id": 3139106036, "lat": 50.8336576, "lon": 4.3437316, "tags": {"name": "Boulevard du Midi - Zuidlaan", "name:fr": "Boulevard du Midi", "name:nl": "Zuidlaan", "railway": "subway_entrance", "ref": "2"}}, {"type": "node", "id": 3994573042, "lat": 50.8333999, "lon": 4.3502303, "tags": {"name": "Avenue Henri Jaspar - Henri Jasparlaan", "name:fr": "Avenue Henri Jaspar", "name:nl": "Henri Jasparlaan", "railway": "subway_entrance", "ref": "3", "wheelchair": "no"}}, {"type": "node", "id": 3994573043, "lat": 50.833637, "lon": 4.3509146, "tags": {"name": "Avenue de la Toison d'Or - Gulden-Vlieslaan", "name:fr": "Avenue de la Toison d'Or", "name:nl": "Gulden-Vlieslaan", "railway": "subway_entrance", "ref": "2", "wheelchair": "no"}}, {"type": "node", "id": 3994573044, "lat": 50.8337388, "lon": 4.3493992, "tags": {"name": "Boulevard de Waterloo - Waterloolaan", "name:fr": "Boulevard de Waterloo", "name:nl": "Waterloolaan", "railway": "subway_entrance", "ref": "4", "wheelchair": "no"}}, {"type": "node", "id": 3994573045, "lat": 50.8339473, "lon": 4.3498808, "tags": {"name": "Boulevard de Waterloo - Waterloolaan", "name:fr": "Boulevard de Waterloo", "name:nl": "Waterloolaan", "railway": "subway_entrance", "ref": "1", "wheelchair": "no"}}, {"type": "node", "id": 4034921504, "lat": 50.8356508, "lon": 4.3550768, "tags": {"name": "Place Louise - Louizaplein", "name:fr": "Place Louise", "name:nl": "Louizaplein", "railway": "subway_entrance", "ref": "5H", "wheelchair": "yes"}}, {"type": "node", "id": 4136709988, "lat": 50.8359806, "lon": 4.3378696, "tags": {"name": "Avenue Fonsny - Fonsnylaan", "name:fr": "Avenue Fonsny", "name:nl": "Fonsnylaan", "railway": "subway_entrance", "ref": "1", "wheelchair": "no"}}, {"type": "node", "id": 4486960052, "lat": 50.8357182, "lon": 4.3553178, "tags": {"name": "Place Louise - Louizaplein", "name:fr": "Place Louise", "name:nl": "Louizaplein", "railway": "subway_entrance", "ref": "6", "wheelchair": "no"}}, {"type": "node", "id": 4858267914, "lat": 50.8365094, "lon": 4.3383719, "tags": {"bicycle": "yes", "railway": "subway_entrance", "ref": "8H", "wheelchair": "yes"}}, {"type": "node", "id": 4860023616, "lat": 50.8376456, "lon": 4.3368303, "tags": {"name": "Boulevard de l'Europe - Europalaan", "name:fr": "Boulevard de l'Europe", "name:nl": "Europalaan", "railway": "subway_entrance", "ref": "6", "wheelchair": "no"}}, {"type": "node", "id": 4863745497, "lat": 50.8358636, "lon": 4.3389145, "tags": {"barrier": "gate", "check_date:opening_hours": "2023-08-10", "name": "Avenue Fonsny - Fonsnylaan", "name:fr": "Avenue Fonsny", "name:nl": "Fonsnylaan", "opening_hours": "Mo-Su 06:30-20:00", "railway": "subway_entrance", "ref": "7", "wheelchair": "yes"}}, {"type": "node", "id": 4873977077, "lat": 50.836778, "lon": 4.3366267, "tags": {"name": "Gare SNCB - Station NMBS", "name:fr": "Gare SNCB", "name:nl": "Station NMBS", "railway": "subway_entrance", "ref": "2", "wheelchair": "no"}}, {"type": "node", "id": 4873995898, "lat": 50.8370928, "lon": 4.3367006, "tags": {"railway": "subway_entrance", "ref": "3", "wheelchair": "yes"}}, {"type": "node", "id": 4970762139, "lat": 50.8365036, "lon": 4.3381977, "tags": {"check_date:wheelchair": "2025-05-08", "railway": "subway_entrance", "ref": "8", "wheelchair": "no"}}, {"type": "node", "id": 9321501046, "lat": 50.8331047, "lon": 4.3429048, "tags": {"name": "Rue C\u00e9sar de Paepe - C\u00e9sar Depaepestraat", "name:fr": "Rue C\u00e9sar de Paepe", "name:nl": "C\u00e9sar Depaepestraat", "railway": "subway_entrance", "ref": "1H", "wheelchair": "yes"}}, {"type": "node", "id": 10712054664, "lat": 50.8340804, "lon": 4.3431846, "tags": {"railway": "subway_entrance", "ref": "6", "wheelchair": "yes"}}]}