{"version": 0.6, "generator": "Overpass API 0.7.62.10 2d4cfc48", "osm3s": {"timestamp_osm_base": "2026-02-03T11:00:55Z", "copyright": "The data included in this document is from www.openstreetmap.org. The data is made available under ODbL."}, "elements": [{"type": "node", "id": 433340087, "lat": 50.9074912, "lon": 4.4109491, "tags": {"amenity": "restaurant", "name": "La Marina", "wheelchair": "limited"}}, {"type": "node", "id": 1676021592, "lat": 50.895347, "lon": 4.387884, "tags": {"amenity": "restaurant", "contact:phone": "+32 2 262 27 49", "name": "In den Achtsten Hemel", "opening_hours": "Mo-Sa 11:00-22:00"}}, {"type": "node", "id": 4657680163, "lat": 50.8779393, "lon": 4.3792777, "tags": {"amenity": "restaurant", "changing_table": "no", "check_date:opening_hours": "2022-10-22", "contact:email": "filousophe1030@gmail.com", "contact:mobile": "+32 487 52 02 84", "contact:website": "https://filousophe.com", "entrance:kerb:height": "3", "entrance:step_count": "1", "entrance:width": "130", "full_name": "Brasserie Filou Sophe", "indoor_seating": "yes", "name": "Filou Sophe", "opening_hours": "Tu-Su 09:00-17:00; Mo off", "outdoor_seating": "yes", "toilets:wheelchair": "yes", "toilets:wheelchair:accessible_via": "ground floor", "wheelchair:description": "Need to open the second door. otherwise opening one door is 67cm wide.", "wheelchair:turning_circle": "yes"}}, {"type": "node", "id": 6272564392, "lat": 50.8760881, "lon": 4.3783843, "tags": {"amenity": "restaurant", "changing_table": "no", "cuisine": "middle_eastern", "entrance:kerb:height": "20", "entrance:ramp": "no", "entrance:step_count": "1", "entrance:width": "80", "name": "Tayba Food", "wheelchair:turning_circle": "yes"}}, {"type": "node", "id": 6849402554, "lat": 50.8950823, "lon": 4.3875505, "tags": {"amenity": "restaurant", "contact:email": "info@lescyclades.be", "contact:facebook": "https://www.facebook.com/people/Les-Cyclades/100063972435015/", "contact:phone": "+32 2 269 69 94", "contact:website": "https://www.lescyclades.be/", "cuisine": "greek", "name": "Les Cyclades", "opening_hours": "Tu-Su 11:30-14:30,18:00-23:00; Fr,Sa 11:30-14:30,18:00-23:30", "outdoor_seating": "yes", "takeaway": "yes"}}, {"type": "node", "id": 8171731378, "lat": 50.8948068, "lon": 4.3835871, "tags": {"amenity": "restaurant", "contact:facebook": "https://www.facebook.com/LeMandarinChinoisNeder", "contact:phone": "+32 2 262 15 41", "cuisine": "chinese", "name": "Le Mandarin", "opening_hours": "Mo-Sa 18:00-22:00; Tu off; Su 12:00-14:00,18:00-22:00", "outdoor_seating": "yes", "takeaway": "yes"}}, {"type": "node", "id": 8305755592, "lat": 50.8947193, "lon": 4.3852436, "tags": {"air_conditioning": "yes", "amenity": "restaurant", "contact:email": "info@o-thai.com", "contact:facebook": "https://www.facebook.com/%C3%94-Tha%C3%AF-2091899007805406/", "contact:phone": "+32 2 772 03 18", "contact:website": "https://o-thai.com/en", "cuisine": "thai", "delivery": "yes", "name": "\u00d4 Tha\u00ef", "opening_hours": "10:30-22:00; Fr,Sa 10:30-24:00", "takeaway": "yes", "wheelchair": "yes"}}, {"type": "node", "id": 8305795235, "lat": 50.8942819, "lon": 4.3825247, "tags": {"amenity": "restaurant", "contact:email": "info@delicesduliban.be", "contact:facebook": "https://www.facebook.com/delicesdulibanBE/", "contact:mobile": "+32 489 00 09 10", "cuisine": "lebanese", "delivery": "yes", "name": "D\u00e9lices du Liban", "opening_hours": "Tu-Su 11:00-14:30,17:00-20:30", "outdoor_seating": "yes", "takeaway": "yes", "website": "https://delicesduliban.be/"}}, {"type": "node", "id": 8318753745, "lat": 50.8956204, "lon": 4.389983, "tags": {"amenity": "restaurant", "contact:phone": "+32 2 268 37 75", "cuisine": "chinese", "name": "Golden City", "opening_hours": "12:00-14:00,18:00-23:00", "takeaway": "yes"}}, {"type": "node", "id": 8321898980, "lat": 50.8952102, "lon": 4.3872842, "tags": {"amenity": "restaurant", "contact:email": "info@perpassione.be", "contact:facebook": "https://www.facebook.com/PerpassioneNOH/", "contact:mobile": "+32 489 95 87 27", "contact:phone": "+32 2 261 11 27", "contact:website": "https://www.perpassione.be", "cuisine": "italian", "delivery": "yes", "name": "Per Passione", "opening_hours": "Tu-Fr 11:30-14:00,18:00-22:00; Sa,Su 18:00-22:00", "takeaway": "yes"}}, {"type": "node", "id": 8368118313, "lat": 50.8791622, "lon": 4.3723356, "tags": {"amenity": "restaurant", "check_date": "2022-08-31", "cuisine": "italian", "level": "0", "name": "Cosy pasta", "website": "https://docksbruxsel.be/en/restaurants/cosy-pasta/"}}, {"type": "node", "id": 8368118315, "lat": 50.8790576, "lon": 4.3724844, "tags": {"amenity": "restaurant", "check_date": "2022-08-31", "cuisine": "regional", "level": "0", "name": "Caf\u00e9 Dox", "website": "https://www.cafedox.be/"}}, {"type": "node", "id": 8368118316, "lat": 50.8790308, "lon": 4.3725536, "tags": {"amenity": "restaurant", "check_date": "2022-08-31", "cuisine": "sushi", "level": "0", "name": "Tenshi", "website": "https://tenshisushi.be/"}}, {"type": "node", "id": 9726271885, "lat": 50.882013, "lon": 4.3748133, "tags": {"amenity": "restaurant", "bar": "yes", "contact:email": "restaurant.bryc@outlook.com", "contact:facebook": "https://www.facebook.com/restaurantbryc/", "contact:phone": "+32 2 241 09 87", "contact:website": "https://www.restaurantbryc.com/", "diet:non-vegetarian": "yes", "name": "Le BRYC", "opening_hours": "Tu-Sa 11:30-23:30; Su 11:30-15:00"}}, {"type": "node", "id": 9825551908, "lat": 50.894796, "lon": 4.3835068, "tags": {"amenity": "restaurant", "contact:email": "info@pizzeriabellaciao.be", "contact:phone": "+32 2 305 55 40", "contact:website": "https://www.pizzeriabellaciao.be/", "cuisine": "pizza;italian", "delivery": "yes", "name": "Bella Ciao", "opening_hours": "Mo-Sa 11:00-14:00,17:30-23:00; Tu off; Fr 15:30-23:00; Su 11:00-14:00,17:30-23:15", "takeaway": "yes"}}, {"type": "node", "id": 9858410409, "lat": 50.8791428, "lon": 4.3715914}, {"type": "node", "id": 9858410410, "lat": 50.8791012, "lon": 4.3714916}, {"type": "node", "id": 9858410411, "lat": 50.8789836, "lon": 4.3716146}, {"type": "node", "id": 9858410412, "lat": 50.8790254, "lon": 4.3717165}, {"type": "node", "id": 10780554027, "lat": 50.9039362, "lon": 4.3884777, "tags": {"amenity": "restaurant", "contact:website": "https://www.fermenospilifs.be/alimentation-durable/", "indoor_seating": "yes", "name": "L\u2019Estaminet", "opening_hours": "Mo-Su 10:30-18:00", "operator": "La Ferme Nos Pilifs", "outdoor_seating": "yes"}}, {"type": "node", "id": 11220109412, "lat": 50.8750673, "lon": 4.3778138, "tags": {"amenity": "restaurant", "cuisine": "middle_eastern", "entrance:kerb:height": "14", "entrance:step_count": "1", "entrance:width": "85", "name": "Snack La Gare", "opening_hours": "Mo-Su 11:00-01:00"}}, {"type": "way", "id": 1074848559, "nodes": [9858410410, 9858410411, 9858410412, 9858410409, 9858410410], "tags": {"amenity": "restaurant", "building": "yes", "cuisine": "lebanese", "name": "Matiate", "website": "https://www.matiate.be/en/locations/matiate-brussels"}}]}