{"version": 0.6, "generator": "Overpass API 0.7.62.10 2d4cfc48", "osm3s": {"timestamp_osm_base": "2026-02-02T16:16:59Z", "copyright": "The data included in this document is from www.openstreetmap.org. The data is made available under ODbL."}, "elements": [{"type": "node", "id": 77730281, "lat": 50.840489, "lon": 4.3033804}, {"type": "node", "id": 5073455430, "lat": 50.8399821, "lon": 4.3219733, "tags": {"amenity": "childcare", "name": "De Klaproos", "operator": "Commune d'Anderlecht - Gemeente Anderlecht"}}, {"type": "node", "id": 11436104693, "lat": 50.839722, "lon": 4.2933282, "tags": {"alt_name": "De Kapoentjes", "amenity": "childcare", "contact:website": "https://www.infano.be/locaties/zonnetje-anderlecht/", "name": "Zonnetje Anderlecht", "opening_hours": "Mo-Fr 07:00-18:00; PH off", "operator": "Infano", "school:language": "nl"}}, {"type": "node", "id": 11718366397, "lat": 50.8353145, "lon": 4.3273037, "tags": {"amenity": "kindergarten", "contact:website": "https://www.elmer.be/nl/onze-locaties/elmer-zuid", "name": "Elmer Zuid"}}, {"type": "node", "id": 12695814429, "lat": 50.8276036, "lon": 4.2937251, "tags": {"amenity": "childcare", "contact:email": "bleuets@anderlecht.brussels", "name": "Les Bleuets"}}, {"type": "node", "id": 12739628842, "lat": 50.8407448, "lon": 4.3036144}, {"type": "node", "id": 12739628843, "lat": 50.8404368, "lon": 4.3037663}, {"type": "node", "id": 12739628844, "lat": 50.8403684, "lon": 4.3034434}, {"type": "node", "id": 12739628846, "lat": 50.8404621, "lon": 4.3032517}, {"type": "node", "id": 12739628847, "lat": 50.8406479, "lon": 4.3031538}, {"type": "node", "id": 13150069992, "lat": 50.8145186, "lon": 4.2671481, "tags": {"amenity": "kindergarten", "name": "Cr\u00e8che n\u00b02", "nursery": "yes"}}, {"type": "node", "id": 13150069993, "lat": 50.8147839, "lon": 4.2655271, "tags": {"amenity": "kindergarten", "name": "Cr\u00e8che n\u00b01", "nursery": "yes"}}, {"type": "node", "id": 13236683936, "lat": 50.8375944, "lon": 4.3221709, "tags": {"amenity": "childcare", "name": "Les Muguets", "operator": "Commune d'Anderlecht - Gemeente Anderlecht", "operator:type": "government"}}, {"type": "way", "id": 1375931677, "nodes": [12739628847, 12739628846, 77730281, 12739628844, 12739628843, 12739628842, 12739628847], "tags": {"amenity": "kindergarten", "contact:email": "lesrainettes@anderlecht.brussels", "contact:phone": "+32 2 522 43 72", "isced": "0", "name": "Les Pinsons M16"}}]}