{"version": 0.6, "generator": "Overpass API 0.7.62.10 2d4cfc48", "osm3s": {"timestamp_osm_base": "2026-02-02T19:08:56Z", "copyright": "The data included in this document is from www.openstreetmap.org. The data is made available under ODbL."}, "elements": [{"type": "node", "id": 1271056432, "lat": 50.8254439, "lon": 4.3450242, "tags": {"amenity": "restaurant", "check_date": "2025-12-29", "contact:email": "pizzeria@lamolisana.be", "contact:mobile": "+32 455 13 14 65", "contact:website": "https://lamolisana.be", "cuisine": "pizza", "indoor_seating": "yes", "name": "La Molisana", "outdoor_seating": "yes"}}, {"type": "node", "id": 2399129279, "lat": 50.825016, "lon": 4.3462281, "tags": {"amenity": "restaurant", "check_date": "2024-11-13", "cuisine": "portuguese", "name": "Penafidelis"}}, {"type": "node", "id": 2399140978, "lat": 50.8252543, "lon": 4.3441723, "tags": {"amenity": "restaurant", "name": "Belle lurette"}}, {"type": "node", "id": 4087728641, "lat": 50.8246209, "lon": 4.3436392, "tags": {"air_conditioning": "no", "amenity": "restaurant", "capacity": "0", "changing_table": "no", "check_date": "2025-08-08", "check_date:diet:gluten_free": "2025-08-08", "check_date:opening_hours": "2025-08-08", "cuisine": "chinese", "diet:gluten_free": "yes", "diet:non-vegetarian": "yes", "diet:vegan": "yes", "diet:vegetarian": "yes", "internet_access": "no", "microbrewery": "no", "name": "Guangdong", "opening_hours": "Fr-We,PH 11:30-14:30,17:30-22:30", "organic": "no", "outdoor_seating": "no", "payment:credit_cards": "yes", "payment:debit_cards": "yes", "smoking": "no", "takeaway": "yes", "toilets": "yes"}}, {"type": "node", "id": 4087728642, "lat": 50.8248886, "lon": 4.3437604, "tags": {"amenity": "restaurant", "capacity": "30", "cuisine": "pitta;grill;friture", "name": "Snack Sila", "smoking": "no", "takeaway": "yes"}}, {"type": "node", "id": 4396143203, "lat": 50.8304774, "lon": 4.3457461, "tags": {"amenity": "restaurant", "check_date": "2025-11-14", "contact:mobile": "+32 471 35 72 42", "diet:gluten_free": "yes", "diet:vegan": "yes", "diet:vegetarian": "yes", "name": "Archie", "opening_hours": "Mo-We 12:00-17:30; Th-Sa 12:00-23:00", "wheelchair": "yes"}}, {"type": "node", "id": 4846171521, "lat": 50.8256646, "lon": 4.3476947, "tags": {"amenity": "restaurant", "check_date": "2025-08-08", "cuisine": "pizza", "name": "Da Momo", "opening_hours": "Mo-Fr 10:00-15:00; Sa,Su 08:00-24:00; Mo-Fr 17:30-12:00"}}, {"type": "node", "id": 4895361746, "lat": 50.8250629, "lon": 4.3432367, "tags": {"amenity": "restaurant", "capacity": "14", "contact:phone": "+32 2 522 09 68", "contact:website": "https://mo-mo.eu/", "cuisine": "tibetan", "diet:vegan": "only", "diet:vegetarian": "yes", "indoor_seating": "yes", "name": "Mo Mo", "opening_hours": "Tu-Sa 12:00-14:30,19:00-22:00", "outdoor_seating": "yes", "payment:credit_cards": "yes", "payment:debit_cards": "yes", "takeaway": "yes"}}, {"type": "node", "id": 4899337783, "lat": 50.825932, "lon": 4.3464835, "tags": {"amenity": "restaurant", "contact:website": "https://le203.com/", "cuisine": "international", "name": "Le 203", "outdoor_seating": "yes", "smoking": "no", "takeaway": "no"}}, {"type": "node", "id": 4973879985, "lat": 50.8234041, "lon": 4.3428312, "tags": {"amenity": "restaurant", "check_date:opening_hours": "2024-10-05", "name": "Caf\u00e9 des Spores", "opening_hours:signed": "no", "website": "https://www.cafedesspores.be"}}, {"type": "node", "id": 5781346845, "lat": 50.8255001, "lon": 4.3474516, "tags": {"amenity": "restaurant", "check_date": "2024-09-04", "contact:email": "lewaterloo217@gmail.com", "contact:facebook": "https://www.facebook.com/lewaterloo", "contact:phone": "+32 2 539 28 04", "cuisine": "italian", "description": "Italian Belgium Restaurant", "name": "Le Waterloo", "opening_hours": "Mo-Fr 12:00-15:00, 17:45-22:30; Sa, Su, PH 12:00-22:30", "takeaway": "yes"}}, {"type": "node", "id": 5961590266, "lat": 50.8227493, "lon": 4.3534194, "tags": {"amenity": "restaurant", "cuisine": "japanese", "delivery": "yes", "diet:vegetarian": "yes", "name": "Makisu", "opening_hours": "Mo-Su 12:00-22:00", "outdoor_seating": "no", "payment:cash": "no", "payment:credit_cards": "yes", "payment:maestro": "yes", "smoking": "no", "takeaway": "yes", "wheelchair": "yes"}}, {"type": "node", "id": 7879536512, "lat": 50.8250509, "lon": 4.3442475, "tags": {"amenity": "restaurant", "indoor_seating": "yes", "name": "My Tannour \u2013 Saint-Gilles", "opening_hours": "Mo-Su 11:30-22:30", "outdoor_seating": "yes"}}, {"type": "node", "id": 8015480185, "lat": 50.8238917, "lon": 4.3481706, "tags": {"amenity": "restaurant", "check_date:opening_hours": "2023-12-13", "name": "Le Damoiselle", "opening_hours:signed": "no"}}, {"type": "node", "id": 8360058617, "lat": 50.8234466, "lon": 4.3431359, "tags": {"amenity": "restaurant", "name": "Cantine de l'\u00e9chapp\u00e9e"}}, {"type": "node", "id": 8710771032, "lat": 50.8222998, "lon": 4.3426466, "tags": {"amenity": "restaurant", "contact:email": "info@kneestochin.com", "contact:phone": "+32 2 732 20 56", "contact:website": "https://www.kneestochin.com/", "cuisine": "asian", "diet:lactose_free": "yes", "name": "Knees to Chin", "opening_hours": "Mo-Fr 11:30-14:30,18:00-21:00; Sa 11:30-21:00"}}, {"type": "node", "id": 9028494117, "lat": 50.8266393, "lon": 4.3509473, "tags": {"amenity": "restaurant", "check_date": "2025-09-27", "contact:phone": "+32 2 252 24 70", "contact:website": "https://lasmorfia.be/", "cuisine": "italian", "name": "La Smorfia"}}, {"type": "node", "id": 10139554918, "lat": 50.8305814, "lon": 4.3460213, "tags": {"amenity": "restaurant", "changing_table": "yes", "check_date": "2026-02-01", "contact:facebook": "saborlatinoresto", "name": "Sabor Latino", "toilets": "yes", "toilets:menstrual_products": "no", "toilets:wheelchair": "no"}}, {"type": "node", "id": 10283007338, "lat": 50.8262961, "lon": 4.345029, "tags": {"amenity": "restaurant", "cuisine": "brazilian", "name": "Juventude"}}, {"type": "node", "id": 10283007340, "lat": 50.8264439, "lon": 4.3449306, "tags": {"amenity": "restaurant", "contact:facebook": "https://www.facebook.com/profile.php?id=100024059900916", "cuisine": "brazilian", "name": "Viva Brazil"}}, {"type": "node", "id": 10559324108, "lat": 50.8257023, "lon": 4.3466874, "tags": {"amenity": "restaurant", "check_date": "2025-11-30", "contact:phone": "+32 2 426 87 01", "contact:website": "https://littleapo.be/", "cuisine": "vietnamese", "name": "Little Apo"}}, {"type": "node", "id": 10697960159, "lat": 50.8239256, "lon": 4.3494775, "tags": {"amenity": "restaurant", "contact:email": "info@grammes.be", "contact:phone": "+32 2 732 63 00", "contact:website": "https://www.grammes.be/", "cuisine": "italian;bakery", "diet:healthy": "yes", "diet:vegetarian": "yes", "name": "Grammes", "note": "opening_hours=Tu-Fr 12:00-18:30; Sa 07:30-15:00 according to their website (2023-02-28)", "opening_hours": "Tu-Sa 12:00-18:00"}}, {"type": "node", "id": 10764515717, "lat": 50.8259835, "lon": 4.3475025, "tags": {"amenity": "restaurant", "check_date": "2025-08-08", "contact:phone": "+32 2 771 91 08", "contact:website": "https://fernand-obb.be/", "cuisine": "burger;belgian", "name": "Fernand Obb Delicatessen", "opening_hours": "Mo-Su 12:00-22:00"}}, {"type": "node", "id": 10781457309, "lat": 50.8262455, "lon": 4.3450107, "tags": {"amenity": "restaurant", "check_date": "2025-10-08", "contact:website": "https://lacharcuterie.be/", "name": "La Charcuterie", "shop": "deli"}}, {"type": "node", "id": 10792703405, "lat": 50.8231851, "lon": 4.3536672, "tags": {"amenity": "restaurant", "contact:email": "orientalia.traiteur@gmail.com", "contact:phone": "+32 2 520 75 75", "contact:website": "https://orientalia.be/", "name": "Orientalia", "opening_hours": "Tu-Fr 09:00-15:00"}}, {"type": "node", "id": 10816203718, "lat": 50.8233133, "lon": 4.3528073, "tags": {"amenity": "restaurant", "contact:website": "https://at-lebanese.com/", "cuisine": "lebanese", "name": "At Lebanese"}}, {"type": "node", "id": 10908419020, "lat": 50.8258985, "lon": 4.3436062, "tags": {"amenity": "restaurant", "contact:email": "leptitbeur1@gmail.com", "contact:facebook": "https://www.facebook.com/Leptitbeur/", "contact:phone": "+32 2 850 59 88", "cuisine": "mediterranean", "name": "PtitBeur", "opening_hours": "Tu-Sa 18:30-22:30"}}, {"type": "node", "id": 11078075453, "lat": 50.8233637, "lon": 4.3430882, "tags": {"amenity": "restaurant", "contact:website": "https://la-buvette.be", "diet:vegetarian": "yes", "name": "La Buvette"}}, {"type": "node", "id": 11148754605, "lat": 50.8228753, "lon": 4.3426261, "tags": {"amenity": "restaurant", "check_date": "2025-03-15", "contact:mobile": "+32 485 45 71 37", "cuisine": "chinese", "name": "Shi Shang", "opening_hours": "We-Mo 11:30-15:00, 17:30-23:00"}}, {"type": "node", "id": 11186526660, "lat": 50.8274145, "lon": 4.3445613, "tags": {"amenity": "restaurant", "contact:instagram": "@monopoli.brussels", "cuisine": "italian", "description": "Cucina dalla regione della Puglia", "diet:vegetarian": "yes", "name": "Monopoli"}}, {"type": "node", "id": 11223495137, "lat": 50.8229733, "lon": 4.3429237, "tags": {"amenity": "restaurant", "name": "Tokidoki", "opening_hours": "We-Sa 12:00-14:00,18:30-21:30"}}, {"type": "node", "id": 11352125706, "lat": 50.8218401, "lon": 4.3421587, "tags": {"amenity": "restaurant", "contact:phone": "+32 2 366 33 47", "indoor_seating": "yes", "name": "Bella Pizza Al Taglio", "opening_hours": "Mo,We-Sa 11:00-23:00", "outdoor_seating": "yes"}}, {"type": "node", "id": 11884628043, "lat": 50.8242631, "lon": 4.3467689, "tags": {"amenity": "restaurant", "contact:instagram": "https://www.instagram.com/rascals.bxl", "cuisine": "british", "dog": "yes", "indoor_seating": "yes", "name": "Rascal\u2019s cafe", "opening_hours": "Mo-We 08:30-17:00; Th-Fr 08:30-22:30; Sa-Su 08:30-17:00", "outdoor_seating": "yes"}}, {"type": "node", "id": 11991331722, "lat": 50.827167, "lon": 4.349756, "tags": {"amenity": "restaurant", "check_date": "2025-08-01", "name": "Flamme", "opening_hours": "Tu-Sa 19:00-22:00"}}, {"type": "node", "id": 12074173219, "lat": 50.8243583, "lon": 4.3499193, "tags": {"amenity": "restaurant", "cuisine": "pizza", "name": "Pizza mio"}}, {"type": "node", "id": 12585520100, "lat": 50.8278906, "lon": 4.3456374, "tags": {"amenity": "restaurant", "contact:email": "info@koolchou.be", "contact:instagram": "https://www.instagram.com/kool_chou", "contact:phone": "+32 2 270 01 38", "description": "Comptoir familial", "name": "Kool Chou"}}, {"type": "node", "id": 12751773646, "lat": 50.825771, "lon": 4.3476551, "tags": {"amenity": "restaurant", "contact:instagram": "https://www.instagram.com/terter_fabriek", "contact:phone": "+32 2 538 61 64", "contact:website": "https://terter.be/", "diet:vegan": "only", "diet:vegetarian": "only", "indoor_seating": "yes", "internet_access": "wlan", "name": "TerTer", "opening_hours": "Mo-Fr 10:30-16:00; Sa-Su 10:00-15:00", "outdoor_seating": "sidewalk", "wheelchair": "no"}}, {"type": "node", "id": 12805591301, "lat": 50.8252658, "lon": 4.3441492, "tags": {"amenity": "restaurant", "contact:instagram": "bellelurette.bxl", "cuisine": "local", "name": "Belle Lurette", "opening_hours": "Tu-Sa 17:30-00:00"}}, {"type": "node", "id": 13037800034, "lat": 50.8282419, "lon": 4.3424552, "tags": {"amenity": "restaurant", "contact:instagram": "https://www.instagram.com/elmekan.brussels/", "contact:mobile": "+32 497 77 78 87", "contact:website": "https://elmekan.com/", "cuisine": "pizza", "diet:lactose_free": "yes", "diet:organic": "yes", "diet:vegan": "yes", "diet:vegetarian": "yes", "name": "El Mekan", "note": "Payments by VISA or Mastercard not accepted.", "opening_hours": "Tu-Sa 18:00-22:00", "outdoor_seating": "yes", "takeaway": "yes"}}, {"type": "node", "id": 13484500175, "lat": 50.8245326, "lon": 4.347967, "tags": {"amenity": "restaurant", "cuisine": "italian", "name": "La Tavernetta"}}]}