{"version": 0.6, "generator": "Overpass API 0.7.62.10 2d4cfc48", "osm3s": {"timestamp_osm_base": "2026-02-02T17:01:00Z", "copyright": "The data included in this document is from www.openstreetmap.org. The data is made available under ODbL."}, "elements": [{"type": "node", "id": 2514211665, "lat": 50.8445558, "lon": 4.3592816, "tags": {"amenity": "cafe", "changing_table": "no", "changing_table:adult": "no", "contact:facebook": "https://www.facebook.com/pages/category/Breakfast---Brunch-Restaurant/cafeboudin/", "contact:instagram": "https://www.instagram.com/cafeboudin/", "cuisine": "coffee_shop", "entrance:kerb:height": "0.15", "entrance:step_count": "1", "entrance:width": "0.8", "name": "Caf\u00e9 Boudin", "ramp:wheelchair": "no", "wheelchair": "no", "wheelchair:turning_circle": "no"}}, {"type": "node", "id": 2514211675, "lat": 50.8446141, "lon": 4.3593238, "tags": {"amenity": "cafe", "name": "Caf\u00e9-Bar Manhattan", "wheelchair": "no"}}, {"type": "node", "id": 3835688357, "lat": 50.8405436, "lon": 4.3599386, "tags": {"air_conditioning": "yes", "amenity": "cafe", "diet:vegetarian": "yes", "indoor_seating": "yes", "internet_access": "wlan", "name": "JAT'", "opening_hours": "Mo-Fr 08:00-18:00; Sa,Su 09:00-18:00", "outdoor_seating": "no", "smoking": "no"}}, {"type": "node", "id": 3863737380, "lat": 50.8480467, "lon": 4.3640546, "tags": {"amenity": "cafe", "name": "D\u00e9lice du Parc", "wheelchair": "no"}}, {"type": "node", "id": 3863737381, "lat": 50.8480851, "lon": 4.3642549, "tags": {"amenity": "cafe", "cuisine": "sandwich", "name": "Ethnic Foods", "website": "https://ethnicfoods.be/", "wheelchair": "no"}}, {"type": "node", "id": 4319696120, "lat": 50.8460987, "lon": 4.3579854, "tags": {"amenity": "cafe", "branch": "Central", "contact:website": "https://cafedelapresse.be/", "internet_access": "wlan", "name": "Caf\u00e9 de la Presse", "opening_hours": "Mo-Fr 07:30-20:00; Sa,Su 08:30-20:00"}}, {"type": "node", "id": 4413615489, "lat": 50.8477159, "lon": 4.3634413, "tags": {"air_conditioning": "yes", "amenity": "cafe", "contact:phone": "+32 2 307 65 84", "diet:vegan": "yes", "diet:vegetarian": "yes", "indoor_seating": "yes", "lunch": "yes", "name": "Leopold", "opening_hours:signed": "no", "outdoor_seating": "yes", "payment:credit_cards": "yes", "payment:debit_cards": "yes", "website": "https://leopoldcafepresse.com", "wheelchair": "limited"}}, {"type": "node", "id": 4417807651, "lat": 50.8453259, "lon": 4.357185, "tags": {"air_conditioning": "yes", "amenity": "cafe", "brand": "Starbucks", "brand:wikidata": "Q37158", "brand:wikipedia": "en:Starbucks", "changing_table": "no", "changing_table:adult": "no", "cuisine": "coffee_shop", "entrance:kerb:height": "0.02", "entrance:step_count": "1", "entrance:width": "1.5", "level": "0", "name": "Starbucks", "official_name": "Starbucks Coffee", "opening_hours": "Mo-Th 05:30-20:30; Fr,Sa 05:30-21:00; Su 06:00-20:00", "outdoor_seating": "no", "ramp:wheelchair": "no", "takeaway": "yes", "wheelchair": "yes", "wheelchair:turning_circle": "no"}}, {"type": "node", "id": 4417825145, "lat": 50.8450127, "lon": 4.3565178, "tags": {"amenity": "cafe", "brand": "Coffee Break", "cuisine": "coffee_shop", "layer": "-1", "level": "-1", "location": "underground", "name": "Coffee Break", "takeaway": "yes"}}, {"type": "node", "id": 4553116328, "lat": 50.8449359, "lon": 4.3552114, "tags": {"amenity": "cafe", "changing_table": "no", "changing_table:adult": "no", "check_date:opening_hours": "2022-12-05", "indoor_seating": "yes", "name": "Brasserie de la Madeleine", "opening_hours:signed": "no", "outdoor_seating": "yes", "wheelchair:turning_circle": "no"}}, {"type": "node", "id": 4633409094, "lat": 50.8481453, "lon": 4.3636306, "tags": {"amenity": "cafe", "check_date": "2025-04-14", "contact:facebook": "100091915317646", "contact:instagram": "barkboy.be", "cuisine": "coffee_shop", "description": "Sells various types of coffee", "drink:espresso": "yes", "indoor_seating": "yes", "name": "Barkboy", "opening_hours": "Mo-Fr 08:00-18:00; Sa-Su 08:00-19:00", "outdoor_seating": "yes", "payment:credit_cards": "yes", "payment:debit_cards": "yes", "takeaway": "yes", "wheelchair": "no"}}, {"type": "node", "id": 4966573527, "lat": 50.8431291, "lon": 4.3586178, "tags": {"amenity": "cafe", "contact:phone": "+32 2 502 06 03", "contact:website": "https://love-ciabatta.be/en", "diet:vegan": "yes", "diet:vegetarian": "yes", "email": "info@love-ciabatta.be", "internet_access": "wlan", "name": "Love Ciabatta", "opening_hours": "Mo off; Tu-Sa 09:30-18:45", "wheelchair": "limited"}}, {"type": "node", "id": 5389787926, "lat": 50.8405618, "lon": 4.3595897, "tags": {"amenity": "cafe", "contact:phone": "+32 2 503 83 30", "cuisine": "tea;cake;coffee_shop", "diet:vegan": "yes", "indoor_seating": "yes", "internet_access": "wlan", "name": "TICH", "opening_hours": "Mo-Fr 09:00-18:30; Sa-Su 10:00-19:00", "outdoor_seating": "yes"}}, {"type": "node", "id": 6109780718, "lat": 50.8416075, "lon": 4.359635, "tags": {"amenity": "cafe", "contact:instagram": "https://www.instagram.com/bouche.coffee/", "cuisine": "coffee_shop", "diet:vegetarian": "yes", "name": "Bouche", "opening_hours": "Tu-Fr 08:00-17:00; Sa,Su 09:00-18:00", "panoramax": "a22f1767-8638-4aee-9e9e-d5c3db8a06cb"}}, {"type": "node", "id": 6192474052, "lat": 50.8478193, "lon": 4.3638219, "tags": {"amenity": "cafe", "check_date:opening_hours": "2024-06-21", "contact:facebook": "https://www.facebook.com/SoniaLaRoseNoire/", "contact:mobile": "+32 479 44 51 41", "name": "La Rose Noire", "opening_hours:signed": "no", "wheelchair": "no"}}, {"type": "node", "id": 6259353400, "lat": 50.8441539, "lon": 4.3552907, "tags": {"amenity": "cafe", "check_date:opening_hours": "2024-08-13", "level": "0", "name": "... by Lefty", "opening_hours:signed": "no"}}, {"type": "node", "id": 6292976254, "lat": 50.8475515, "lon": 4.3619627, "tags": {"amenity": "cafe", "name": "Eat & Drink", "wheelchair": "limited"}}, {"type": "node", "id": 7984220345, "lat": 50.8480352, "lon": 4.3649096, "tags": {"amenity": "cafe", "check_date": "2025-04-12", "contact:email": "contact@mylittlecupcoffee.com", "contact:facebook": "https://www.facebook.com/mylittlecupcoffeecorner", "contact:instagram": "https://www.instagram.com/mylittlecupbrussels/", "contact:website": "https://www.mylittlecup.be/", "cuisine": "coffee_shop", "diet:vegan": "yes", "diet:vegetarian": "yes", "indoor_seating": "yes", "internet_access": "wlan", "internet_access:fee": "no", "name": "My Little Cup", "opening_hours": "Mo-Fr 07:30-17:00; Sa-Su 09:00-17:00", "outdoor_seating": "sidewalk", "payment:credit_cards": "yes", "payment:debit_cards": "yes", "ref:vatin": "BE0541993735", "smoking": "no", "takeaway": "yes", "wheelchair": "no"}}, {"type": "node", "id": 9609986476, "lat": 50.8472616, "lon": 4.3609251, "tags": {"amenity": "cafe", "changing_table": "no", "changing_table:adult": "no", "check_date:opening_hours": "2023-07-10", "contact:facebook": "houseoftribescafe", "diet:vegetarian": "yes", "entrance:kerb:height": "0.04", "entrance:ramp": "no", "entrance:step_count": "1", "entrance:width": "1.49", "name": "Green Kitchen@House of Tribes", "opening_hours": "Mo-Fr 08:00-16:00; Sa, Su off; PH off", "short_name": "House of Tribes", "wheelchair:turning_circle": "no"}}, {"type": "node", "id": 11138953593, "lat": 50.8479916, "lon": 4.357304, "tags": {"amenity": "cafe", "check_date:opening_hours": "2025-02-05", "name": "Lloyds Coffee Eatery", "opening_hours": "Mo-Fr 08:00-20:00; Sa,Su 09:00-20:00"}}, {"type": "node", "id": 11581463584, "lat": 50.848154, "lon": 4.3646144, "tags": {"amenity": "cafe", "check_date:opening_hours": "2024-07-21", "name": "The First", "opening_hours:signed": "no", "wheelchair": "no"}}, {"type": "node", "id": 12762961501, "lat": 50.8459962, "lon": 4.3560884, "tags": {"amenity": "cafe", "diet:vegan": "yes", "name": "June", "payment:cash": "no", "surveillance": "yes", "surveillance:zone": "indoor"}}, {"type": "node", "id": 13110477322, "lat": 50.8446506, "lon": 4.3548554, "tags": {"amenity": "cafe", "name": "Le caf\u00e9 litt\u00e9raire"}}]}