{"version": 0.6, "generator": "Overpass API 0.7.62.10 2d4cfc48", "osm3s": {"timestamp_osm_base": "2026-02-03T09:08:15Z", "copyright": "The data included in this document is from www.openstreetmap.org. The data is made available under ODbL."}, "elements": [{"type": "node", "id": 2883799392, "lat": 50.8552167, "lon": 4.3970724, "tags": {"name": "Meiser", "public_transport": "stop_position", "railway": "tram_stop", "tram": "yes"}}, {"type": "node", "id": 2883870425, "lat": 50.8582727, "lon": 4.3840835, "tags": {"name": "Bienfaiteurs - Weldoeners", "name:fr": "Bienfaiteurs", "name:nl": "Weldoeners", "public_transport": "stop_position", "railway": "tram_stop", "tram": "yes"}}, {"type": "node", "id": 3202278540, "lat": 50.8554954, "lon": 4.3958853, "tags": {"name": "Meiser", "public_transport": "stop_position", "railway": "tram_stop", "tram": "yes"}}, {"type": "node", "id": 4503269971, "lat": 50.8576965, "lon": 4.3844556, "tags": {"name": "Bienfaiteurs - Weldoeners", "name:fr": "Bienfaiteurs", "name:nl": "Weldoeners", "public_transport": "stop_position", "railway": "tram_stop", "tram": "yes"}}, {"type": "node", "id": 4547346470, "lat": 50.8562451, "lon": 4.3912469, "tags": {"name": "Patrie - Vaderland", "name:fr": "Patrie", "name:nl": "Vaderland", "public_transport": "stop_position", "railway": "tram_stop", "tram": "yes"}}, {"type": "node", "id": 4547346478, "lat": 50.8567185, "lon": 4.3910522, "tags": {"name": "Patrie - Vaderland", "name:fr": "Patrie", "name:nl": "Vaderland", "public_transport": "stop_position", "railway": "tram_stop", "tram": "yes"}}]}