{"version": 0.6, "generator": "Overpass API 0.7.62.10 2d4cfc48", "osm3s": {"timestamp_osm_base": "2026-02-10T15:27:45Z", "copyright": "The data included in this document is from www.openstreetmap.org. The data is made available under ODbL."}, "elements": [{"type": "node", "id": 3863696756, "lat": 50.8521665, "lon": 4.3653826, "tags": {"amenity": "pub", "name": "La Petite Cascade"}}, {"type": "node", "id": 3863699469, "lat": 50.8480878, "lon": 4.3635318, "tags": {"amenity": "pub", "entrance:kerb:height": "0.15", "entrance:step_count": "1", "entrance:width": "0.75", "name": "Treurenberg"}}, {"type": "node", "id": 3863906382, "lat": 50.8498732, "lon": 4.3671552, "tags": {"amenity": "pub", "check_date": "2024-09-24", "name": "Le petit Liberty"}}, {"type": "node", "id": 3873642941, "lat": 50.8521055, "lon": 4.3656964, "tags": {"amenity": "pub", "check_date:opening_hours": "2025-12-22", "name": "Le Simon's", "opening_hours:signed": "no"}}, {"type": "node", "id": 4413484782, "lat": 50.8496878, "lon": 4.3631817, "tags": {"amenity": "bar", "contact:email": "dukesloungebar@gmail.com", "contact:facebook": "https://www.facebook.com/dlbdukesloungebar", "contact:mobile": "+32 479 61 09 71", "name": "Duke's Bar"}}, {"type": "node", "id": 4642467837, "lat": 50.8486391, "lon": 4.3649031, "tags": {"amenity": "pub", "contact:phone": "+32 2 218 00 34", "contact:website": "https://bier-circus.be/", "cuisine": "regional", "food": "yes", "indoor_seating": "yes", "name": "Bier Circus", "opening_hours": "Mo off; Tu-Fr 11:30-14:30,18:00-24:00; Sa,Su,PH off", "outdoor_seating": "yes"}}, {"type": "node", "id": 6247954939, "lat": 50.8487742, "lon": 4.3685487, "tags": {"amenity": "bar", "check_date": "2023-12-08", "name": "The Butterfly", "wheelchair": "yes"}}, {"type": "node", "id": 6534437199, "lat": 50.8484847, "lon": 4.3634604, "tags": {"amenity": "bar", "changing_table": "no", "changing_table:adult": "no", "check_date:opening_hours": "2024-07-22", "name": "Floyd's", "opening_hours:signed": "no", "wheelchair:turning_circle": "no"}}, {"type": "node", "id": 8880862275, "lat": 50.8497076, "lon": 4.3658728, "tags": {"amenity": "bar", "contact:email": "bastian@laperoterie.be", "contact:mobile": "+32 475 51 23 84", "contact:website": "https://laperoterie.be/", "description": "Bar et \u00e9picerie fine", "name": "L'Ap\u00e9roterie", "opening_hours": "Tu-Sa 17:30-22:00"}}, {"type": "node", "id": 11900935444, "lat": 50.8476682, "lon": 4.3637885, "tags": {"amenity": "bar", "name": "Le Bar Rouge"}}]}