{"version": 0.6, "generator": "Overpass API 0.7.62.10 2d4cfc48", "osm3s": {"timestamp_osm_base": "2026-02-10T15:26:45Z", "copyright": "The data included in this document is from www.openstreetmap.org. The data is made available under ODbL."}, "elements": [{"type": "node", "id": 2341205153, "lat": 50.848721, "lon": 4.3673896, "tags": {"amenity": "cafe", "name": "Dubai Lounge"}}, {"type": "node", "id": 3863696752, "lat": 50.851941, "lon": 4.3652648, "tags": {"amenity": "cafe", "cuisine": "sandwich", "name": "D\u00e9lice Royal", "note": "Slight confusion about the official name: there is a large display with \"D\u00e9lice Royal\" on top, while the name \"D\u00e9lice Royale\" is painted on the shop window.", "wheelchair": "no"}}, {"type": "node", "id": 3863699458, "lat": 50.8519878, "lon": 4.3652892, "tags": {"amenity": "cafe", "cuisine": "sandwich", "name": "Le Pain de l\u2019Abbaye"}}, {"type": "node", "id": 3863737380, "lat": 50.8480467, "lon": 4.3640546, "tags": {"amenity": "cafe", "name": "D\u00e9lice du Parc", "wheelchair": "no"}}, {"type": "node", "id": 3863737381, "lat": 50.8480851, "lon": 4.3642549, "tags": {"amenity": "cafe", "cuisine": "sandwich", "name": "Ethnic Foods", "website": "https://ethnicfoods.be/", "wheelchair": "no"}}, {"type": "node", "id": 3873618400, "lat": 50.8504302, "lon": 4.3678344, "tags": {"amenity": "cafe", "cuisine": "sandwich", "name": "Greedy Lunch", "source": "survey"}}, {"type": "node", "id": 4413615489, "lat": 50.8477159, "lon": 4.3634413, "tags": {"air_conditioning": "yes", "amenity": "cafe", "contact:phone": "+32 2 307 65 84", "diet:vegan": "yes", "diet:vegetarian": "yes", "indoor_seating": "yes", "lunch": "yes", "name": "Leopold", "opening_hours:signed": "no", "outdoor_seating": "yes", "payment:credit_cards": "yes", "payment:debit_cards": "yes", "website": "https://leopoldcafepresse.com", "wheelchair": "limited"}}, {"type": "node", "id": 4633409094, "lat": 50.8481453, "lon": 4.3636306, "tags": {"amenity": "cafe", "check_date": "2025-04-14", "contact:facebook": "100091915317646", "contact:instagram": "barkboy.be", "cuisine": "coffee_shop", "description": "Sells various types of coffee", "drink:espresso": "yes", "indoor_seating": "yes", "name": "Barkboy", "opening_hours": "Mo-Fr 08:00-18:00; Sa-Su 08:00-19:00", "outdoor_seating": "yes", "payment:credit_cards": "yes", "payment:debit_cards": "yes", "takeaway": "yes", "wheelchair": "no"}}, {"type": "node", "id": 6192474052, "lat": 50.8478193, "lon": 4.3638219, "tags": {"amenity": "cafe", "check_date:opening_hours": "2024-06-21", "contact:facebook": "https://www.facebook.com/SoniaLaRoseNoire/", "contact:mobile": "+32 479 44 51 41", "name": "La Rose Noire", "opening_hours:signed": "no", "wheelchair": "no"}}, {"type": "node", "id": 7984220345, "lat": 50.8480352, "lon": 4.3649096, "tags": {"amenity": "cafe", "check_date": "2025-04-12", "contact:email": "contact@mylittlecupcoffee.com", "contact:facebook": "https://www.facebook.com/mylittlecupcoffeecorner", "contact:instagram": "https://www.instagram.com/mylittlecupbrussels/", "contact:website": "https://www.mylittlecup.be/", "cuisine": "coffee_shop", "diet:vegan": "yes", "diet:vegetarian": "yes", "indoor_seating": "yes", "internet_access": "wlan", "internet_access:fee": "no", "name": "My Little Cup", "opening_hours": "Mo-Fr 07:30-17:00; Sa-Su 09:00-17:00", "outdoor_seating": "sidewalk", "payment:credit_cards": "yes", "payment:debit_cards": "yes", "ref:vatin": "BE0541993735", "smoking": "no", "takeaway": "yes", "wheelchair": "no"}}, {"type": "node", "id": 10608364554, "lat": 50.850898, "lon": 4.368772}, {"type": "node", "id": 10608364555, "lat": 50.8508981, "lon": 4.3687436}, {"type": "node", "id": 10608364556, "lat": 50.8508573, "lon": 4.3687434}, {"type": "node", "id": 10608364557, "lat": 50.8508572, "lon": 4.3687718}, {"type": "node", "id": 10845333238, "lat": 50.8487016, "lon": 4.3683111, "tags": {"amenity": "cafe", "contact:email": "papierbeurre@gmail.com", "contact:facebook": "Papier-Beurre/100089980377323/", "contact:instagram": "papierbeurre", "cuisine": "sandwich;coffee_shop", "diet:vegan": "no", "diet:vegetarian": "yes", "name": "Papier Beurre", "opening_hours": "Mo-Th 07:30-15:30; Fr 08:30-15:00", "wheelchair": "no"}}, {"type": "node", "id": 11581463584, "lat": 50.848154, "lon": 4.3646144, "tags": {"amenity": "cafe", "check_date:opening_hours": "2024-07-21", "name": "The First", "opening_hours:signed": "no", "wheelchair": "no"}}, {"type": "way", "id": 1138070436, "nodes": [10608364554, 10608364555, 10608364556, 10608364557, 10608364554], "tags": {"amenity": "cafe", "building": "kiosk", "description": "Coffee van each day at this same location", "outdoor_seating": "yes", "takeaway": "only"}}]}