{"version": 0.6, "generator": "Overpass API 0.7.62.10 2d4cfc48", "osm3s": {"timestamp_osm_base": "2026-02-03T09:14:26Z", "copyright": "The data included in this document is from www.openstreetmap.org. The data is made available under ODbL."}, "elements": [{"type": "node", "id": 582518640, "lat": 50.8799736, "lon": 4.3840805, "tags": {"amenity": "cafe", "entrance:kerb:height": "26", "entrance:step_count": "2", "entrance:width": "96", "name": "London Bar"}}, {"type": "node", "id": 587756541, "lat": 50.8754692, "lon": 4.387085, "tags": {"amenity": "cafe", "name": "Le Bariga"}}, {"type": "node", "id": 4811341174, "lat": 50.8730982, "lon": 4.3905729, "tags": {"amenity": "cafe", "contact:mobile": "+32 484 50 87 87", "name": "Tchello Cafe & Bar", "outdoor_seating": "yes", "smoking": "dedicated"}}, {"type": "node", "id": 11976747609, "lat": 50.8717029, "lon": 4.3946596, "tags": {"amenity": "cafe", "name": "Le Beau lieu"}}, {"type": "node", "id": 12131325987, "lat": 50.8738659, "lon": 4.3840191, "tags": {"amenity": "cafe", "name": "Cafe Riga", "opening_hours": "Mo-Su 08:30-23:00", "outdoor_seating": "yes"}}]}