{"version": 0.6, "generator": "Overpass API 0.7.62.10 2d4cfc48", "osm3s": {"timestamp_osm_base": "2026-02-02T14:19:30Z", "copyright": "The data included in this document is from www.openstreetmap.org. The data is made available under ODbL."}, "elements": [{"type": "node", "id": 411458802, "lat": 50.7994622, "lon": 4.3785814, "tags": {"air_conditioning": "yes", "amenity": "restaurant", "contact:email": "info@villalorraine.be", "contact:phone": "+32 2 374 31 63", "contact:website": "https://www.lavillalorraine.be/", "cuisine": "french", "name": "La Villa Lorraine", "outdoor_seating": "yes", "reservation": "recommended", "start_date": "1800", "start_date:edtf": "18XX", "start_date:note": "19th century", "wikidata": "Q20747687", "wikipedia": "nl:Villa Lorraine"}}, {"type": "node", "id": 602765935, "lat": 50.7846884, "lon": 4.3866178, "tags": {"amenity": "restaurant", "contact:email": "info@lechaletdelaforet.be", "contact:phone": "+32 2 374 54 16", "contact:website": "https://www.lechaletdelaforet.be/", "name": "Chalet de la For\u00eat", "opening_hours": "Mo-Fr 12:00-14:00,19:00-21:00", "wikidata": "Q2581585", "wikipedia": "nl:Le Chalet de la For\u00eat"}}, {"type": "node", "id": 602765942, "lat": 50.783931, "lon": 4.3789098, "tags": {"amenity": "restaurant", "contact:phone": "+32 2 374 10 93", "contact:website": "https://www.rallyedesautos.be/fr/index.cfm?nocacheid=8875", "name": "Au Rallye des Autos"}}, {"type": "node", "id": 7920972397, "lat": 50.7857843, "lon": 4.376978, "tags": {"amenity": "restaurant", "contact:email": "fortjaco@colonelbrussels.com", "contact:phone": "+32 2 733 42 24", "contact:website": "https://www.colonelbrussels.com/reservation-fort-jaco", "name": "Colonel Fort Jaco", "outdoor_seating": "yes", "takeaway": "yes"}}, {"type": "node", "id": 9595706227, "lat": 50.7966104, "lon": 4.374775, "tags": {"amenity": "restaurant", "contact:phone": "+32 2 375 12 00", "contact:website": "https://www.tenshi-sushi.be/", "cuisine": "asian", "name": "Tenshi Sushi", "opening_hours": "Mo 11:30-14:30, 18:00-22:30; Tu-Sa 11:30-14:30, 18:00-21:30; Su 17:30-21:30"}}, {"type": "node", "id": 10011853317, "lat": 50.8019886, "lon": 4.3737197, "tags": {"amenity": "restaurant", "name": "La Pomme de Pin"}}, {"type": "node", "id": 10789516789, "lat": 50.7941029, "lon": 4.3797438, "tags": {"amenity": "restaurant", "contact:phone": "+32 2 374 45 81", "contact:website": "https://www.royalracing1891.be/le-club/bar-restaurant", "cuisine": "regional;french;burger;steak_house", "name": "Royal Racing Club"}}, {"type": "node", "id": 11178897480, "lat": 50.7886478, "lon": 4.3753458, "tags": {"amenity": "restaurant", "contact:phone": "+32 2 376 77 78", "contact:website": "https://jaco.brussels/", "cuisine": "italian", "name": "Jaco"}}, {"type": "node", "id": 11788412423, "lat": 50.7845113, "lon": 4.3780555, "tags": {"amenity": "restaurant", "check_date:opening_hours": "2025-03-07", "contact:email": "il.giardino@skynet.be", "contact:facebook": "il.giardino.50", "contact:instagram": "restaurant.ilgiardino", "contact:phone": "+32 2 374 35 16", "contact:website": "https://www.ilgiardino-uccle.be/", "cuisine": "italian;pizza", "name": "Il Giardino", "opening_hours": "Mo-Su 12:00-14:30,18:30-22:45", "reservation": "yes", "toilets": "yes"}}, {"type": "node", "id": 12212859262, "lat": 50.7969537, "lon": 4.3750781, "tags": {"amenity": "restaurant", "contact:website": "https://www.blueelephant.com/", "cuisine": "thai", "name": "Blue Elephant"}}, {"type": "node", "id": 12231385582, "lat": 50.8004808, "lon": 4.3751431, "tags": {"amenity": "restaurant", "contact:phone": "+32 2 375 80 80", "contact:website": "https://citedudragon.be/brussels/fr/", "cuisine": "chinese", "diet:vegetarian": "yes", "fax": "+32 2 375 69 77", "name": "La Cit\u00e9 du Dragon", "opening_hours": "Mo-Su 12:00-14:30,18:30-22:30"}}, {"type": "node", "id": 12231393703, "lat": 50.7811229, "lon": 4.3806226, "tags": {"amenity": "restaurant", "contact:facebook": "BrasserieDuPrincedOrange", "contact:fax": "+32 2 375 81 34", "contact:phone": "+32 2 375 23 05", "cuisine": "french", "internet_access": "no", "name": "Brasserie du Prince d'Orange", "opening_hours": "Mo-Fr 11:00-22:00; Sa,Su 11:00-23:00", "smoking": "no", "start_date": "1911", "wikidata": "Q125121618"}}, {"type": "node", "id": 12412040181, "lat": 50.7901351, "lon": 4.3746036, "tags": {"amenity": "restaurant", "contact:mobile": "+32 497 24 21 86", "cuisine": "moroccan", "description": "Restaurant-traiteur marocain", "name": "Nomade", "opening_hours": "Mo-Su 11:00-23:00", "takeaway": "yes", "website": "https://nomade.brussels"}}, {"type": "node", "id": 12523281849, "lat": 50.7892894, "lon": 4.375206, "tags": {"amenity": "restaurant", "contact:email": "fortjaco@thaicafe.be", "contact:phone": "+32 2 888 80 80", "contact:website": "https://thai.cafe/", "cuisine": "thai", "name": "Thai Caf\u00e9", "outdoor_seating": "yes", "takeaway": "yes"}}, {"type": "node", "id": 12523379019, "lat": 50.7875482, "lon": 4.3762319, "tags": {"amenity": "restaurant", "check_date:opening_hours": "2025-01-22", "contact:mobile": "+32 472 82 55 30", "contact:website": "https://lamed.be/", "cuisine": "lebanese", "name": "La Med", "opening_hours": "Mo-Su 11:00-23:00", "takeaway": "yes"}}, {"type": "node", "id": 12604312530, "lat": 50.7879561, "lon": 4.3759357, "tags": {"amenity": "restaurant", "contact:email": "chezfleur@hotmail.com", "contact:phone": "+32 2 374 30 74", "contact:website": "https://www.commechezfleur.be/", "cuisine": "thai;vietnamese", "delivery": "yes", "name": "Comme Chez Fleur", "opening_hours": "Mo-Sa 12:00-14:30,18:00-22:30; PH 18:00-22:30", "takeaway": "yes"}}]}