{"version": 0.6, "generator": "Overpass API 0.7.62.10 2d4cfc48", "osm3s": {"timestamp_osm_base": "2026-02-02T15:56:43Z", "copyright": "The data included in this document is from www.openstreetmap.org. The data is made available under ODbL."}, "elements": [{"type": "node", "id": 1651604372, "lat": 50.8411841, "lon": 4.4412383, "tags": {"amenity": "cafe", "name": "Like A Rainbow", "opening_hours": "Mo-Su 11:00-18:00"}}, {"type": "node", "id": 2325405537, "lat": 50.8402188, "lon": 4.4028808, "tags": {"amenity": "cafe", "cuisine": "coffee_shop", "name": "tulipe"}}, {"type": "node", "id": 2344121804, "lat": 50.8496297, "lon": 4.4234077}, {"type": "node", "id": 2344121853, "lat": 50.8496813, "lon": 4.4232137}, {"type": "node", "id": 2344121886, "lat": 50.8497077, "lon": 4.4232308}, {"type": "node", "id": 2344121933, "lat": 50.8497414, "lon": 4.4231055}, {"type": "node", "id": 2344121997, "lat": 50.8497716, "lon": 4.4235017}, {"type": "node", "id": 2344122046, "lat": 50.8498047, "lon": 4.4232468}, {"type": "node", "id": 2344122063, "lat": 50.8498272, "lon": 4.4231624}, {"type": "node", "id": 2344122070, "lat": 50.8498314, "lon": 4.4232628}, {"type": "node", "id": 4494514069, "lat": 50.8518564, "lon": 4.45923, "tags": {"amenity": "cafe", "name": "Club House Mounier II", "opening_hours": "Mo-Sa 11:00-14:00,17:00-01:00; Su,PH off", "toilets:wheelchair": "no", "wheelchair": "yes"}}, {"type": "node", "id": 6329819464, "lat": 50.8504921, "lon": 4.4541835, "tags": {"amenity": "cafe", "name": "L'Atelier"}}, {"type": "node", "id": 6329819652, "lat": 50.8504382, "lon": 4.4538674, "tags": {"amenity": "cafe", "name": "Eat Club Sandwicherie"}}, {"type": "node", "id": 7212287697, "lat": 50.8408708, "lon": 4.4350587, "tags": {"amenity": "cafe", "check_date": "2024-07-11", "contact:phone": "+32 2 503 55 10", "contact:website": "https://www.bistrowoluwe.be/", "cuisine": "french", "name": "Bistro de la Woluwe", "opening_hours": "Mo-Su 10:00-24:00", "opening_hours:kitchen": "Mo-Su,PH 12:00-14:30,18:30-22:30", "outdoor_seating": "yes"}}, {"type": "node", "id": 10181193616, "lat": 50.843466, "lon": 4.4107183, "tags": {"amenity": "cafe", "check_date": "2024-07-21", "contact:email": "melkafe.be@gmail.com", "contact:facebook": "https://www.facebook.com/melkafe.be", "contact:instagram": "https://www.instagram.com/melkafe.be/", "contact:mobile": "+32 472 43 71 13", "cuisine": "coffee_shop", "highchair": "yes", "internet_access": "wlan", "internet_access:fee": "customers", "name": "MelKaf\u00e9", "outdoor_seating": "yes", "payment:cash": "yes", "payment:credit_cards": "yes", "payment:debit_cards": "yes"}}, {"type": "node", "id": 10908712476, "lat": 50.8461033, "lon": 4.4395482, "tags": {"amenity": "cafe", "contact:mobile": "+32 478 09 10 30", "contact:website": "https://slotwoluwe.com/", "name": "Slot", "opening_hours": "Tu-Su 09:00-18:00", "outdoor_seating": "yes"}}, {"type": "node", "id": 12789605330, "lat": 50.8436989, "lon": 4.4435787, "tags": {"amenity": "cafe"}}, {"type": "way", "id": 225653266, "nodes": [2344121853, 2344121886, 2344121933, 2344122063, 2344122046, 2344122070, 2344121997, 2344121804, 2344121853], "tags": {"amenity": "cafe", "building": "yes", "name": "La Caf\u00e8t'", "name:fr": "Pavillon du Parc de Roodebeek", "name:nl": "Paviljoen in het Roodebeekpark", "opening_hours": "Jun-Aug Tu 15:00-19:00; Jun-Aug We-Fr 12:00-19:00; Jun-Aug Sa,Su 10:00-19:00", "ref:UrbIS": "5032399"}}]}