{"version": 0.6, "generator": "Overpass API 0.7.62.10 2d4cfc48", "osm3s": {"timestamp_osm_base": "2026-02-10T15:05:22Z", "copyright": "The data included in this document is from www.openstreetmap.org. The data is made available under ODbL."}, "elements": [{"type": "node", "id": 556338156, "lat": 50.8488654, "lon": 4.3509211, "tags": {"air_conditioning": "yes", "amenity": "restaurant", "contact:email": "kabuki.bruxelles@gmail.com", "contact:phone": "+32 2 218 86 96", "contact:website": "https://www.restaurant-kabuki.be/", "cuisine": "japanese", "indoor_seating": "yes", "name": "Kabuki", "opening_hours": "Mo-Su 12:00-14:00,18:00-23:00", "outdoor_seating": "no", "wheelchair": "yes"}}, {"type": "node", "id": 575898378, "lat": 50.849865, "lon": 4.3553851, "tags": {"amenity": "restaurant", "check_date:opening_hours": "2025-12-02", "cuisine": "syrian", "indoor_seating": "yes", "name": "Mine Madeh", "opening_hours:signed": "no", "outdoor_seating": "pedestrian_zone", "start_date": "2024-03-14", "takeaway": "yes", "wheelchair": "no"}}, {"type": "node", "id": 694045674, "lat": 50.848976, "lon": 4.352213, "tags": {"amenity": "restaurant", "brewery": "various", "contact:email": "info@drugopera.be", "contact:phone": "+32 2 229 16 66", "contact:website": "https://www.drugopera.be/", "cuisine": "regional", "name": "Drug Opera", "opening_hours": "Mo-Fr 12:00-23:00, Sa,Su 12:00-24:00", "outdoor_seating": "yes", "panoramax": "26abee85-b267-452d-8ed5-37fd9ce90d2a", "ref:vatin": "BE0408361981", "smoking": "no", "toilets:wheelchair": "no", "wheelchair": "limited"}}, {"type": "node", "id": 698288168, "lat": 50.8486419, "lon": 4.3502412, "tags": {"amenity": "restaurant", "check_date:opening_hours": "2026-01-05", "contact:phone": "+32 2 502 85 87", "contact:website": "https://restaurant-anata.be/", "cuisine": "japanese", "diet:vegetarian": "limited", "name": "Anata", "opening_hours:signed": "no", "payment:cards": "yes", "payment:cash": "yes", "payment:qr_code": "no", "reservation": "yes", "wheelchair": "yes"}}, {"type": "node", "id": 843729099, "lat": 50.8465379, "lon": 4.3491247, "tags": {"amenity": "restaurant", "contact:facebook": "https://www.facebook.com/people/Le-Plattesteen/100064031887952/", "name": "Plattesteen", "start_date": "1936", "toilets:wheelchair": "no", "wheelchair": "yes"}}, {"type": "node", "id": 1151269399, "lat": 50.8452613, "lon": 4.3493227, "tags": {"amenity": "restaurant", "contact:phone": "+32 2 514 39 49", "contact:website": "https://www.lecercledesvoyageurs.com/", "cuisine": "international", "name": "Le Cercle des Voyageurs", "opening_hours": "Mo-Su 11:00-00:00", "panoramax": "bb6a8b96-c5aa-4fa9-8e94-fabbdd93461b"}}, {"type": "node", "id": 1151269409, "lat": 50.8458449, "lon": 4.3484449, "tags": {"amenity": "restaurant", "check_date": "2025-08-18", "contact:website": "https://tapaslocas.be/", "cuisine": "spanish", "name": "Tapas Locas"}}, {"type": "node", "id": 1151269436, "lat": 50.8486606, "lon": 4.3534104, "tags": {"amenity": "restaurant", "check_date:opening_hours": "2025-05-11", "contact:mobile": "+32 475 82 15 53", "contact:phone": "+32 2 219 59 54", "contact:website": "https://www.bombayinn.be/", "cuisine": "indian", "diet:vegetarian": "yes", "indoor_seating": "yes", "name": "Bombay Inn", "opening_hours": "Mo-Sa,PH 12:00-14:30,18:00-23:30; Su 17:00-22:30", "outdoor_seating": "pedestrian_zone", "takeaway": "yes"}}, {"type": "node", "id": 2140364948, "lat": 50.8471839, "lon": 4.3505779, "tags": {"addr:housenumber": "13", "addr:street": "Rue du Midi - Zuidstraat", "entrance": "home", "ref:UrbIS": "6044877"}}, {"type": "node", "id": 2329109281, "lat": 50.8498531, "lon": 4.3545561, "tags": {"amenity": "restaurant", "breakfast": "yes", "check_date": "2025-04-14", "contact:email": "hello@frank.brussels", "contact:instagram": "https://www.instagram.com/frank.brussels", "contact:website": "https://www.frank.brussels", "cuisine": "brunch;breakfast;lunch;coffee_shop;tea", "description": "Breakfast, brunch, lunch", "indoor_seating": "yes", "lunch": "yes", "name": "Frank.", "opening_hours": "Mo-Fr 08:00-16:00; Sa-Su,PH 10:00-16:00", "outdoor_seating": "pedestrian_zone", "payment:cash": "no", "payment:credit_cards": "yes", "payment:debit_cards": "yes", "reservation": "yes", "takeaway": "yes", "wheelchair": "yes"}}, {"type": "node", "id": 2333276420, "lat": 50.8456383, "lon": 4.3525085, "tags": {"amenity": "restaurant", "cuisine": "french", "name": "La Roue d'Or", "opening_hours": "Mo-Su 12:00-00:30", "wikidata": "Q126014561", "wikimedia_commons": "Category:La Roue d'Or"}}, {"type": "node", "id": 2333276696, "lat": 50.846042, "lon": 4.3528043, "tags": {"amenity": "restaurant", "cuisine": "lebanese", "indoor_seating": "yes", "name": "L'Express", "outdoor_seating": "yes", "takeaway": "yes"}}, {"type": "node", "id": 2334478699, "lat": 50.8441485, "lon": 4.3524615}, {"type": "node", "id": 2334478702, "lat": 50.8441517, "lon": 4.3524582}, {"type": "node", "id": 2334478707, "lat": 50.8441613, "lon": 4.3524481}, {"type": "node", "id": 2334478712, "lat": 50.8441739, "lon": 4.3525045}, {"type": "node", "id": 2334478715, "lat": 50.8441843, "lon": 4.3524892}, {"type": "node", "id": 2334478724, "lat": 50.8442167, "lon": 4.352368}, {"type": "node", "id": 2334478735, "lat": 50.844256, "lon": 4.3524046}, {"type": "node", "id": 2478526101, "lat": 50.8480861, "lon": 4.3538956, "tags": {"amenity": "restaurant", "contact:phone": "+32 2 511 55 98", "contact:website": "https://auxarmesdebruxelles.com", "cuisine": "regional", "diet:vegetarian": "no", "internet_access": "wlan", "internet_access:fee": "no", "name": "Aux Armes de Bruxelles", "opening_hours": "Mo-Fr 12:00-22:45; Sa 12:00-23:15; Su 12:00-22:30", "wheelchair": "limited"}}, {"type": "node", "id": 2698048065, "lat": 50.8469698, "lon": 4.3486896, "tags": {"amenity": "restaurant", "check_date": "2023-11-14", "contact:mobile": "+32 472 93 48 34", "contact:website": "https://www.chou-sando.be/", "cuisine": "japanese", "name": "Chou Sando", "opening_hours": "Tu-Fr 11:30-14:30,18:00-21:30; Sa 11:30-21:30; Mo 11:30-14:30", "wheelchair": "no"}}, {"type": "node", "id": 2698048950, "lat": 50.8471398, "lon": 4.3505465}, {"type": "node", "id": 2698048956, "lat": 50.8471574, "lon": 4.350489}, {"type": "node", "id": 2698048961, "lat": 50.8471713, "lon": 4.3504435}, {"type": "node", "id": 2698048971, "lat": 50.8471911, "lon": 4.3505831}, {"type": "node", "id": 2698048986, "lat": 50.8472126, "lon": 4.3505261}, {"type": "node", "id": 2698048997, "lat": 50.8472286, "lon": 4.3504832}, {"type": "node", "id": 2777306317, "lat": 50.8466911, "lon": 4.3487013, "tags": {"amenity": "restaurant", "check_date": "2023-11-14", "cuisine": "italian", "diet:vegan": "yes", "diet:vegetarian": "yes", "indoor_seating": "yes", "name": "Mirante", "outdoor_seating": "yes", "wheelchair": "limited"}}, {"type": "node", "id": 2824297378, "lat": 50.8458359, "lon": 4.3498269, "tags": {"amenity": "restaurant", "contact:email": "info@nuetnigenough.be", "contact:phone": "+32 2 513 78 84", "contact:website": "http://www.nuetnigenough.be/", "cuisine": "belgian", "name": "N\u00fcetnigenough"}}, {"type": "node", "id": 3000941410, "lat": 50.8464536, "lon": 4.3501766, "tags": {"amenity": "restaurant", "check_date": "2025-10-20", "cuisine": "thai;vietnamese", "name": "Ubon Thai Isan", "wheelchair": "no"}}, {"type": "node", "id": 3023196289, "lat": 50.8461631, "lon": 4.3495735, "tags": {"amenity": "restaurant", "check_date:opening_hours": "2025-10-20", "indoor_seating": "yes", "name": "Iyagi", "opening_hours:signed": "no", "outdoor_seating": "no"}}, {"type": "node", "id": 3118681448, "lat": 50.8482736, "lon": 4.3546081, "tags": {"alt_name": "Den Ogenblik", "amenity": "restaurant", "contact:phone": "+32 2 511 61 51", "contact:website": "https://ogenblik.be", "cuisine": "regional", "name": "L'Ogenblik", "opening_hours": "Mo-Sa 12:00-14:30, 19:00-24:00;Su off", "outdoor_seating": "pedestrian_zone"}}, {"type": "node", "id": 3118681514, "lat": 50.8475018, "lon": 4.3529573, "tags": {"amenity": "restaurant", "contact:phone": "+32 2 502 81 00", "cuisine": "regional", "indoor_seating": "yes", "name": "Au coin gourmand", "opening_hours": "Mo-Su 09:00-23:00", "outdoor_seating": "pedestrian_zone", "toilets": "yes", "toilets:wheelchair": "no", "wheelchair": "limited"}}, {"type": "node", "id": 3118693293, "lat": 50.8475693, "lon": 4.3547135, "tags": {"amenity": "restaurant", "changing_table": "no", "changing_table:adult": "no", "contact:phone": "+32 2 512 37 31", "contact:website": "https://latavernedupassage.be/", "cuisine": "regional", "indoor_seating": "yes", "name": "Taverne du Passage", "opening_hours": "Mo off; Tu-Th 12:00-23:00; Fr-Sa 12:00-23:30; Su,PH 12:00-23:00", "outdoor_seating": "yes", "wheelchair:turning_circle": "no"}}, {"type": "node", "id": 3118694198, "lat": 50.8479893, "lon": 4.3550831, "tags": {"addr:housenumber": "6", "addr:street": "Galerie du Roi - Koningsgalerij", "entrance": "yes", "ref:UrbIS": "11018628"}}, {"type": "node", "id": 3118694222, "lat": 50.8472011, "lon": 4.3526735, "tags": {"addr:housenumber": "7", "addr:street": "Rue Chair et Pain - Vlees-en-Broodstraat", "entrance": "yes", "ref:UrbIS": "8181969"}}, {"type": "node", "id": 3118695665, "lat": 50.8471637, "lon": 4.3526352}, {"type": "node", "id": 3118695700, "lat": 50.8471936, "lon": 4.3526659}, {"type": "node", "id": 3118695716, "lat": 50.8472019, "lon": 4.352565}, {"type": "node", "id": 3118695853, "lat": 50.847227, "lon": 4.3526997}, {"type": "node", "id": 3118695855, "lat": 50.8472287, "lon": 4.3525975}, {"type": "node", "id": 3118695877, "lat": 50.8472545, "lon": 4.3525444}, {"type": "node", "id": 3118696029, "lat": 50.8472831, "lon": 4.35258}, {"type": "node", "id": 3118696031, "lat": 50.8472854, "lon": 4.3525828}, {"type": "node", "id": 3118698027, "lat": 50.8478492, "lon": 4.354794}, {"type": "node", "id": 3118698225, "lat": 50.8479753, "lon": 4.3547725}, {"type": "node", "id": 3118698226, "lat": 50.847926, "lon": 4.3548517}, {"type": "node", "id": 3118698679, "lat": 50.8480354, "lon": 4.3550201}, {"type": "node", "id": 3118699033, "lat": 50.8480732, "lon": 4.3548544}, {"type": "node", "id": 3118699065, "lat": 50.8480952, "lon": 4.3548728}, {"type": "node", "id": 3118699675, "lat": 50.8482825, "lon": 4.353442}, {"type": "node", "id": 3118699710, "lat": 50.8483128, "lon": 4.3534886}, {"type": "node", "id": 3118699726, "lat": 50.8483269, "lon": 4.353363}, {"type": "node", "id": 3118699829, "lat": 50.8483278, "lon": 4.3534638}, {"type": "node", "id": 3118699833, "lat": 50.8483318, "lon": 4.3534696}, {"type": "node", "id": 3118699862, "lat": 50.8483506, "lon": 4.3534967}, {"type": "node", "id": 3118699879, "lat": 50.8483633, "lon": 4.3534136}, {"type": "node", "id": 3118699900, "lat": 50.8483833, "lon": 4.3534418}, {"type": "node", "id": 3118701081, "lat": 50.8487981, "lon": 4.3539031}, {"type": "node", "id": 3118701091, "lat": 50.8487628, "lon": 4.353876}, {"type": "node", "id": 3118701105, "lat": 50.8488012, "lon": 4.3539055}, {"type": "node", "id": 3118701117, "lat": 50.848821, "lon": 4.3538636}, {"type": "node", "id": 3118701118, "lat": 50.848828, "lon": 4.3536775}, {"type": "node", "id": 3118701120, "lat": 50.8488328, "lon": 4.353827}, {"type": "node", "id": 3118701231, "lat": 50.8488508, "lon": 4.3538451}, {"type": "node", "id": 3118701233, "lat": 50.8488556, "lon": 4.3539046}, {"type": "node", "id": 3118701236, "lat": 50.8488719, "lon": 4.353867}, {"type": "node", "id": 3118701240, "lat": 50.8488763, "lon": 4.3539334}, {"type": "node", "id": 3118701246, "lat": 50.8488904, "lon": 4.3539107}, {"type": "node", "id": 3118701258, "lat": 50.8489157, "lon": 4.3538613}, {"type": "node", "id": 3118701261, "lat": 50.8489189, "lon": 4.353761}, {"type": "node", "id": 3118701266, "lat": 50.8489274, "lon": 4.3539561}, {"type": "node", "id": 3118701268, "lat": 50.8489397, "lon": 4.3539331}, {"type": "node", "id": 3118701272, "lat": 50.8489504, "lon": 4.3539131}, {"type": "node", "id": 3118701275, "lat": 50.8489535, "lon": 4.3537941}, {"type": "node", "id": 3118701315, "lat": 50.8490181, "lon": 4.3540128}, {"type": "node", "id": 3285060190, "lat": 50.8455161, "lon": 4.3524292, "tags": {"amenity": "restaurant", "contact:email": "info@abrussel.be", "contact:mobile": "+32 486 96 84 60", "contact:phone": "+32 2 649 01 19", "contact:website": "http://www.abrussel.be/", "name": "ABrussel", "note": "The name is \"ABrussel\", this is not a typo (see their website), despite their logo might suggest another spelling", "opening_hours": "Mo 18:00-22:00; Tu-Sa 12:00-14:00,18:00-22:00; Su,PH off"}}, {"type": "node", "id": 3327016375, "lat": 50.8483028, "lon": 4.3543894, "tags": {"amenity": "restaurant", "contact:phone": "+32 2 511 26 07", "contact:website": "https://restaurantvincent.be", "cuisine": "regional", "name": "Vincent", "opening_hours": "Mo-Sa 12:00-14:45,18:30-23:30; Su off", "smoking": "no"}}, {"type": "node", "id": 3328716556, "lat": 50.8462541, "lon": 4.3489166, "tags": {"amenity": "restaurant", "check_date": "2023-11-14", "contact:email": "info@lelombard.eu", "contact:mobile": "+32 488 04 08 08", "contact:website": "https://www.lelombard.eu/", "cuisine": "regional", "indoor_seating": "yes", "internet_access": "wlan", "name": "Le Lombard", "outdoor_seating": "yes", "wheelchair": "no", "wikidata": "Q126014009", "wikimedia_commons": "Category:Le Lombard, Brussels"}}, {"type": "node", "id": 3505027549, "lat": 50.8486556, "lon": 4.3507792, "tags": {"amenity": "restaurant", "contact:phone": "+32 2 502 00 61", "contact:website": "https://www.biamara.com/", "cuisine": "fish_and_chips", "diet:vegan": "no", "diet:vegetarian": "yes", "indoor_seating": "yes", "name": "Bia Mara", "opening_hours": "Mo-Th 12:00-14:00,18:00-21:30; Fr 12:00-14:00,18:00-22:00; Sa 12:00-22:00; Su 12:00-15:00,18:00-21:00", "outdoor_seating": "yes", "takeaway": "yes", "toilets:wheelchair": "no", "wheelchair": "yes"}}, {"type": "node", "id": 3514803687, "lat": 50.8463192, "lon": 4.3524059, "tags": {"amenity": "restaurant", "name": "La Maison du Cygne", "note": "Temporarily closed for works and renovation\u2014will reopen later in 2023", "opening_hours": "off", "website": "https://www.lamaisonducygne.com"}}, {"type": "node", "id": 3514803688, "lat": 50.8462181, "lon": 4.3526273, "tags": {"amenity": "restaurant", "check_date": "2025-12-31", "contact:phone": "+32 2 513 64 79", "contact:website": "https://www.restaurant-rose-blanche.be/", "indoor_seating": "yes", "name": "La Rose Blanche", "opening_hours": "Mo-Su 11:30-23:00", "outdoor_seating": "yes"}}, {"type": "node", "id": 3632161905, "lat": 50.8451324, "lon": 4.3531261, "tags": {"amenity": "restaurant", "contact:email": "info@albarmaki.be", "contact:phone": "+32 2 513 08 34", "contact:website": "https://www.albarmaki.be/", "cuisine": "lebanese", "name": "Al Barmaki", "opening_hours": "Mo-Sa 19:00-24:00", "start_date": "1976"}}, {"type": "node", "id": 3775682901, "lat": 50.84526, "lon": 4.3524644, "tags": {"amenity": "restaurant", "contact:phone": "+32 2 513 15 11", "contact:website": "https://restaurant-caspian.be", "cuisine": "persian", "diet:vegetarian": "yes", "name": "Caspian", "opening_hours": "Tu-Sa 12:00-14:30, 18:00-22:30; Su 18:00-22:30"}}, {"type": "node", "id": 3918196703, "lat": 50.8462309, "lon": 4.3529062, "tags": {"amenity": "restaurant", "contact:email": "info@caveduroy.com", "contact:fax": "+32 2 732 63 75", "contact:phone": "+32 2 502 14 11", "contact:website": "http://www.caveduroy.com/", "cuisine": "belgian;mussels", "indoor_seating": "yes", "name": "Cave du Roy", "outdoor_seating": "no", "wheelchair": "no"}}, {"type": "node", "id": 4318137507, "lat": 50.8484951, "lon": 4.353492, "tags": {"amenity": "restaurant", "check_date": "2024-05-11", "contact:website": "https://cafegeorgette.be", "cuisine": "regional", "internet_access": "wlan", "internet_access:fee": "no", "name": "Caf\u00e9 Georgette", "reservation": "recommended", "smoking": "no", "takeaway": "no", "toilets": "yes"}}, {"type": "node", "id": 4318137514, "lat": 50.8488894, "lon": 4.3537709, "tags": {"amenity": "restaurant", "contact:phone": "+32 2 307 62 49", "contact:website": "https://ilgastronomico.be/", "cuisine": "italian", "name": "Il Gastronomico", "opening_hours": "Tu-Fr 12:00-14:00,19:00-22:00; Sa 19:00-22:00"}}, {"type": "node", "id": 4318137517, "lat": 50.8481456, "lon": 4.3525164, "tags": {"amenity": "restaurant", "contact:phone": "+32 2 808 25 20", "contact:website": "https://www.chez-kimchi.be/", "cuisine": "korean", "name": "Chez Kimchi"}}, {"type": "node", "id": 4318137519, "lat": 50.848185, "lon": 4.3528311, "tags": {"amenity": "restaurant", "cuisine": "african;fusion", "indoor_seating": "yes", "name": "Christo", "outdoor_seating": "pedestrian_zone"}}, {"type": "node", "id": 4318137522, "lat": 50.8482344, "lon": 4.3530195, "tags": {"amenity": "restaurant", "cuisine": "steak_house", "indoor_seating": "yes", "name": "House of Ribs 'n' Grill", "outdoor_seating": "pedestrian_zone"}}, {"type": "node", "id": 4318137530, "lat": 50.8483176, "lon": 4.3531942, "tags": {"amenity": "restaurant", "cuisine": "thai", "indoor_seating": "yes", "name": "Lotus vert", "outdoor_seating": "yes"}}, {"type": "node", "id": 4318137531, "lat": 50.8483452, "lon": 4.3532479, "tags": {"amenity": "restaurant", "check_date:opening_hours": "2022-09-04", "cuisine": "pizza", "indoor_seating": "yes", "name": "L\u2019Italiano", "opening_hours:signed": "no", "outdoor_seating": "yes"}}, {"type": "node", "id": 4318137537, "lat": 50.8485954, "lon": 4.3533377, "tags": {"amenity": "restaurant", "check_date:opening_hours": "2023-09-10", "cuisine": "asian", "indoor_seating": "yes", "name": "Wok Up", "opening_hours": "Mo-Su,PH 12:00-23:00", "outdoor_seating": "yes"}}, {"type": "node", "id": 4323046262, "lat": 50.8485295, "lon": 4.3510027, "tags": {"alt_name": "peck 47", "amenity": "restaurant", "contact:facebook": "WoodpeckerFamilyBxl", "contact:phone": "+32 2 513 02 87", "cuisine": "sandwich", "diet:vegan": "yes", "diet:vegetarian": "yes", "indoor_seating": "yes", "name": "Woodpecker 47", "opening_hours": "Mo-Sa 09:00-22:00; Su 09:00-21:00", "opening_hours:signed": "no", "outdoor_seating": "yes", "toilets:wheelchair": "no", "website": "https://woodpecker.family/menu-wp47/", "wheelchair": "yes"}}, {"type": "node", "id": 4333132436, "lat": 50.8492065, "lon": 4.3517933, "tags": {"amenity": "restaurant", "check_date:opening_hours": "2025-10-27", "name": "Ciao Italia", "opening_hours:signed": "no", "panoramax": "94b13bcd-6795-42bb-8202-e67f9c5b4280", "panoramax:0": "c50c397e-39c4-48a5-afd8-dbe9929cb385"}}, {"type": "node", "id": 4333132440, "lat": 50.8494399, "lon": 4.3513178, "tags": {"amenity": "restaurant", "check_date:opening_hours": "2025-10-27", "cuisine": "chinese", "name": "Auntie Caf\u00e9", "opening_hours": "Mo-We,Fr-Su 12:00-22:00"}}, {"type": "node", "id": 4352415603, "lat": 50.8477543, "lon": 4.3518272, "tags": {"amenity": "restaurant", "contact:phone": "+32 2 515 05 45", "name": "La Capannina"}}, {"type": "node", "id": 4352415604, "lat": 50.8477138, "lon": 4.3517792, "tags": {"amenity": "restaurant", "bar": "no", "brewery": "various", "check_date": "2025-04-24", "contact:phone": "+32 2 540 22 40", "contact:website": "https://www.nompowrestaurant.com/", "cuisine": "asian", "diet:gluten_free": "yes", "diet:vegan": "yes", "diet:vegetarian": "yes", "indoor_seating": "yes", "level": "0", "name": "Nom Pow", "opening_hours": "Mo-Fr 12:00-22:00; Sa-Su 12:00-21:00", "outdoor_seating": "yes", "payment:cards": "no", "payment:cash": "yes", "payment:credit_cards": "no", "payment:debit_cards": "no", "takeaway": "yes", "toilets": "yes", "wheelchair": "limited"}}, {"type": "node", "id": 4352436897, "lat": 50.8459173, "lon": 4.3485094, "tags": {"amenity": "restaurant", "check_date": "2025-08-18", "contact:phone": "+32 2 502 00 76", "contact:website": "http://www.mammam.be/", "cuisine": "thai", "indoor_seating": "yes", "name": "Mam Mam", "opening_hours": "Mo-Sa 12:00-15:00, 18:00-23:00; Su 18:00-23:00", "outdoor_seating": "yes"}}, {"type": "node", "id": 4361625524, "lat": 50.8481427, "lon": 4.3511151, "tags": {"amenity": "restaurant", "check_date": "2025-11-02", "check_date:opening_hours": "2025-11-02", "cuisine": "waffle", "indoor_seating": "yes", "name": "Belgian Waffles", "opening_hours:signed": "no", "outdoor_seating": "pedestrian_zone"}}, {"type": "node", "id": 4361625526, "lat": 50.8482349, "lon": 4.3508924, "tags": {"amenity": "restaurant", "check_date": "2025-11-02", "check_date:opening_hours": "2025-11-02", "cuisine": "pizza", "name": "Valenza", "opening_hours:signed": "no"}}, {"type": "node", "id": 4361625529, "lat": 50.8484312, "lon": 4.3504184, "tags": {"amenity": "restaurant", "check_date:opening_hours": "2025-11-02", "description": "Grill room, scampi, pasta\u2026", "name": "Le Nil", "opening_hours:signed": "no"}}, {"type": "node", "id": 4361625530, "lat": 50.8484623, "lon": 4.3503433, "tags": {"amenity": "restaurant", "check_date:opening_hours": "2025-11-02", "name": "Al.Karam", "opening_hours:signed": "no"}}, {"type": "node", "id": 4394827131, "lat": 50.8475364, "lon": 4.3503204, "tags": {"amenity": "restaurant", "check_date": "2025-06-26", "contact:email": "info@manhattns.com", "contact:facebook": "https://www.facebook.com/ManhattnsBurgers", "contact:instagram": "https://www.instagram.com/manhattns.burgers", "contact:website": "https://www.manhattns.com/location/boursebeurs", "cuisine": "burger", "description": "Flamme grilled burgers", "diet:vegetarian": "yes", "indoor_seating": "yes", "internet_access": "wlan", "internet_access:fee": "customers", "name": "Manhattn\u2019s Burgers", "opening_hours": "Mo-Su 11:30-22:30", "outdoor_seating": "yes", "payment:cash": "yes", "payment:mastercard": "yes", "payment:visa": "yes", "reservation": "no", "takeaway": "yes", "wheelchair": "no"}}, {"type": "node", "id": 4411440789, "lat": 50.8457351, "lon": 4.3530154, "tags": {"amenity": "restaurant", "cuisine": "asian", "name": "Xuji Oden"}}, {"type": "node", "id": 4413210229, "lat": 50.8476324, "lon": 4.3552231, "tags": {"amenity": "restaurant", "contact:phone": "+32 2 502 78 76", "cuisine": "chinese", "indoor_seating": "yes", "name": "La Chine", "opening_hours": "Mo-Fr 11:30-14:30", "outdoor_seating": "no"}}, {"type": "node", "id": 4413284005, "lat": 50.8480264, "lon": 4.3540605, "tags": {"amenity": "restaurant", "cuisine": "regional", "name": "Le Bourgeois"}}, {"type": "node", "id": 4413284009, "lat": 50.8478959, "lon": 4.3538481, "tags": {"amenity": "restaurant", "name": "Le Petit Bedon"}}, {"type": "node", "id": 4413284010, "lat": 50.8477347, "lon": 4.3548385, "tags": {"air_conditioning": "yes", "amenity": "restaurant", "brewery": "yes", "changing_table": "no", "changing_table:adult": "no", "check_date": "2025-04-18", "contact:phone": "+32 2 511 79 10", "contact:website": "https://lemarmiton.be/", "cuisine": "regional", "level": "0", "name": "Le Marmiton", "opening_hours": "Mo-Fr 12:00-15:00, 18:00-23:30; Sa-Su 12:00-23:30", "outdoor_seating": "yes", "payment:cash": "yes", "payment:mastercard": "yes", "payment:visa": "yes", "reservation": "yes", "smoking": "outside", "wheelchair": "limited", "wheelchair:turning_circle": "no"}}, {"type": "node", "id": 4413284011, "lat": 50.8479375, "lon": 4.3539288, "tags": {"amenity": "restaurant", "name": "Le Calalou"}}, {"type": "node", "id": 4413284013, "lat": 50.847978, "lon": 4.3539838, "tags": {"amenity": "restaurant", "check_date:opening_hours": "2023-04-01", "name": "Richard", "opening_hours:signed": "no"}}, {"type": "node", "id": 4413284014, "lat": 50.84783, "lon": 4.3544784, "tags": {"amenity": "restaurant", "cuisine": "seafood", "name": "Le Vieux Bruxelles"}}, {"type": "node", "id": 4413284015, "lat": 50.847828, "lon": 4.3537387, "tags": {"amenity": "restaurant", "name": "Royal Safir"}}, {"type": "node", "id": 4413284016, "lat": 50.8478741, "lon": 4.354354, "tags": {"amenity": "restaurant", "cuisine": "fish", "name:signed": "no"}}, {"type": "node", "id": 4413284023, "lat": 50.847952, "lon": 4.3542039, "tags": {"amenity": "restaurant", "cuisine": "regional", "name": "Le compositeur"}}, {"type": "node", "id": 4413284025, "lat": 50.8479919, "lon": 4.3541271, "tags": {"amenity": "restaurant", "cuisine": "regional", "name": "Jeanneke"}}, {"type": "node", "id": 4413342786, "lat": 50.8476663, "lon": 4.3527284, "tags": {"amenity": "restaurant", "check_date:opening_hours": "2023-04-01", "indoor_seating": "yes", "name": "Eight & Three", "opening_hours:signed": "no", "outdoor_seating": "sidewalk", "wheelchair": "no"}}, {"type": "node", "id": 4413342803, "lat": 50.847545, "lon": 4.3528971, "tags": {"amenity": "restaurant", "cuisine": "pizza", "name": "Napoli", "opening_hours": "Mo-Su,PH 11:30-23:00"}}, {"type": "node", "id": 4413342804, "lat": 50.847927, "lon": 4.3536074, "tags": {"amenity": "restaurant", "name": "La Belg'\u00c9poque"}}, {"type": "node", "id": 4413385316, "lat": 50.8487477, "lon": 4.3527166, "tags": {"amenity": "restaurant", "cuisine": "international", "description": "Meat, pizza, seafood, pasta and more", "name": "Les M\u00e9moires de Gretry"}}, {"type": "node", "id": 4413385325, "lat": 50.8485636, "lon": 4.3530543, "tags": {"amenity": "restaurant", "check_date:opening_hours": "2024-04-29", "cuisine": "pizza", "name": "La Luna di Venezia", "opening_hours:signed": "no"}}, {"type": "node", "id": 4413385346, "lat": 50.8485977, "lon": 4.3529917, "tags": {"amenity": "restaurant", "check_date:opening_hours": "2024-04-29", "cuisine": "italian", "name": "Sole d'Italia", "opening_hours:signed": "no", "wheelchair": "limited"}}, {"type": "node", "id": 4413669627, "lat": 50.8475968, "lon": 4.3566373, "tags": {"amenity": "restaurant", "check_date": "2024-04-16", "indoor_seating": "yes", "name": "L'arte della Pizza", "outdoor_seating": "yes"}}, {"type": "node", "id": 4413734368, "lat": 50.8462578, "lon": 4.3529695, "tags": {"amenity": "restaurant", "contact:phone": "+32 2 513 73 44", "contact:website": "https://www.restaurant-het-kelderke.be", "cuisine": "regional", "name": "'T Kelderke", "opening_hours": "Su-Th 12:00-23:00; Fr,Sa 12:00-00:00", "wheelchair": "no"}}, {"type": "node", "id": 4413803702, "lat": 50.8471747, "lon": 4.3524112, "tags": {"amenity": "restaurant", "changing_table": "no", "check_date": "2024-01-04", "cuisine": "greek", "entrance:kerb:height": "0", "entrance:ramp": "no", "entrance:step_count": "0", "entrance:width": "0.81", "name": "El Greco", "opening_hours": "Tu-Su 11:30-23:30", "toilets:wheelchair": "no", "wheelchair": "yes", "wheelchair:turning_circle": "no"}}, {"type": "node", "id": 4413853509, "lat": 50.8475822, "lon": 4.3502093, "tags": {"amenity": "restaurant", "check_date": "2025-06-26", "contact:email": "info@umamido.be", "contact:phone": "+32 2 540 21 47", "contact:website": "https://www.umamido.be/locations-pages/umamido-beurs", "cuisine": "japanese", "diet:vegetarian": "yes", "full_name": "Umamido Bourse - Umamido Beurs", "indoor_seating": "yes", "name": "Umamido", "opening_hours": "Mo-Su 12:00-14:30,17:30-21:30", "outdoor_seating": "pedestrian_zone", "wheelchair": "no"}}, {"type": "node", "id": 4413902489, "lat": 50.8465954, "lon": 4.3484679, "tags": {"amenity": "restaurant", "check_date": "2025-07-26", "check_date:currency:XBT": "2025-07-26", "contact:facebook": "thaiburi.brussels", "contact:instagram": "thaiburi.brussels", "contact:mobile": "+32 485 04 96 41", "contact:website": "https://thaiburi.eu/", "cuisine": "thai", "currency:XBT": "yes", "name": "Thaiburi", "opening_hours": "Tu-Su 18:00-21:30", "payment:cash": "yes", "payment:credit_cards": "yes", "payment:lightning": "yes", "payment:lightning_contactless": "yes", "payment:onchain": "no", "wheelchair": "no"}}, {"type": "node", "id": 4413902504, "lat": 50.8467708, "lon": 4.3486161, "tags": {"amenity": "restaurant", "cuisine": "sushi", "name": "Sushi Bourse"}}, {"type": "node", "id": 4413933705, "lat": 50.8469359, "lon": 4.3509854, "tags": {"amenity": "restaurant", "check_date": "2025-06-26", "name": "The Music Village"}}, {"type": "node", "id": 4413933712, "lat": 50.8460119, "lon": 4.3513055, "tags": {"amenity": "restaurant", "name": "Ristorante Bocconi"}}, {"type": "node", "id": 4413933721, "lat": 50.8470798, "lon": 4.351979, "tags": {"amenity": "restaurant", "check_date": "2024-10-17", "check_date:diet:vegan": "2024-10-17", "check_date:diet:vegetarian": "2024-10-17", "check_date:opening_hours": "2024-07-10", "diet:vegan": "no", "diet:vegetarian": "yes", "indoor_seating": "yes", "internet_access": "wlan", "name": "La Brouette", "opening_hours:signed": "no", "outdoor_seating": "yes", "wheelchair": "no"}}, {"type": "node", "id": 4413952466, "lat": 50.8458765, "lon": 4.3526631, "tags": {"amenity": "restaurant", "changing_table": "no", "changing_table:adult": "no", "diet:vegan": "no", "diet:vegetarian": "no", "entrance:kerb:height": "0.31", "entrance:step_count": "2", "entrance:width": "0.73", "indoor_seating": "yes", "name": "Fresh Noodles", "outdoor_seating": "yes", "ramp:wheelchair": "no", "wheelchair:turning_circle": "no"}}, {"type": "node", "id": 4413952469, "lat": 50.8455798, "lon": 4.3524706, "tags": {"amenity": "restaurant", "contact:mobile": "+32 468 06 46 76", "cuisine": "persian", "name": "Persia", "opening_hours": "Mo off; Tu-Su 12:00-22:30"}}, {"type": "node", "id": 4413952474, "lat": 50.8458948, "lon": 4.3525122, "tags": {"amenity": "restaurant", "contact:mobile": "+32 456 63 86 92", "cuisine": "regional;seafood", "level": "0", "name": "Oc\u00e9an 11", "opening_hours": "Mo-Su 12:00-22:30", "payment:mastercard": "yes", "payment:visa": "yes"}}, {"type": "node", "id": 4413952478, "lat": 50.8457712, "lon": 4.3525948, "tags": {"amenity": "restaurant", "contact:phone": "+32 2 672 44 25", "contact:website": "https://culsec-bistro.business.site/", "cuisine": "lebanese;syrian", "delivery": "yes", "full_name": "Cul Sec Food & Wine Bistro", "name": "Baladi", "opening_hours": "We-Fr 12:00-15:00,18:00-22:00; Sa 12:00-22:30; Su 12:00-22:00", "takeaway": "yes"}}, {"type": "node", "id": 4413952484, "lat": 50.8451413, "lon": 4.3525616, "tags": {"amenity": "restaurant", "name": "M & Mme Falfoul"}}, {"type": "node", "id": 4413952486, "lat": 50.8458185, "lon": 4.3526255, "tags": {"amenity": "restaurant", "check_date:opening_hours": "2025-03-24", "contact:phone": "+32 2 513 68 88", "cuisine": "regional", "name": "Brasserie de la Ville", "opening_hours": "Mo-Sa 12:00-15:00,18:00-23:00"}}, {"type": "node", "id": 4413960398, "lat": 50.8461041, "lon": 4.3526765, "tags": {"amenity": "restaurant", "cuisine": "meatballs", "name": "Ballekes"}}, {"type": "node", "id": 4413963186, "lat": 50.8454618, "lon": 4.3534047, "tags": {"amenity": "restaurant", "changing_table": "no", "changing_table:adult": "no", "check_date": "2024-03-07", "contact:email": "info@gabbiani.be", "contact:phone": "+32 2 512 65 44", "contact:website": "https://www.gabbiani.be/", "cuisine": "italian", "diet:vegan": "no", "diet:vegetarian": "no", "entrance:kerb:height": "0.32", "entrance:step_count": "3", "entrance:width": "0.82", "indoor_seating": "yes", "name": "Gabbiani Reali", "outdoor_seating": "yes", "ramp:wheelchair": "no", "wheelchair:turning_circle": "no"}}, {"type": "node", "id": 4413963188, "lat": 50.8457691, "lon": 4.3529581, "tags": {"amenity": "restaurant", "entrance:kerb:height": "0.54", "entrance:step_count": "3", "indoor_seating": "yes", "name": "Santorini", "outdoor_seating": "yes", "toilets:wheelchair": "yes", "toilets:wheelchair:accessible_via": "ground floor", "wheelchair:turning_circle": "yes"}}, {"type": "node", "id": 4413967687, "lat": 50.8453475, "lon": 4.3533217, "tags": {"air_conditioning": "no", "amenity": "restaurant", "contact:facebook": "https://www.facebook.com/Yummy-bowl-497920727320236/", "contact:mobile": "+32 495 35 69 05", "cuisine": "salad", "diet:vegan": "yes", "diet:vegetarian": "only", "indoor_seating": "yes", "internet_access": "wlan", "internet_access:free": "no", "name": "Yummy bowl", "opening_hours": "Mo-Fr 10:30-15:00; Sa-Su 10:30-17:00", "outdoor_seating": "yes"}}, {"type": "node", "id": 4413967688, "lat": 50.8450922, "lon": 4.3530881, "tags": {"amenity": "restaurant", "changing_table": "no", "changing_table:adult": "no", "contact:email": "feuxdebengale1@gmail.com", "contact:phone": "+32 2 513 51 63", "cuisine": "indian", "diet:halal": "yes", "entrance:kerb:height": "0.34", "entrance:ramp": "no", "entrance:step_count": "3", "entrance:width": "0.82", "indoor_seating": "yes", "name": "Feux de Bengale", "opening_hours": "Mo-Sa 12:00-14:30,18:00-23:30; Su 12:00-14:30", "outdoor_seating": "yes", "wheelchair:turning_circle": "no"}}, {"type": "node", "id": 4416858289, "lat": 50.8438624, "lon": 4.3520311, "tags": {"amenity": "restaurant", "contact:phone": "+32 2 511 05 86", "contact:website": "https://www.latabledemus.be", "indoor_seating": "yes", "name": "La Table de Mus", "opening_hours": "Mo-Tu 12:00-16:00, 19:00-00:00;Th-Sa 12:00-16:00, 19:00-00:00", "outdoor_seating": "yes", "panoramax": "43499792-2ec4-42ca-b1c2-f55d56f9896a"}}, {"type": "node", "id": 4418284332, "lat": 50.8454841, "lon": 4.3482899, "tags": {"amenity": "restaurant", "check_date": "2025-08-18", "name": "La Caneva"}}, {"type": "node", "id": 4418284333, "lat": 50.8455697, "lon": 4.3484429, "tags": {"amenity": "restaurant", "check_date": "2023-08-26", "name": "La Cantina Cubana"}}, {"type": "node", "id": 4418284334, "lat": 50.8488803, "lon": 4.352815, "tags": {"amenity": "restaurant", "cuisine": "italian", "name": "La Corte Gastronomica", "toilets": "yes", "toilets:access": "public", "toilets:description": "Le r\u00e9seau des toilettes accueillantes - Netwerk gastvrije toiletten", "toilets:fee": "no"}}, {"type": "node", "id": 4418284335, "lat": 50.8478896, "lon": 4.3546673, "tags": {"amenity": "restaurant", "check_date": "2025-02-01", "check_date:opening_hours": "2025-02-01", "cuisine": "seafood", "name": "Lobster House", "opening_hours:signed": "no"}}, {"type": "node", "id": 4418284337, "lat": 50.8502884, "lon": 4.3539528, "tags": {"amenity": "restaurant", "changing_table": "no", "changing_table:adult": "no", "diet:vegan": "no", "diet:vegetarian": "no", "entrance:kerb:height": "0.03", "entrance:step_count": "1", "entrance:width": "0.88", "name": "La Lunette", "ramp:wheelchair": "no", "toilets:access": "yes", "toilets:wheelchair": "no", "wheelchair:description": "toilets upstairs not accessible", "wheelchair:turning_circle": "yes"}}, {"type": "node", "id": 4418284339, "lat": 50.8479353, "lon": 4.3544565, "tags": {"amenity": "restaurant", "name": "Le Moulin"}}, {"type": "node", "id": 4418284347, "lat": 50.8486808, "lon": 4.3531809, "tags": {"amenity": "restaurant", "name": "L\u2019Homme au chapeau"}}, {"type": "node", "id": 4418284355, "lat": 50.8457964, "lon": 4.3495394, "tags": {"amenity": "restaurant", "contact:facebook": "resto.lelotusbleu", "contact:phone": "+32 2 502 62 99", "contact:website": "https://lotusbleu.biz/", "cuisine": "vietnamese", "name": "Le Lotus Bleu"}}, {"type": "node", "id": 4418284378, "lat": 50.8489072, "lon": 4.3527656, "tags": {"amenity": "restaurant", "cuisine": "pizza", "name": "Altra corte", "toilets:wheelchair": "no", "wheelchair:turning_circle": "yes"}}, {"type": "node", "id": 4418285523, "lat": 50.8486735, "lon": 4.3547553, "tags": {"amenity": "restaurant", "check:date": "2025-08-12", "check_date:opening_hours": "2024-07-22", "cuisine": "portuguese", "name": "Bifanas", "opening_hours:signed": "no"}}, {"type": "node", "id": 4418285528, "lat": 50.8480431, "lon": 4.354305, "tags": {"amenity": "restaurant", "cuisine": "regional", "name": "Le coin de l'\u00e9cailler", "website": "https://lecoindelecailler.be/"}}, {"type": "node", "id": 4418285609, "lat": 50.8487742, "lon": 4.3548563, "tags": {"amenity": "restaurant", "check_date:opening_hours": "2024-05-25", "cuisine": "asian;barbecue", "name": "Lao Nai", "opening_hours:signed": "no"}}, {"type": "node", "id": 4418285613, "lat": 50.8488021, "lon": 4.3529585, "tags": {"alt_name": "Bao Go", "amenity": "restaurant", "contact:email": "info@baogo.be", "contact:phone": "+32 2 203 07 33", "contact:website": "https://www.baogo.be/", "cuisine": "asian", "delivery": "yes", "name": "Baogo", "opening_hours": "Mo-Su 12:00-23:00", "operator": "Six Nations"}}, {"type": "node", "id": 4418285626, "lat": 50.8488496, "lon": 4.3528713, "tags": {"amenity": "restaurant", "cuisine": "italian", "name": "L'Altro Mondo"}}, {"type": "node", "id": 4418285691, "lat": 50.8487572, "lon": 4.3530409, "tags": {"alt_name": "Nuits Saint-Georges", "amenity": "restaurant", "cuisine": "regional", "name": "Nuits St. Georges"}}, {"type": "node", "id": 4418285711, "lat": 50.8484345, "lon": 4.3547263, "tags": {"amenity": "restaurant", "contact:phone": "+32 2 833 37 37", "contact:website": "https://predecheznous.be", "name": "Pr\u00e9 de chez nous", "opening_hours": "Tu-Sa 12:00-14:30,19:00-21:30", "organic": "only", "payment:cash": "yes", "payment:maestro": "yes", "payment:mastercard": "yes", "payment:visa": "yes"}}, {"type": "node", "id": 4418285721, "lat": 50.8481865, "lon": 4.3544615, "tags": {"amenity": "restaurant", "check_date": "2023-01-21", "contact:website": "https://www.bouillonbruxelles.com/", "name": "Bouillon", "start_date": "2023-01"}}, {"type": "node", "id": 4440441860, "lat": 50.8471505, "lon": 4.3524518, "tags": {"amenity": "restaurant", "changing_table": "yes", "check_date": "2024-01-04", "entrance:kerb:height": "0.01", "entrance:ramp": "no", "entrance:step_count": "1", "entrance:width": "0.68", "indoor_seating": "yes", "name": "Le Paon - De Pauw", "name:fr": "Le Paon", "name:nl": "De Pauw", "outdoor_seating": "terrace", "toilets:wheelchair": "no", "wheelchair": "no", "wheelchair:turning_circle": "yes"}}, {"type": "node", "id": 4497099013, "lat": 50.8479169, "lon": 4.3545414, "tags": {"amenity": "restaurant", "contact:mobile": "+32 456 22 13 91", "diet:vegetarian": "only", "name": "Frondes", "opening_hours": "Tu-Fr 18:30-22:30"}}, {"type": "node", "id": 4553094203, "lat": 50.8448146, "lon": 4.3552976, "tags": {"amenity": "restaurant", "contact:email": "mezzeway@gmail.com", "contact:mobile": "+ 32 486 30 3374", "contact:website": "https://mezzeway.com", "craft": "caterer", "cuisine": "lebanese", "description": "Traiteur Syro Libanais", "name": "Mezzeway", "opening_hours": "Mo-Th 11:00-20:00; Fr-Su 11:00-22:00"}}, {"type": "node", "id": 4595939791, "lat": 50.8480874, "lon": 4.3527879, "tags": {"amenity": "restaurant", "cuisine": "ramen", "name": "Buga Ramen"}}, {"type": "node", "id": 4609529007, "lat": 50.8471751, "lon": 4.3536976, "tags": {"amenity": "restaurant", "check_date": "2024-01-04", "name": "Royal Indian taste", "outdoor_seating": "yes", "wheelchair": "no"}}, {"type": "node", "id": 4897680326, "lat": 50.8447513, "lon": 4.3536978, "tags": {"amenity": "restaurant", "cuisine": "italian", "indoor_seating": "yes", "name": "Paradiso", "outdoor_seating": "no"}}, {"type": "node", "id": 5076982751, "lat": 50.8454603, "lon": 4.3536228, "tags": {"amenity": "restaurant", "contact:phone": "+32 2 505 53 00", "description": "Restaurant and bar", "indoor_seating": "yes", "name": "Chutney's", "outdoor_seating": "yes"}}, {"type": "node", "id": 6254467923, "lat": 50.8477041, "lon": 4.3499141, "tags": {"amenity": "restaurant", "check_date": "2025-06-26", "contact:website": "https://lefalstaff.be", "cuisine": "regional", "diet:vegetarian": "yes", "full_name": "Le Falstaff", "indoor_seating": "yes", "name": "Falstaff", "opening_hours": "10:00-24:00", "outdoor_seating": "yes", "wikidata": "Q3516289", "wikimedia_commons": "Category:Le Falstaff"}}, {"type": "node", "id": 6262113743, "lat": 50.8461647, "lon": 4.3528718, "tags": {"amenity": "restaurant", "brand": "Hard Rock Cafe", "brand:wikidata": "Q918151", "brand:wikipedia": "en:Hard Rock Cafe", "changing_table": "no", "cuisine": "american", "entrance:kerb:height": "0.19", "entrance:ramp": "no", "entrance:step_count": "1", "entrance:width": "0.94", "name": "Hard Rock Cafe", "toilets:wheelchair": "no", "website": "https://hardrock.com", "wheelchair:turning_circle": "yes"}}, {"type": "node", "id": 6286876812, "lat": 50.843998, "lon": 4.3517823, "tags": {"amenity": "restaurant", "contact:website": "https://lesfondusdelaraclette.be", "name": "Les Fondus de la Raclette"}}, {"type": "node", "id": 7807528294, "lat": 50.8494975, "lon": 4.3561232, "tags": {"amenity": "restaurant", "check_date": "2025-02-07", "check_date:opening_hours": "2025-02-07", "name": "Atrium", "opening_hours:signed": "no"}}, {"type": "node", "id": 8914556548, "lat": 50.8465865, "lon": 4.353316, "tags": {"amenity": "restaurant", "indoor_seating": "yes", "name": "Le Cerf", "outdoor_seating": "pedestrian_zone", "wheelchair": "no"}}, {"type": "node", "id": 9050132787, "lat": 50.8449292, "lon": 4.3530612, "tags": {"amenity": "restaurant", "contact:email": "zeitoun.bruxelles@gmail.com", "contact:mobile": "+32 498 51 84 61", "contact:phone": "+32 2 428 50 34", "contact:website": "https://www.zeitoun.brussels", "cuisine": "lebanese", "indoor_seating": "yes", "name": "Zeitoun", "opening_hours": "Mo-Tu 12:00-22:00; Th-Su 12:00-22:00", "outdoor_seating": "yes"}}, {"type": "node", "id": 9226870673, "lat": 50.8476457, "lon": 4.3500555, "tags": {"amenity": "restaurant", "bar": "yes", "contact:instagram": "brasserieboemvol", "contact:phone": "+32 2 681 27 58", "contact:website": "https://90folies.com/boemvol", "cuisine": "brasserie;belgian", "highchair": "yes", "indoor_seating": "yes", "name": "Boemvol", "opening_hours": "Mo-Su 12:00-24:00", "opening_hours:kitchen": "Mo-Su 12:00-22:30", "operator": "90 Folies", "operator:wikidata": "Q137780532", "outdoor_seating": "yes", "start_date": "2025-06-06", "wikidata": "Q137780801", "wikimedia_commons": "Category:Boemvol"}}, {"type": "node", "id": 9424855177, "lat": 50.8487035, "lon": 4.3511192, "tags": {"amenity": "restaurant", "check_date": "2026-01-05", "check_date:opening_hours": "2026-01-05", "contact:email": "reservations.leconteur@gmail.com", "contact:phone": "+32 2 347 02 91", "contact:website": "https://www.le-conteur.com/", "cuisine": "international", "name": "Le Conteur", "opening_hours:signed": "no", "reservation": "yes"}}, {"type": "node", "id": 9757444311, "lat": 50.848369, "lon": 4.3505687, "tags": {"amenity": "restaurant", "check_date:opening_hours": "2025-11-02", "cuisine": "pakistani", "indoor_seating": "yes", "name": "Maharaja", "opening_hours:signed": "no", "outdoor_seating": "pedestrian_zone"}}, {"type": "node", "id": 9812091460, "lat": 50.8478689, "lon": 4.3546834}, {"type": "node", "id": 9812091463, "lat": 50.8480309, "lon": 4.354819}, {"type": "node", "id": 9893113117, "lat": 50.847853, "lon": 4.3547724, "tags": {"entrance": "yes"}}, {"type": "node", "id": 9893113118, "lat": 50.8480335, "lon": 4.3549376}, {"type": "node", "id": 9893113119, "lat": 50.8480185, "lon": 4.3549724}, {"type": "node", "id": 9893113120, "lat": 50.8480345, "lon": 4.3550191}, {"type": "node", "id": 9893113121, "lat": 50.848002, "lon": 4.3550963}, {"type": "node", "id": 9893113122, "lat": 50.8479765, "lon": 4.3550699}, {"type": "node", "id": 9999460059, "lat": 50.8489448, "lon": 4.3537857, "tags": {"addr:housenumber": "57A", "addr:street": "Rue de la Fourche - Greepstraat", "entrance": "yes", "ref:UrbIS": "8182551"}}, {"type": "node", "id": 9999460060, "lat": 50.8488459, "lon": 4.3536933, "tags": {"description": "It looks like a door but it has been sealed and is used as a shop window", "entrance": "no"}}, {"type": "node", "id": 9999460073, "lat": 50.8483672, "lon": 4.3534707}, {"type": "node", "id": 10139237743, "lat": 50.8478225, "lon": 4.3536798, "tags": {"amenity": "restaurant", "check_date:opening_hours": "2023-04-01", "cuisine": "regional", "name": "Schuddeveld", "opening_hours:signed": "no"}}, {"type": "node", "id": 10690834768, "lat": 50.8481585, "lon": 4.3540197, "tags": {"amenity": "restaurant", "check_date": "2024-02-05", "contact:email": "welcome@leon1893.com", "contact:phone": "+32 2 511 14 15", "contact:website": "https://chezleon.be/", "cuisine": "regional", "name": "Chez L\u00e9on", "opening_hours": "Su-Th 11:30-23:00; Fr,Sa 11:30-23:30", "payment:cash": "yes", "payment:credit_cards": "yes", "payment:debit_cards": "yes", "smoking": "no", "start_date": "1867", "wheelchair": "no", "wikidata": "Q2963171", "wikipedia": "nl:Chez L\u00e9on"}}, {"type": "node", "id": 10761489968, "lat": 50.8469726, "lon": 4.3549874, "tags": {"amenity": "restaurant", "cuisine": "italian", "name": "Pasta Divina"}}, {"type": "node", "id": 10795142257, "lat": 50.8438423, "lon": 4.3524041, "tags": {"amenity": "restaurant", "capacity": "50", "check_date": "2025-06-24", "check_date:opening_hours": "2023-04-03", "cuisine": "regional;burger", "indoor_seating": "yes", "name": "Tasty Break", "opening_hours:signed": "no", "outdoor_seating": "yes", "smoking": "no", "takeaway": "yes"}}, {"type": "node", "id": 10911701217, "lat": 50.84894, "lon": 4.3540104}, {"type": "node", "id": 10911701218, "lat": 50.848947, "lon": 4.353996}, {"type": "node", "id": 10911701220, "lat": 50.8489743, "lon": 4.354029, "tags": {"entrance": "yes"}}, {"type": "node", "id": 10911701222, "lat": 50.8490023, "lon": 4.3540629}, {"type": "node", "id": 10911701224, "lat": 50.8489657, "lon": 4.3540186}, {"type": "node", "id": 11032920928, "lat": 50.8471605, "lon": 4.350479, "tags": {"addr:housenumber": "42", "addr:street": "Rue des Pierres - Steenstraat", "entrance": "yes", "ref:UrbIS": "6044733"}}, {"type": "node", "id": 11032920929, "lat": 50.8471648, "lon": 4.3505643, "tags": {"entrance": "yes"}}, {"type": "node", "id": 11212129632, "lat": 50.8478458, "lon": 4.3534602, "tags": {"amenity": "restaurant", "contact:facebook": "mozart.brussel", "contact:mobile": "+32 493 96 69 29", "contact:website": "https://mozart-resto.be/", "cuisine": "steak_house", "name": "Mozart", "opening_hours": "Mo-Sa 18:00+; Su 12:00+"}}, {"type": "node", "id": 11212129634, "lat": 50.8475985, "lon": 4.353114, "tags": {"amenity": "restaurant", "name": "Belgian Buffalo"}}, {"type": "node", "id": 11212136582, "lat": 50.8483438, "lon": 4.3533865, "tags": {"addr:housenumber": "33", "addr:street": "Rue de la Fourche - Greepstraat", "entrance": "yes", "ref:UrbIS": "8184453"}}, {"type": "node", "id": 11212136583, "lat": 50.8483783, "lon": 4.3534347, "tags": {"addr:housenumber": "35", "addr:street": "Rue de la Fourche - Greepstraat", "entrance": "shop", "ref:UrbIS": "8184085"}}, {"type": "node", "id": 11212136584, "lat": 50.848358, "lon": 4.3534852, "tags": {"entrance": "service"}}, {"type": "node", "id": 11230619440, "lat": 50.8448291, "lon": 4.3549417, "tags": {"amenity": "restaurant", "cuisine": "indian", "name": "Naanry"}}, {"type": "node", "id": 11253822497, "lat": 50.8498794, "lon": 4.3544935, "tags": {"amenity": "restaurant", "check_date:opening_hours": "2026-01-17", "contact:phone": "+32 2 303 47 60", "contact:website": "https://www.francine.brussels/", "name": "Francine", "opening_hours:signed": "no", "payment:cash": "no", "wheelchair": "limited"}}, {"type": "node", "id": 11295367253, "lat": 50.8477739, "lon": 4.3506367, "tags": {"amenity": "restaurant", "contact:mobile": "+32 493 11 33 19", "contact:website": "https://thebrasserie.be/", "cuisine": "regional", "level": "1", "name": "The Brasserie", "opening_hours": "Mo,Th 12:00-14:00,18:30-21:00; Tu,We off; Fr 12:00-14:00,18:30-21:30; Sa 12:00-15:00,18:30-21:30; Su 12:00-15:00,18:00-21:00", "wheelchair": "no"}}, {"type": "node", "id": 11406469704, "lat": 50.8478623, "lon": 4.349531, "tags": {"amenity": "restaurant", "check_date": "2025-06-30", "check_date:opening_hours": "2025-06-30", "indoor_seating": "yes", "name": "My Tannour", "opening_hours": "Su-Th 11:30-22:30, Fr,Sa 11:30-24:00", "outdoor_seating": "yes"}}, {"type": "node", "id": 11463894752, "lat": 50.8441811, "lon": 4.352353}, {"type": "node", "id": 11463894753, "lat": 50.844188, "lon": 4.3523559, "tags": {"addr:housenumber": "42", "addr:street": "Place de la Vieille Halle aux Bl\u00e9s - Oud Korenhuis", "entrance": "yes", "ref:UrbIS": "8181959"}}, {"type": "node", "id": 11463894762, "lat": 50.8440016, "lon": 4.3523238, "tags": {"amenity": "restaurant", "check_date": "2024-08-29", "check_date:opening_hours": "2023-04-03", "contact:phone": "+32 2 503 09 05", "contact:website": "https://www.cafenovo.be/", "indoor_seating": "yes", "name": "Caf\u00e9 Novo", "opening_hours": "Mo-Sa 11:00-25:00; Su 11:00-23:00", "opening_hours:signed": "no", "outdoor_seating": "yes", "wheelchair": "limited"}}, {"type": "node", "id": 11590036549, "lat": 50.8477578, "lon": 4.3545887, "tags": {"amenity": "restaurant", "contact:email": "lobsterhouse@live.fr", "contact:phone": "+32 2 502 20 16", "internet_access": "wlan", "name": "Lobster House", "wheelchair": "no"}}, {"type": "node", "id": 11590036551, "lat": 50.8483313, "lon": 4.3539351, "tags": {"amenity": "restaurant", "indoor_seating": "yes", "name": "La Terrasse", "outdoor_seating": "yes"}}, {"type": "node", "id": 11821459680, "lat": 50.8469908, "lon": 4.3551526, "tags": {"amenity": "restaurant", "check_date": "2024-04-16", "name": "Brasserie de Reine"}}, {"type": "node", "id": 11879343572, "lat": 50.8471705, "lon": 4.3526421, "tags": {"addr:housenumber": "9", "addr:street": "Rue Chair et Pain - Vlees-en-Broodstraat", "entrance": "yes", "ref:UrbIS": "6044740"}}, {"type": "node", "id": 11896698255, "lat": 50.8480781, "lon": 4.3526792, "tags": {"amenity": "restaurant", "contact:email": "namasteindiabxl@gmail.com", "contact:phone": "+32 2 513 07 13", "contact:website": "https://royalindianbruxelles.be", "cuisine": "indian", "diet:vegetarian": "yes", "name": "Royal Indian", "old_name": "Namaste", "opening_hours": "Mo-Su 11:30-23:00"}}, {"type": "node", "id": 11934836655, "lat": 50.8483748, "lon": 4.3544555, "tags": {"amenity": "restaurant", "check_date:opening_hours": "2024-12-05", "contact:mobile": "+32 470 09 09 50", "name": "La Pierre bleue", "opening_hours": "Tu-Sa 12:00-14:30,18:30-23:30"}}, {"type": "node", "id": 12012081641, "lat": 50.8488552, "lon": 4.3537014}, {"type": "node", "id": 12012081642, "lat": 50.8488162, "lon": 4.3538108}, {"type": "node", "id": 12023925065, "lat": 50.8500942, "lon": 4.3540308, "tags": {"amenity": "restaurant", "changing_table": "no", "changing_table:adult": "no", "contact:phone": "+32 2 219 52 96", "contact:website": "http://www.cafedelopera.be/", "diet:vegan": "no", "diet:vegetarian": "no", "entrance:kerb:height": "0.09", "entrance:step_count": "1", "entrance:width": "0.73", "name": "Cafe de l'Op\u00e9ra", "opening_hours": "Tu-Sa 11:00-20:00", "ramp:wheelchair": "no", "wheelchair:description": "not accessible - step up and manual door", "wheelchair:turning_circle": "yes"}}, {"type": "node", "id": 13075729735, "lat": 50.8492039, "lon": 4.3551839, "tags": {"amenity": "restaurant", "indoor_seating": "yes", "name": "Grand Lounge", "opening_hours": "Mo-Sa 11:30-22:00", "operator": "The Dominican", "outdoor_seating": "no"}}, {"type": "node", "id": 13176091163, "lat": 50.8472637, "lon": 4.3502757, "tags": {"amenity": "restaurant", "name": "Pizza Hut"}}, {"type": "node", "id": 13240606294, "lat": 50.8452708, "lon": 4.3532544, "tags": {"amenity": "restaurant", "cuisine": "ramen", "name": "Yamato"}}, {"type": "way", "id": 546797703, "nodes": [3118701315, 3118701272, 3118701268, 3118701266, 3118701246, 3118701258, 3118701275, 9999460059, 3118701261, 3118701236, 3118701231, 3118701120, 12012081642, 12012081641, 9999460060, 3118701118, 3118701091, 3118701081, 3118701105, 3118701117, 3118701233, 3118701240, 10911701217, 10911701218, 10911701224, 10911701220, 10911701222, 3118701315], "tags": {"amenity": "restaurant", "contact:email": "info@ricottaparmesan.be", "contact:phone": "+32 2 502 80 82", "contact:website": "https://www.ricottaparmesan.be/", "cuisine": "italian", "level": "0", "name": "Ricotta & Parmesan", "wheelchair": "no"}}, {"type": "way", "id": 582888195, "nodes": [3118699900, 11212136583, 3118699879, 11212136582, 3118699726, 3118699675, 3118699710, 3118699829, 3118699833, 3118699862, 11212136584, 9999460073, 3118699900], "tags": {"amenity": "restaurant", "contact:mobile": "+32 487 73 02 62", "cuisine": "regional;seafood", "indoor_seating": "yes", "name": "Le P\u00eacheur", "old_name": "La esquina de oro", "opening_hours": "Mo-Su 11:00-23:30", "outdoor_seating": "yes", "payment:cash": "yes", "payment:mastercard": "yes", "payment:visa": "yes", "wheelchair": "no"}}, {"type": "way", "id": 659133949, "nodes": [2334478735, 2334478715, 2334478712, 2334478699, 2334478702, 2334478707, 11463894752, 11463894753, 2334478724, 2334478735], "tags": {"amenity": "restaurant", "contact:phone": "+32 2 513 36 59", "contact:website": "https://www.bigmama.be", "cuisine": "regional", "internet_access": "wlan", "name": "Big Mama", "opening_hours": "Mo-Sa 12:00-14:30,18:00-21:30; Su 12:00-19:00", "payment:mastercard": "yes", "payment:visa": "yes"}}, {"type": "way", "id": 902793207, "nodes": [3118695853, 3118694222, 3118695700, 11879343572, 3118695665, 3118695716, 3118695855, 3118695877, 3118696029, 3118696031, 3118695853], "tags": {"amenity": "restaurant", "contact:email": "thebrothersbrasserie@gmail.com", "contact:phone": "+32 2 889 02 10", "contact:website": "https://thebrothersbrasserie.be/", "indoor_seating": "yes", "name": "The Brothers", "opening_hours": "Mo-Th 11:00-22:00; Fr,Sa 11:00-23:00; Su 11:00-15:00", "outdoor_seating": "pedestrian_zone"}}, {"type": "way", "id": 1079210580, "nodes": [3118698225, 9812091460, 9893113117, 3118698027, 3118698226, 9893113118, 9893113119, 9893113122, 3118694198, 9893113121, 9893113120, 3118698679, 3118699065, 3118699033, 9812091463, 3118698225], "tags": {"amenity": "restaurant", "check_date:opening_hours": "2023-08-12", "contact:email": "info@comptoirdesgaleries.be", "contact:phone": "+32 2 213 74 74", "contact:website": "https://www.comptoirdesgaleries.be/", "name": "Comptoir des Galeries", "opening_hours": "Tu-Sa 12:00-14:30,19:00-22:00", "opening_hours:signed": "no"}}, {"type": "way", "id": 1188132984, "nodes": [2698048997, 2698048986, 2698048971, 2140364948, 11032920929, 2698048950, 2698048956, 11032920928, 2698048961, 2698048997], "tags": {"amenity": "restaurant", "check_date": "2023-07-07", "cuisine": "crepe", "indoor_seating": "yes", "name": "La Maison des Cr\u00eapes", "outdoor_seating": "yes"}}]}