{"version": 0.6, "generator": "Overpass API 0.7.62.10 2d4cfc48", "osm3s": {"timestamp_osm_base": "2026-02-03T09:47:12Z", "copyright": "The data included in this document is from www.openstreetmap.org. The data is made available under ODbL."}, "elements": [{"type": "node", "id": 2429500927, "lat": 50.8480717, "lon": 4.3137318, "tags": {"amenity": "restaurant", "contact:phone": "+32 2 522 56 08", "cuisine": "asian", "takeaway": "yes"}}, {"type": "node", "id": 2532385379, "lat": 50.8547034, "lon": 4.3156825, "tags": {"amenity": "restaurant", "name": "Le Sanglier", "opening_hours": "10:00-22:00", "smoking": "separated"}}, {"type": "node", "id": 4147566099, "lat": 50.8533171, "lon": 4.3152265, "tags": {"amenity": "restaurant", "cuisine": "italian;pizza", "delivery": "yes", "name": "Calabria", "outdoor_seating": "yes", "takeaway": "yes"}}, {"type": "node", "id": 5022909121, "lat": 50.8465862, "lon": 4.2971336, "tags": {"amenity": "restaurant", "cuisine": "vietnamese", "name": "Legend hao", "name:fr": "Legend hao", "opening_hours": "Mo-Su 11:00-23:00"}}, {"type": "node", "id": 6644802356, "lat": 50.8565761, "lon": 4.310316, "tags": {"amenity": "restaurant", "name": "Le Chalet"}}, {"type": "node", "id": 9732741307, "lat": 50.8478376, "lon": 4.3109976, "tags": {"amenity": "restaurant", "cuisine": "arabic;tajine", "name": "O Millenium"}}, {"type": "node", "id": 10798688421, "lat": 50.8483461, "lon": 4.3146145, "tags": {"amenity": "restaurant", "contact:website": "https://www.leparthenon.com/", "name": "Le Parth\u00e9non"}}]}