{"version": 0.6, "generator": "Overpass API 0.7.62.10 2d4cfc48", "osm3s": {"timestamp_osm_base": "2026-02-03T09:47:12Z", "copyright": "The data included in this document is from www.openstreetmap.org. The data is made available under ODbL."}, "elements": [{"type": "node", "id": 4147438316, "lat": 50.8537057, "lon": 4.316601, "tags": {"amenity": "cafe", "cuisine": "regional", "name": "Beroea", "opening_hours": "Tu-Su 10:00-15:00,18:00-22:00"}}, {"type": "node", "id": 4147438317, "lat": 50.8543919, "lon": 4.3157531, "tags": {"amenity": "cafe", "name": "Le central parc"}}, {"type": "node", "id": 4147506921, "lat": 50.8487862, "lon": 4.3198371, "tags": {"amenity": "cafe", "name": "Darling Ka.f\u00e9e", "outdoor_seating": "yes"}}, {"type": "node", "id": 9727142127, "lat": 50.8489453, "lon": 4.3198197, "tags": {"amenity": "cafe", "cuisine": "arab", "description": "breakfast, pain au chocolat, croissant, capuccino, mint infusion", "name": "Salon du Th\u00e9 Manal"}}, {"type": "node", "id": 9732741304, "lat": 50.8478518, "lon": 4.3111532, "tags": {"amenity": "cafe", "cuisine": "breakfast;brunch;arab", "name": "Cafeteria Alicante"}}, {"type": "node", "id": 12348262902, "lat": 50.848882, "lon": 4.3198371, "tags": {"amenity": "cafe", "name": "La brasserie du Parc", "toilets:wheelchair": "no", "wheelchair": "limited"}}]}