{"version": 0.6, "generator": "Overpass API 0.7.62.10 2d4cfc48", "osm3s": {"timestamp_osm_base": "2026-02-02T14:45:10Z", "copyright": "The data included in this document is from www.openstreetmap.org. The data is made available under ODbL."}, "elements": [{"type": "node", "id": 354619109, "lat": 50.8286041, "lon": 4.3906403, "tags": {"amenity": "restaurant", "cuisine": "italian", "name": "Il Vesuvio"}}, {"type": "node", "id": 1015069253, "lat": 50.8327719, "lon": 4.3867307, "tags": {"amenity": "restaurant", "contact:website": "https://www.pizzaliloo.be", "cuisine": "pizza", "name": "Liloo"}}, {"type": "node", "id": 1705233724, "lat": 50.826165, "lon": 4.3974742, "tags": {"airconditioned": "yes", "amenity": "restaurant", "bicycle_parking": "yes", "catering": "yes", "contact:email": "info@lemess.be", "contact:phone": "+32 2 734 03 36", "contact:website": "https://lemess.be/", "cuisine": "french", "lunch": "yes", "name": "Le Mess", "opening_hours": "Mo-Fr 12:00-14:30,18:30-23:00; Sa 18:30-23:00", "outdoor_seating": "no", "payment:american_express": "yes", "payment:cash": "yes", "payment:maestro": "yes", "payment:mastercard": "yes", "payment:visa": "yes", "wheelchair": "no", "wifi": "yes"}}, {"type": "node", "id": 2344380195, "lat": 50.8301919, "lon": 4.3863548, "tags": {"amenity": "restaurant", "check_date:opening_hours": "2023-03-13", "name": "Snack Saint-Antoine", "opening_hours": "Tu-Sa 11:30-24:00; Su 19:00-24:00", "opening_hours:signed": "no"}}, {"type": "node", "id": 2346724838, "lat": 50.8290528, "lon": 4.3906086, "tags": {"amenity": "restaurant", "cuisine": "chinese", "name": "Ying -Yang", "opening_hours": "Mo-Sa 11:15-14:30,17:00-22:30; We 11:15-14:30; Su 17:00-22:30", "takeaway": "yes"}}, {"type": "node", "id": 2377777928, "lat": 50.8307362, "lon": 4.3904933, "tags": {"amenity": "restaurant", "name": "Snack Miracle", "old_name": "Brasserie de la Chasse"}}, {"type": "node", "id": 2539275411, "lat": 50.8295108, "lon": 4.3899765, "tags": {"amenity": "restaurant", "cuisine": "portuguese", "name": "Au Cor de Chasse"}}, {"type": "node", "id": 3347853380, "lat": 50.8326316, "lon": 4.3892542, "tags": {"alt_name": "La Porte du Bengale", "amenity": "restaurant", "capacity": "30", "cuisine": "indian", "name": "Le Palais du Bengale", "smoking": "no", "takeaway": "yes"}}, {"type": "node", "id": 4413062557, "lat": 50.8303021, "lon": 4.3812005, "tags": {"amenity": "restaurant", "check_date": "2024-10-26", "cuisine": "vietnamese", "name": "O Banh Mi", "opening_hours": "Mo off;Tu-Fr 11:00-20:30;Sa-Su 12:00-20:30"}}, {"type": "node", "id": 7258406604, "lat": 50.8303644, "lon": 4.3931907, "tags": {"amenity": "restaurant", "name": "Le Sport Life", "opening_hours": "Mo-Fr 10:00-23:00; Sa,Su 10:00-20:00"}}, {"type": "node", "id": 8396300409, "lat": 50.8305204, "lon": 4.392032, "tags": {"amenity": "restaurant", "contact:website": "https://www.komalamaison.be/", "name": "KOM \u00e0 la maison"}}, {"type": "node", "id": 11387359224, "lat": 50.8326745, "lon": 4.3888522, "tags": {"amenity": "restaurant", "cuisine": "spanish", "name": "Casa Juan"}}, {"type": "node", "id": 12147659140, "lat": 50.8307657, "lon": 4.389387, "tags": {"amenity": "restaurant", "check_date": "2024-08-31", "contact:mobile": "+32 484 58 88 19", "cuisine": "asian;chinese;vietnamese;thai", "name": "Chez Sun", "opening_hours": "12:00-23:00", "payment:cash": "yes", "payment:mastercard": "yes", "payment:visa": "yes"}}]}