{"version": 0.6, "generator": "Overpass API 0.7.62.10 2d4cfc48", "osm3s": {"timestamp_osm_base": "2026-02-03T08:55:52Z", "copyright": "The data included in this document is from www.openstreetmap.org. The data is made available under ODbL."}, "elements": [{"type": "node", "id": 3115600088, "lat": 50.8026849, "lon": 4.315512, "tags": {"name": "Bempt", "public_transport": "stop_position", "railway": "tram_stop", "tram": "yes"}}, {"type": "node", "id": 3115600093, "lat": 50.8026055, "lon": 4.3156988, "tags": {"name": "Bempt", "public_transport": "stop_position", "railway": "tram_stop", "tram": "yes"}}, {"type": "node", "id": 3115600155, "lat": 50.8067356, "lon": 4.3145335, "tags": {"name": "Max Waller", "public_transport": "stop_position", "railway": "tram_stop", "tram": "yes"}}, {"type": "node", "id": 3115600167, "lat": 50.8068067, "lon": 4.3147052, "tags": {"name": "Max Waller", "public_transport": "stop_position", "railway": "tram_stop", "tram": "yes"}}, {"type": "node", "id": 3115600232, "lat": 50.8098559, "lon": 4.317586, "tags": {"name": "Saint-Denis - Sint-Denijs", "name:fr": "Saint-Denis", "name:nl": "Sint-Denijs", "public_transport": "stop_position", "railway": "tram_stop", "tram": "yes"}}, {"type": "node", "id": 3115600263, "lat": 50.8115634, "lon": 4.3187377, "tags": {"name": "Saint-Denis - Sint-Denijs", "name:fr": "Saint-Denis", "name:nl": "Sint-Denijs", "public_transport": "stop_position", "railway": "tram_stop", "tram": "yes"}}]}