{"version": 0.6, "generator": "Overpass API 0.7.62.10 2d4cfc48", "osm3s": {"timestamp_osm_base": "2026-02-03T08:47:41Z", "copyright": "The data included in this document is from www.openstreetmap.org. The data is made available under ODbL."}, "elements": [{"type": "node", "id": 4417866142, "lat": 50.8360948, "lon": 4.3374623, "tags": {"amenity": "cafe", "changing_table": "no", "changing_table:adult": "no", "check_date": "2025-02-06", "check_date:opening_hours": "2025-02-06", "cuisine": "smoothie", "entrance:step_count": "0", "entrance:width": "2", "indoor_seating": "yes", "level": "0", "name": "Cafe Muffin", "opening_hours": "Mo-Su 05:30-19:30", "outdoor_seating": "no", "wheelchair": "yes", "wheelchair:turning_circle": "yes"}}, {"type": "node", "id": 4642149791, "lat": 50.8330677, "lon": 4.3301564, "tags": {"amenity": "cafe", "cuisine": "african", "name": "Maryland cafe"}}, {"type": "node", "id": 4873995895, "lat": 50.8370959, "lon": 4.3367589, "tags": {"amenity": "cafe", "brand": "Starbucks", "brand:wikidata": "Q37158", "brand:wikipedia": "en:Starbucks", "cuisine": "coffee_shop", "layer": "-2", "level": "-2", "location": "underground", "name": "Starbucks", "official_name": "Starbucks Coffee", "operator": "Starbucks", "takeaway": "yes"}}, {"type": "node", "id": 7171191695, "lat": 50.8366847, "lon": 4.335722, "tags": {"amenity": "cafe", "changing_table": "no", "changing_table:adult": "no", "check_date": "2025-03-17", "check_date:opening_hours": "2024-03-16", "cuisine": "sandwich", "diet:vegetarian": "yes", "drinking_water": "yes", "entrance:step_count": "0", "entrance:width": "1.4", "highchair": "yes", "indoor_seating": "yes", "internet_access": "no", "level": "0", "name": "Pret \u00e0 Manger", "opening_hours:signed": "no", "outdoor_seating": "no", "payment:contactless": "yes", "payment:credit_cards": "yes", "payment:debit_cards": "yes", "payment:mastercard": "yes", "payment:visa": "yes", "takeaway": "yes", "toilets": "no", "wheelchair": "yes", "wheelchair:turning_circle": "yes"}}, {"type": "node", "id": 8951744976, "lat": 50.8361193, "lon": 4.3377748, "tags": {"amenity": "cafe", "name": "Coffee Fellows"}}, {"type": "node", "id": 11346973052, "lat": 50.8365546, "lon": 4.3364378, "tags": {"amenity": "cafe", "brand": "Starbucks", "brand:wikidata": "Q37158", "check_date": "2025-06-17", "cuisine": "coffee_shop", "diet:vegetarian": "yes", "entrance:kerb:height": "0", "entrance:step_count": "0", "entrance:width": "1", "indoor_seating": "yes", "level": "0", "name": "Starbucks", "official_name": "Starbucks Coffee", "opening_hours": "Mo-Th 05:30-21:00; Fr,Sa 05:30-22:00; Su 06:00-21:30", "outdoor_seating": "no", "takeaway": "yes", "wheelchair": "yes", "wheelchair:turning_circle": "yes"}}, {"type": "node", "id": 11811587921, "lat": 50.8364478, "lon": 4.3359901, "tags": {"amenity": "cafe", "changing_table": "no", "changing_table:adult": "no", "check_date": "2025-10-19", "cuisine": "waffle", "diet:vegetarian": "yes", "drink:coffee": "yes", "drink:hot_chocolate": "yes", "drink:soda": "retail", "entrance:step_count": "0", "entrance:width": "3", "indoor_seating": "no", "level": "0", "name": "Chez Albert", "opening_hours": "07:00-20:00", "outdoor_seating": "no", "payment:cash": "no", "payment:credit_cards": "yes", "payment:debit_cards": "yes", "takeaway": "only", "website": "https://www.chezalbert.be/", "wheelchair": "yes", "wheelchair:turning_circle": "yes"}}, {"type": "node", "id": 11952285848, "lat": 50.8360012, "lon": 4.3372003, "tags": {"amenity": "cafe", "indoor_seating": "no", "level": "0", "name": "Java", "outdoor_seating": "no", "takeaway": "only"}}]}