{"version": 0.6, "generator": "Overpass API 0.7.62.10 2d4cfc48", "osm3s": {"timestamp_osm_base": "2026-02-03T11:28:30Z", "copyright": "The data included in this document is from www.openstreetmap.org. The data is made available under ODbL."}, "elements": [{"type": "node", "id": 1106127079, "lat": 50.8900681, "lon": 4.337282, "tags": {"amenity": "cafe", "name": "Stadium"}}, {"type": "node", "id": 1210483191, "lat": 50.890473, "lon": 4.3296636, "tags": {"amenity": "cafe", "contact:phone": "+32 2 341 18 29", "name": "Bram's", "opening_hours": "Mo-Fr 07:00-18:30; Sa 08:30-15:00"}}, {"type": "node", "id": 1631151656, "lat": 50.8877107, "lon": 4.3275911, "tags": {"amenity": "cafe", "name": "Heymbos"}}, {"type": "node", "id": 3292711061, "lat": 50.895039, "lon": 4.3418282, "tags": {"amenity": "cafe", "check_date": "2025-06-21", "contact:website": "https://www.atomiumrestaurant.be/fr/la-terrasse/", "diet:vegetarian": "yes", "indoor_seating": "yes", "name": "Terrasse - Terras", "name:fr": "Terrasse", "name:nl": "Terras", "opening_hours": "10:00-18:00", "outdoor_seating": "yes", "payment:credit_cards": "yes", "payment:debit_cards": "yes", "toilets:wheelchair": "no", "wheelchair": "no"}}, {"type": "node", "id": 11186621361, "lat": 50.8903654, "lon": 4.3442484, "tags": {"amenity": "cafe", "contact:facebook": "https://www.facebook.com/cafepalto", "cuisine": "coffee_shop", "image": "https://i.imgur.com/3gWLrjq.jpg", "name": "Palto", "opening_hours": "Mo,Tu off; We,Th 08:30-23:00; Fr 08:30-02:00; Sa 11:00-02:00; Su 11:00-20:00"}}]}